% program   : RTKPOST demo5 b34k
% inp file  : E:\AAE6102_Laboratory-main\AAE6102_Laboratory-main\GNSS Data\UrbanNav - Medium\20210521.medium-urban.whampoa.ublox.f9p.obs
% inp file  : E:\AAE6102_Laboratory-main\AAE6102_Laboratory-main\GNSS Data\UrbanNav - Medium\hksc141g.21o
% inp file  : E:\AAE6102_Laboratory-main\AAE6102_Laboratory-main\GNSS Data\UrbanNav - Medium\hksc141g.21*
% obs start : 2021/05/21 06:29:02.0 GPST (week2158 455342.0s)
% obs end   : 2021/05/21 06:54:39.0 GPST (week2158 456879.0s)
% pos mode  : Static
% freqs     : L1+L2/E5b
% solution  : Forward
% elev mask : 15.0 deg
% dynamics  : on
% tidecorr  : off
% ionos opt : Broadcast
% tropo opt : Saastamoinen
% ephemeris : Broadcast
% navi sys  : GPS GLONASS Galileo
% amb res   : Fix and Hold
% amb glo   : Fix and Hold
% val thres : 3.0
% antenna1  :                       ( 0.0000  0.0000  0.0000)
% antenna2  :                       ( 0.0000  0.0000  0.0000)
% ref pos   : 22.322172082  114.141187963    20.2386
%
% (lat/lon/height=WGS84/ellipsoidal,Q=1:fix,2:float,3:sbas,4:dgps,5:single,6:ppp,ns=# of satellites)
%  GPST          latitude(deg) longitude(deg)  height(m)   Q  ns   sdn(m)   sde(m)   sdu(m)  sdne(m)  sdeu(m)  sdun(m) age(s)  ratio
2158 455342.000   22.301558264  114.190300121     3.6101   2  11   0.9333   1.0949   2.4928   0.1969   0.6847   0.4996   0.00    0.0
2158 455343.000   22.301559028  114.190299816     3.8111   2  14   0.6714   0.7866   1.7778   0.1712   0.4891   0.3332   0.00    0.0
2158 455344.000   22.301561020  114.190298833     4.2676   2  12   0.5542   0.6483   1.4643   0.1415   0.4051   0.2747   0.00    0.0
2158 455345.000   22.301563220  114.190297791     4.7570   2  13   0.4798   0.5635   1.2678   0.1184   0.3492   0.2269   0.00    0.0
2158 455346.000   22.301565010  114.190297091     5.0410   2  12   0.4305   0.5053   1.1364   0.1065   0.3137   0.2045   0.00    0.0
2158 455347.000   22.301566761  114.190297504     5.5413   2  12   0.3933   0.4616   1.0377   0.0963   0.2872   0.1875   0.00    0.0
2158 455348.000   22.301573763  114.190303420     9.8800   2  12   0.3641   0.4277   0.9606   0.0888   0.2655   0.1733   0.00    0.0
2158 455349.000   22.301585380  114.190315226    20.8470   2  11   0.3406   0.4003   0.8975   0.0831   0.2481   0.1624   0.00    0.0
2158 455350.000   22.301612573  114.190335585    39.4576   2   9   0.3208   0.3776   0.8456   0.0782   0.2337   0.1525   0.00    0.0
2158 455351.000   22.301675122  114.190362036    67.4255   2  11   0.3038   0.3583   0.8011   0.0732   0.2214   0.1432   0.00    0.0
2158 455352.000   22.301783013  114.190395783    99.3426   2  10   0.2929   0.3429   0.7738   0.0706   0.2153   0.1543   0.00    0.0
2158 455353.000   22.301940599  114.190516712   171.6474   2  10   0.2849   0.3343   0.7525   0.0731   0.2160   0.1695   0.00    0.0
2158 455354.000   22.302068977  114.190647262   227.3303   2   8   0.2799   0.3275   0.7378   0.0643   0.2157   0.1790   0.00    0.0
2158 455355.000   22.302202777  114.190748197   251.9958   2   9   0.2740   0.3219   0.7219   0.0642   0.2051   0.1878   0.00    0.0
2158 455356.000   22.302259221  114.190768154   249.2261   2   6   0.2701   0.3162   0.7081   0.0572   0.1985   0.1926   0.00    0.0
2158 455357.000   22.302339585  114.190818394   246.0287   2   8   0.2656   0.3090   0.6955   0.0531   0.1949   0.1998   0.00    0.0
2158 455358.000   22.302377772  114.190816785   246.0070   2   7   0.2615   0.3007   0.6837   0.0473   0.1887   0.2049   0.00    0.0
2158 455359.000   22.302458436  114.190854491   248.5522   2   7   0.2575   0.2928   0.6726   0.0397   0.1830   0.2093   0.00    0.0
2158 455360.000   22.302454070  114.190824101   243.4110   2   4   0.2538   0.2853   0.6621   0.0375   0.1786   0.2121   0.00    0.0
2158 455361.000   22.302445759  114.190792543   238.5966   2   7   0.2502   0.2783   0.6519   0.0354   0.1745   0.2143   0.00    0.0
2158 455362.000   22.302445076  114.190765615   234.9356   2   7   0.2470   0.2718   0.6426   0.0334   0.1707   0.2162   0.00    0.0
2158 455363.000   22.302441178  114.190739441   230.9149   2   5   0.2437   0.2654   0.6335   0.0334   0.1679   0.2174   0.00    0.0
2158 455364.000   22.302437635  114.190714334   225.6553   2   4   0.2406   0.2594   0.6248   0.0338   0.1654   0.2183   0.00    0.0
2158 455365.000   22.302436551  114.190688697   221.6378   2   7   0.2381   0.2538   0.6164   0.0329   0.1630   0.2188   0.00    0.0
2158 455366.000   22.302435552  114.190665701   217.1564   2   5   0.2352   0.2489   0.6089   0.0345   0.1598   0.2189   0.00    0.0
2158 455367.000   22.302441504  114.190652108   214.7612   4   3   0.2328   0.2455   0.6024   0.0384   0.1590   0.2196   0.00    0.0
2158 455368.000   22.302445291  114.190631046   212.0371   2   5   0.2302   0.2412   0.5954   0.0392   0.1561   0.2192   0.00    0.0
2158 455369.000   22.302445363  114.190618042   209.0962   4   1   0.2283   0.2388   0.5912   0.0424   0.1549   0.2183   0.00    0.0
2158 455370.000   22.302451465  114.190612896   207.8280   2   5   0.2266   0.2373   0.5878   0.0467   0.1557   0.2180   0.00    0.0
2158 455371.000   22.302453063  114.190599608   205.3092   4   3   0.2248   0.2355   0.5842   0.0495   0.1533   0.2170   0.00    0.0
2158 455372.000   22.302455849  114.190579809   200.3401   4   1   0.2233   0.2334   0.5790   0.0510   0.1475   0.2162   0.00    0.0
2158 455373.000   22.302457269  114.190558761   195.2248   4   3   0.2217   0.2312   0.5739   0.0529   0.1421   0.2153   0.00    0.0
2158 455374.000   22.302458497  114.190539579   190.2681   4   2   0.2205   0.2296   0.5692   0.0538   0.1359   0.2147   0.00    0.0
2158 455375.000   22.302456020  114.190518818   184.2958   4   3   0.2183   0.2276   0.5623   0.0544   0.1299   0.2121   0.00    0.0
2158 455376.000   22.302453574  114.190500789   179.2603   2   4   0.2157   0.2257   0.5557   0.0558   0.1261   0.2091   0.00    0.0
2158 455377.000   22.302450749  114.190483657   174.5511   2   6   0.2133   0.2239   0.5494   0.0570   0.1228   0.2062   0.00    0.0
2158 455378.000   22.302442346  114.190464843   167.9257   2   7   0.2100   0.2220   0.5413   0.0570   0.1184   0.2017   0.00    0.0
2158 455379.000   22.302430621  114.190445320   160.6353   2   6   0.2067   0.2202   0.5336   0.0555   0.1125   0.1971   0.00    0.0
2158 455380.000   22.302421340  114.190427282   153.6851   2   7   0.2037   0.2184   0.5262   0.0556   0.1085   0.1931   0.00    0.0
2158 455381.000   22.302416543  114.190408213   148.6877   2   6   0.2019   0.2163   0.5224   0.0552   0.1056   0.1925   0.00    0.0
2158 455382.000   22.302409677  114.190386322   142.7202   2   8   0.2002   0.2141   0.5181   0.0552   0.1032   0.1918   0.00    0.0
2158 455383.000   22.302398916  114.190365260   136.2044   2   7   0.1986   0.2121   0.5147   0.0546   0.1010   0.1910   0.00    0.0
2158 455384.000   22.302390462  114.190345438   129.1690   2   6   0.1972   0.2102   0.5108   0.0541   0.0980   0.1906   0.00    0.0
2158 455385.000   22.302384268  114.190329450   125.8492   2   5   0.1954   0.2086   0.5062   0.0541   0.0964   0.1884   0.00    0.0
2158 455386.000   22.302384896  114.190324628   123.8325   2   6   0.1943   0.2081   0.5043   0.0554   0.0947   0.1891   0.00    0.0
2158 455387.000   22.302386276  114.190321838   123.0038   2   4   0.1935   0.2078   0.5028   0.0566   0.0937   0.1894   0.00    0.0
2158 455388.000   22.302390188  114.190316633   122.2948   4   3   0.1927   0.2072   0.5008   0.0582   0.0928   0.1898   0.00    0.0
2158 455389.000   22.302398237  114.190318797   123.0670   4   2   0.1918   0.2070   0.4979   0.0590   0.0930   0.1887   0.00    0.0
2158 455390.000   22.302407039  114.190317511   123.8729   4   1   0.1901   0.2063   0.4934   0.0604   0.0945   0.1867   0.00    0.0
2158 455391.000   22.302407812  114.190313772   123.9143   4   1   0.1887   0.2057   0.4890   0.0622   0.0977   0.1845   0.00    0.0
2158 455392.000   22.302407215  114.190309153   123.7803   4   0   0.1872   0.2052   0.4853   0.0633   0.0998   0.1826   0.00    0.0
2158 455393.000   22.302408036  114.190303411   123.9478   4   0   0.1857   0.2046   0.4824   0.0646   0.1020   0.1804   0.00    0.0
2158 455394.000   22.302404089  114.190292291   123.1543   4   0   0.1849   0.2038   0.4797   0.0641   0.1021   0.1794   0.00    0.0
2158 455395.000   22.302399542  114.190278568   122.7152   4   0   0.1835   0.2027   0.4759   0.0638   0.1031   0.1776   0.00    0.0
2158 455396.000   22.302396505  114.190262556   121.9346   4   0   0.1828   0.2015   0.4732   0.0631   0.1034   0.1772   0.00    0.0
2158 455397.000   22.302396618  114.190259148   122.5711   4   0   0.1821   0.2012   0.4720   0.0630   0.1048   0.1775   0.00    0.0
2158 455398.000   22.302397839  114.190251809   123.0015   4   0   0.1814   0.2006   0.4707   0.0631   0.1059   0.1779   0.00    0.0
2158 455399.000   22.302399962  114.190250087   123.5717   4   0   0.1809   0.2004   0.4699   0.0634   0.1067   0.1779   0.00    0.0
2158 455400.000   22.302404984  114.190246161   123.7242   4   0   0.1802   0.2001   0.4687   0.0641   0.1071   0.1782   0.00    0.0
2158 455401.000   22.302402024  114.190237316   122.3827   4   2   0.1795   0.1995   0.4671   0.0634   0.1061   0.1780   0.00    0.0
2158 455402.000   22.302401798  114.190222181   120.1805   2   4   0.1785   0.1986   0.4650   0.0631   0.1043   0.1781   0.00    2.6
2158 455403.000   22.302397128  114.190200499   116.8301   2   6   0.1772   0.1973   0.4625   0.0621   0.1012   0.1777   0.00    0.0
2158 455404.000   22.302392037  114.190174479   113.9422   2   7   0.1762   0.1957   0.4599   0.0612   0.0991   0.1775   0.00    1.0
2158 455405.000   22.302385622  114.190145321   112.0412   2   5   0.1751   0.1937   0.4572   0.0600   0.0984   0.1771   0.00    0.0
2158 455406.000   22.302383239  114.190123976   108.8507   2   7   0.1741   0.1925   0.4547   0.0599   0.0959   0.1765   0.00    1.0
2158 455407.000   22.302379029  114.190100551   106.6000   2   6   0.1732   0.1909   0.4523   0.0593   0.0946   0.1758   0.00    0.0
2158 455408.000   22.302376053  114.190075907   104.1145   2   6   0.1722   0.1893   0.4496   0.0591   0.0931   0.1752   0.00    1.0
2158 455409.000   22.302370520  114.190058075   102.0412   2   5   0.1714   0.1882   0.4474   0.0582   0.0918   0.1745   0.00    0.0
2158 455410.000   22.302366557  114.190032089    99.9868   2   5   0.1703   0.1864   0.4446   0.0576   0.0909   0.1740   0.00    0.0
2158 455411.000   22.302361222  114.190015270    97.9925   2   6   0.1696   0.1853   0.4424   0.0567   0.0896   0.1734   0.00    0.0
2158 455412.000   22.302358344  114.189993351    95.7129   2   6   0.1686   0.1838   0.4398   0.0565   0.0882   0.1727   0.00    0.0
2158 455413.000   22.302353986  114.189978303    93.5756   2   5   0.1679   0.1829   0.4378   0.0559   0.0866   0.1718   0.00    0.0
2158 455414.000   22.302351147  114.189957566    91.4031   2   5   0.1670   0.1815   0.4353   0.0556   0.0851   0.1712   0.00    0.0
2158 455415.000   22.302346065  114.189942359    89.5561   2   5   0.1662   0.1804   0.4331   0.0547   0.0840   0.1705   0.00    0.0
2158 455416.000   22.302342310  114.189920295    87.7536   2   6   0.1653   0.1789   0.4304   0.0542   0.0831   0.1699   0.00    0.0
2158 455417.000   22.302337370  114.189905855    85.9616   2   6   0.1645   0.1779   0.4282   0.0533   0.0819   0.1692   0.00    0.0
2158 455418.000   22.302333756  114.189884972    84.2151   2   5   0.1636   0.1764   0.4256   0.0528   0.0811   0.1686   0.00    0.0
2158 455419.000   22.302329669  114.189872011    82.2979   2   6   0.1629   0.1755   0.4236   0.0522   0.0795   0.1677   0.00    0.0
2158 455420.000   22.302325966  114.189851426    80.4708   2   6   0.1619   0.1740   0.4209   0.0516   0.0785   0.1669   0.00    0.0
2158 455421.000   22.302320929  114.189835406    79.1541   2   5   0.1612   0.1728   0.4185   0.0507   0.0780   0.1662   0.00    0.0
2158 455422.000   22.302317431  114.189816628    77.5008   2   6   0.1602   0.1714   0.4159   0.0501   0.0771   0.1655   0.00    0.0
2158 455423.000   22.302312410  114.189798673    76.5526   2   6   0.1595   0.1701   0.4133   0.0491   0.0774   0.1648   0.00    0.0
2158 455424.000   22.302309163  114.189783716    74.5736   2   5   0.1586   0.1690   0.4109   0.0486   0.0757   0.1641   0.00    0.0
2158 455425.000   22.302304499  114.189765618    73.6043   2   6   0.1578   0.1676   0.4083   0.0477   0.0759   0.1632   0.00    0.0
2158 455426.000   22.302301180  114.189748844    72.0225   2   6   0.1569   0.1663   0.4057   0.0472   0.0750   0.1625   0.00    0.0
2158 455427.000   22.302297137  114.189734728    70.6974   2   6   0.1561   0.1652   0.4033   0.0464   0.0745   0.1617   0.00    0.0
2158 455428.000   22.302293913  114.189721151    68.8278   2   6   0.1552   0.1642   0.4008   0.0459   0.0729   0.1609   0.00    0.0
2158 455429.000   22.302289901  114.189706665    67.4324   2   5   0.1545   0.1631   0.3983   0.0451   0.0722   0.1600   0.00    0.0
2158 455430.000   22.302287910  114.189693951    65.9734   2   5   0.1533   0.1621   0.3949   0.0444   0.0702   0.1584   0.00    0.0
2158 455431.000   22.302285173  114.189681078    64.9332   2   5   0.1523   0.1610   0.3916   0.0433   0.0690   0.1568   0.00    0.0
2158 455432.000   22.302283287  114.189668875    63.5635   2   5   0.1512   0.1601   0.3884   0.0426   0.0670   0.1552   0.00    0.0
2158 455433.000   22.302279010  114.189656797    62.3753   2   5   0.1505   0.1591   0.3860   0.0416   0.0665   0.1543   0.00    0.0
2158 455434.000   22.302275848  114.189644768    60.6560   2   5   0.1496   0.1582   0.3836   0.0411   0.0649   0.1534   0.00    0.0
2158 455435.000   22.302272112  114.189633651    59.3556   2   5   0.1490   0.1573   0.3813   0.0403   0.0640   0.1524   0.00    0.0
2158 455436.000   22.302268994  114.189622121    57.6877   2   5   0.1482   0.1564   0.3789   0.0397   0.0624   0.1515   0.00    0.0
2158 455437.000   22.302264826  114.189610916    56.5400   2   5   0.1475   0.1555   0.3765   0.0388   0.0618   0.1505   0.00    0.0
2158 455438.000   22.302261725  114.189599824    54.9185   2   5   0.1466   0.1546   0.3740   0.0382   0.0601   0.1495   0.00    0.0
2158 455439.000   22.302257494  114.189588867    53.8234   2   5   0.1458   0.1537   0.3715   0.0371   0.0596   0.1485   0.00    0.0
2158 455440.000   22.302254514  114.189578243    52.2611   2   5   0.1449   0.1528   0.3691   0.0365   0.0579   0.1476   0.00    0.0
2158 455441.000   22.302250444  114.189567850    51.1364   2   6   0.1441   0.1520   0.3666   0.0354   0.0573   0.1465   0.00    0.0
2158 455442.000   22.302246467  114.189557155    49.1349   2   6   0.1432   0.1511   0.3637   0.0348   0.0557   0.1454   0.00    0.0
2158 455443.000   22.302233251  114.189542958    44.0830   2   5   0.1425   0.1504   0.3614   0.0339   0.0543   0.1443   0.00    0.0
2158 455444.000   22.302206860  114.189517154    35.9403   1   4   0.1011   0.0590   0.3083   0.0758   0.1321   0.1766   0.00    4.2
2158 455445.000   22.302200946  114.189511174    34.9410   2   6   0.1413   0.1493   0.3590   0.0328   0.0504   0.1432   0.00    0.0
2158 455446.000   22.302198260  114.189505611    34.2481   2   4   0.1409   0.1489   0.3582   0.0330   0.0496   0.1432   0.00    0.0
2158 455447.000   22.302198968  114.189503764    34.5161   4   1   0.1406   0.1487   0.3576   0.0336   0.0503   0.1432   0.00    0.0
2158 455448.000   22.302199459  114.189503018    34.4809   4   2   0.1403   0.1486   0.3572   0.0342   0.0501   0.1433   0.00    0.0
2158 455449.000   22.302199638  114.189502434    34.4592   4   0   0.1400   0.1485   0.3568   0.0348   0.0499   0.1434   0.00    0.0
2158 455450.000   22.302199020  114.189501599    34.3983   2   5   0.1396   0.1484   0.3564   0.0354   0.0499   0.1434   0.00    1.3
2158 455451.000   22.302194790  114.189494990    33.5225   2   4   0.1392   0.1480   0.3555   0.0356   0.0493   0.1434   0.00    1.4
2158 455452.000   22.302191494  114.189493123    32.3706   4   2   0.1390   0.1479   0.3549   0.0361   0.0486   0.1434   0.00    0.0
2158 455453.000   22.302188084  114.189491048    31.4967   4   0   0.1387   0.1477   0.3544   0.0367   0.0479   0.1434   0.00    0.0
2158 455454.000   22.302187752  114.189490350    31.3509   4   1   0.1382   0.1476   0.3531   0.0370   0.0468   0.1428   0.00    0.0
2158 455455.000   22.302178982  114.189486477    29.7095   4   0   0.1377   0.1474   0.3519   0.0373   0.0458   0.1421   0.00    0.0
2158 455456.000   22.302169091  114.189481377    27.4163   4   0   0.1372   0.1472   0.3503   0.0375   0.0441   0.1412   0.00    0.0
2158 455457.000   22.302158774  114.189476295    25.1631   4   3   0.1368   0.1471   0.3494   0.0377   0.0427   0.1409   0.00    0.0
2158 455458.000   22.302148626  114.189472151    22.7645   2   4   0.1366   0.1470   0.3491   0.0382   0.0424   0.1408   0.00    2.0
2158 455459.000   22.302146864  114.189466523    21.4687   4   2   0.1361   0.1466   0.3478   0.0386   0.0413   0.1399   0.00    0.0
2158 455460.000   22.302145532  114.189462208    20.4500   4   2   0.1357   0.1463   0.3465   0.0391   0.0406   0.1391   0.00    0.0
2158 455461.000   22.302145132  114.189457380    19.6724   4   0   0.1350   0.1460   0.3445   0.0399   0.0402   0.1378   0.00    0.0
2158 455462.000   22.302143059  114.189449957    18.2550   4   0   0.1345   0.1456   0.3425   0.0401   0.0392   0.1365   0.00    0.0
2158 455463.000   22.302141640  114.189444335    17.5457   4   0   0.1340   0.1452   0.3407   0.0406   0.0387   0.1353   0.00    0.0
2158 455464.000   22.302137601  114.189436805    16.2684   4   0   0.1336   0.1448   0.3391   0.0406   0.0370   0.1345   0.00    0.0
2158 455465.000   22.302133635  114.189430004    16.3071   4   0   0.1331   0.1445   0.3381   0.0407   0.0371   0.1339   0.00    0.0
2158 455466.000   22.302126511  114.189417244    15.3440   4   0   0.1325   0.1439   0.3365   0.0404   0.0356   0.1330   0.00    0.0
2158 455467.000   22.302122706  114.189412807    14.3519   4   0   0.1322   0.1438   0.3358   0.0401   0.0344   0.1325   0.00    0.0
2158 455468.000   22.302117191  114.189401631    13.0517   4   0   0.1319   0.1433   0.3350   0.0396   0.0325   0.1320   0.00    0.0
2158 455469.000   22.302113652  114.189393091    12.8958   4   0   0.1315   0.1429   0.3338   0.0397   0.0329   0.1312   0.00    0.0
2158 455470.000   22.302107388  114.189381998    11.7217   4   0   0.1312   0.1425   0.3328   0.0391   0.0306   0.1307   0.00    0.0
2158 455471.000   22.302102821  114.189377404    10.8186   4   0   0.1309   0.1423   0.3320   0.0387   0.0285   0.1303   0.00    0.0
2158 455472.000   22.302096761  114.189366523     9.6576   4   0   0.1307   0.1418   0.3311   0.0380   0.0255   0.1300   0.00    0.0
2158 455473.000   22.302092393  114.189362086     8.8199   4   0   0.1305   0.1416   0.3303   0.0376   0.0231   0.1297   0.00    0.0
2158 455474.000   22.302084642  114.189351075     6.8169   4   0   0.1302   0.1412   0.3293   0.0367   0.0171   0.1292   0.00    0.0
2158 455475.000   22.302080505  114.189344458     6.7760   4   0   0.1299   0.1409   0.3287   0.0364   0.0159   0.1291   0.00    0.0
2158 455476.000   22.302078587  114.189338505     6.4758   4   0   0.1298   0.1406   0.3278   0.0362   0.0140   0.1288   0.00    0.0
2158 455477.000   22.302074556  114.189327659     7.3981   4   0   0.1297   0.1403   0.3271   0.0357   0.0165   0.1288   0.00    0.0
2158 455478.000   22.302074265  114.189325056     8.0348   4   0   0.1297   0.1401   0.3268   0.0358   0.0180   0.1288   0.00    0.0
2158 455479.000   22.302074347  114.189325045     8.0869   4   0   0.1296   0.1401   0.3266   0.0360   0.0177   0.1288   0.00    0.0
2158 455480.000   22.302071195  114.189321035     8.0506   4   0   0.1293   0.1399   0.3261   0.0359   0.0166   0.1287   0.00    0.0
2158 455481.000   22.302065713  114.189314455     7.5518   4   0   0.1289   0.1396   0.3253   0.0356   0.0135   0.1285   0.00    0.0
2158 455482.000   22.302059745  114.189303675     7.0895   4   2   0.1285   0.1391   0.3238   0.0351   0.0114   0.1278   0.00    0.0
2158 455483.000   22.302057894  114.189299963     7.9457   4   2   0.1283   0.1390   0.3233   0.0351   0.0147   0.1278   0.00    0.0
2158 455484.000   22.302056040  114.189296431     8.7285   4   2   0.1282   0.1388   0.3229   0.0350   0.0174   0.1279   0.00    0.0
2158 455485.000   22.302053911  114.189289959     9.8340   4   2   0.1280   0.1385   0.3223   0.0350   0.0208   0.1279   0.00    0.0
2158 455486.000   22.302052923  114.189285824    10.5287   2   4   0.1278   0.1383   0.3219   0.0352   0.0229   0.1279   0.00    0.0
2158 455487.000   22.302052672  114.189282346    11.1936   2   5   0.1276   0.1381   0.3212   0.0355   0.0246   0.1279   0.00    1.2
2158 455488.000   22.302051276  114.189277487    11.1118   2   4   0.1273   0.1378   0.3208   0.0356   0.0241   0.1278   0.00    1.5
2158 455489.000   22.302050384  114.189274448    11.6684   4   0   0.1271   0.1376   0.3204   0.0357   0.0256   0.1278   0.00    0.0
2158 455490.000   22.302049225  114.189271670    12.3067   4   0   0.1269   0.1373   0.3198   0.0359   0.0266   0.1279   0.00    0.0
2158 455491.000   22.302048193  114.189267545    13.4378   2   4   0.1266   0.1371   0.3191   0.0359   0.0281   0.1281   0.00    1.1
2158 455492.000   22.302046838  114.189262178    14.4895   4   2   0.1263   0.1367   0.3184   0.0359   0.0303   0.1282   0.00    0.0
2158 455493.000   22.302046420  114.189256703    16.2155   2   6   0.1260   0.1362   0.3175   0.0359   0.0323   0.1283   0.00    1.4
2158 455494.000   22.302047036  114.189251982    17.9064   2   7   0.1257   0.1358   0.3167   0.0360   0.0342   0.1284   0.00    1.3
2158 455495.000   22.302046696  114.189247668    19.0281   2   6   0.1254   0.1355   0.3160   0.0360   0.0361   0.1285   0.00    1.0
2158 455496.000   22.302046467  114.189243293    20.1103   2   6   0.1252   0.1351   0.3154   0.0360   0.0380   0.1286   0.00    0.0
2158 455497.000   22.302046185  114.189238983    21.1372   2   6   0.1249   0.1348   0.3147   0.0360   0.0398   0.1286   0.00    1.2
2158 455498.000   22.302045901  114.189234735    22.1423   2   6   0.1246   0.1345   0.3141   0.0360   0.0415   0.1287   0.00    1.3
2158 455499.000   22.302044467  114.189228218    22.7879   2   6   0.1243   0.1340   0.3133   0.0358   0.0425   0.1286   0.00    2.8
2158 455500.000   22.302046146  114.189225203    24.7142   2   7   0.1240   0.1338   0.3127   0.0357   0.0436   0.1286   0.00    1.1
2158 455501.000   22.302047471  114.189221376    26.5931   2   7   0.1238   0.1335   0.3120   0.0357   0.0451   0.1286   0.00    1.2
2158 455502.000   22.302047329  114.189217305    28.0224   2   7   0.1233   0.1331   0.3108   0.0355   0.0458   0.1281   0.00    1.0
2158 455503.000   22.302048185  114.189214444    29.5095   2   7   0.1230   0.1328   0.3101   0.0355   0.0466   0.1281   0.00    1.8
2158 455504.000   22.302048538  114.189210680    31.0741   2   7   0.1226   0.1324   0.3093   0.0354   0.0475   0.1280   0.00    1.1
2158 455505.000   22.302048801  114.189206979    32.5710   2   7   0.1223   0.1321   0.3085   0.0353   0.0485   0.1279   0.00    1.3
2158 455506.000   22.302048180  114.189203332    33.4832   2   6   0.1219   0.1317   0.3078   0.0352   0.0493   0.1278   0.00    1.6
2158 455507.000   22.302047391  114.189199644    34.3358   2   6   0.1216   0.1314   0.3070   0.0351   0.0501   0.1277   0.00    2.2
2158 455508.000   22.302045284  114.189202207    34.6462   1   6   0.0859   0.0503   0.2702   0.0655   0.1159   0.1523   0.00    5.2
2158 455509.000   22.302045884  114.189193718    35.5994   2   6   0.1208   0.1308   0.3056   0.0348   0.0509   0.1274   0.00    1.1
2158 455510.000   22.302045129  114.189190057    36.3189   2   6   0.1204   0.1305   0.3047   0.0346   0.0516   0.1272   0.00    1.7
2158 455511.000   22.302043920  114.189186849    36.8271   2   6   0.1200   0.1302   0.3040   0.0344   0.0519   0.1269   0.00    1.1
2158 455512.000   22.302042629  114.189182938    37.4380   2   7   0.1196   0.1298   0.3031   0.0341   0.0524   0.1266   0.00    1.7
2158 455513.000   22.302041558  114.189179110    38.0112   2   6   0.1192   0.1295   0.3022   0.0339   0.0528   0.1263   0.00    1.0
2158 455514.000   22.302039908  114.189175268    38.5551   2   6   0.1187   0.1291   0.3012   0.0336   0.0531   0.1260   0.00    2.0
2158 455515.000   22.302040069  114.189174258    38.5202   1   6   0.0843   0.0494   0.2655   0.0643   0.1140   0.1496   0.00    3.5
2158 455516.000   22.302036364  114.189168128    39.3135   2   6   0.1178   0.1283   0.2993   0.0330   0.0534   0.1252   0.00    2.4
2158 455517.000   22.302033436  114.189163852    39.3647   2   6   0.1171   0.1280   0.2979   0.0325   0.0533   0.1244   0.00    1.0
2158 455518.000   22.302032098  114.189159847    40.4246   2   7   0.1166   0.1276   0.2967   0.0321   0.0531   0.1239   0.00    1.4
2158 455519.000   22.302030005  114.189155781    40.6919   2   6   0.1161   0.1272   0.2956   0.0317   0.0532   0.1233   0.00    1.0
2158 455520.000   22.302028236  114.189151664    41.5844   2   7   0.1155   0.1268   0.2943   0.0312   0.0529   0.1227   0.00    1.1
2158 455521.000   22.302026665  114.189147172    42.5203   2   7   0.1150   0.1264   0.2929   0.0308   0.0529   0.1221   0.00    1.6
2158 455522.000   22.302024526  114.189143080    43.1950   2   7   0.1144   0.1261   0.2916   0.0302   0.0526   0.1214   0.00    1.9
2158 455523.000   22.302022513  114.189138523    43.9176   2   7   0.1138   0.1257   0.2902   0.0297   0.0524   0.1207   0.00    1.1
2158 455524.000   22.302022181  114.189135750    44.9084   2   7   0.1132   0.1253   0.2888   0.0291   0.0520   0.1200   0.00    1.3
2158 455525.000   22.302028299  114.189136658    47.5916   2   7   0.1126   0.1249   0.2874   0.0284   0.0517   0.1192   0.00    1.4
2158 455526.000   22.302049296  114.189147464    53.2176   2   4   0.1120   0.1245   0.2863   0.0278   0.0511   0.1185   0.00    1.2
2158 455527.000   22.302074454  114.189159230    61.0104   2   4   0.1116   0.1243   0.2854   0.0275   0.0506   0.1181   0.00    0.0
2158 455528.000   22.302090504  114.189163716    64.3341   4   1   0.1112   0.1240   0.2847   0.0273   0.0507   0.1178   0.00    0.0
2158 455529.000   22.302117272  114.189174061    69.4066   4   3   0.1108   0.1238   0.2843   0.0271   0.0506   0.1175   0.00    0.0
2158 455530.000   22.302117985  114.189173045    69.7144   4   2   0.1106   0.1237   0.2840   0.0273   0.0511   0.1175   0.00    0.0
2158 455531.000   22.302117900  114.189170868    69.9743   4   0   0.1104   0.1234   0.2835   0.0273   0.0519   0.1176   0.00    0.0
2158 455532.000   22.302118147  114.189168935    70.1876   4   2   0.1102   0.1232   0.2831   0.0273   0.0527   0.1176   0.00    0.0
2158 455533.000   22.302118730  114.189166880    70.3281   4   0   0.1100   0.1229   0.2827   0.0274   0.0534   0.1176   0.00    0.0
2158 455534.000   22.302119757  114.189166315    70.5715   4   2   0.1098   0.1227   0.2823   0.0272   0.0543   0.1176   0.00    0.0
2158 455535.000   22.302121450  114.189164875    70.6618   4   3   0.1095   0.1225   0.2817   0.0271   0.0547   0.1175   0.00    0.0
2158 455536.000   22.302122987  114.189163486    70.6774   4   3   0.1093   0.1221   0.2810   0.0269   0.0550   0.1174   0.00    0.0
2158 455537.000   22.302123842  114.189162563    70.5103   4   0   0.1092   0.1219   0.2806   0.0268   0.0555   0.1175   0.00    0.0
2158 455538.000   22.302125590  114.189162168    70.5495   4   2   0.1091   0.1217   0.2803   0.0266   0.0561   0.1176   0.00    0.0
2158 455539.000   22.302128183  114.189161321    70.6136   4   2   0.1090   0.1215   0.2799   0.0265   0.0565   0.1177   0.00    0.0
2158 455540.000   22.302131582  114.189161033    70.6674   4   2   0.1088   0.1214   0.2796   0.0264   0.0571   0.1177   0.00    0.0
2158 455541.000   22.302132424  114.189160129    70.5461   4   0   0.1088   0.1211   0.2792   0.0261   0.0574   0.1178   0.00    0.0
2158 455542.000   22.302133012  114.189158684    70.2942   4   0   0.1087   0.1208   0.2789   0.0257   0.0577   0.1179   0.00    0.0
2158 455543.000   22.302133413  114.189157449    70.0645   4   0   0.1086   0.1205   0.2785   0.0254   0.0580   0.1179   0.00    0.0
2158 455544.000   22.302133952  114.189156568    69.8711   4   0   0.1085   0.1202   0.2782   0.0251   0.0583   0.1180   0.00    0.0
2158 455545.000   22.302135214  114.189157294    69.7964   4   0   0.1084   0.1201   0.2779   0.0249   0.0589   0.1180   0.00    0.0
2158 455546.000   22.302136514  114.189156322    69.6970   4   0   0.1083   0.1198   0.2775   0.0246   0.0593   0.1180   0.00    0.0
2158 455547.000   22.302137492  114.189154557    69.5720   4   0   0.1081   0.1194   0.2771   0.0245   0.0597   0.1180   0.00    0.0
2158 455548.000   22.302138244  114.189153703    69.3964   4   0   0.1080   0.1192   0.2767   0.0241   0.0600   0.1180   0.00    0.0
2158 455549.000   22.302139206  114.189151862    69.2779   4   0   0.1078   0.1189   0.2764   0.0239   0.0604   0.1180   0.00    0.0
2158 455550.000   22.302140145  114.189150352    69.0545   4   0   0.1077   0.1186   0.2760   0.0236   0.0606   0.1180   0.00    0.0
2158 455551.000   22.302140775  114.189149137    68.8499   4   0   0.1076   0.1183   0.2757   0.0233   0.0609   0.1180   0.00    0.0
2158 455552.000   22.302141717  114.189147632    68.6334   4   0   0.1074   0.1180   0.2753   0.0230   0.0611   0.1180   0.00    0.0
2158 455553.000   22.302142338  114.189146416    68.4342   4   0   0.1073   0.1178   0.2750   0.0227   0.0613   0.1180   0.00    0.0
2158 455554.000   22.302143291  114.189145144    68.2849   4   0   0.1072   0.1175   0.2746   0.0225   0.0616   0.1180   0.00    0.0
2158 455555.000   22.302143924  114.189143942    68.0862   4   0   0.1071   0.1173   0.2743   0.0222   0.0618   0.1180   0.00    0.0
2158 455556.000   22.302144021  114.189142971    67.8977   4   0   0.1070   0.1171   0.2741   0.0219   0.0619   0.1180   0.00    0.0
2158 455557.000   22.302144633  114.189141559    67.7668   4   0   0.1069   0.1168   0.2737   0.0217   0.0621   0.1180   0.00    0.0
2158 455558.000   22.302145171  114.189140584    67.6343   4   0   0.1068   0.1166   0.2734   0.0214   0.0622   0.1179   0.00    0.0
2158 455559.000   22.302145830  114.189140584    67.5474   4   0   0.1067   0.1165   0.2732   0.0213   0.0627   0.1180   0.00    0.0
2158 455560.000   22.302145908  114.189139416    67.3434   4   0   0.1067   0.1162   0.2728   0.0210   0.0628   0.1180   0.00    0.0
2158 455561.000   22.302146401  114.189139010    67.2715   4   0   0.1066   0.1160   0.2726   0.0210   0.0631   0.1181   0.00    0.0
2158 455562.000   22.302146511  114.189138016    67.0468   4   0   0.1066   0.1157   0.2722   0.0208   0.0630   0.1181   0.00    0.0
2158 455563.000   22.302147160  114.189136978    66.8833   4   0   0.1065   0.1155   0.2719   0.0206   0.0630   0.1181   0.00    0.0
2158 455564.004   22.302148891  114.189137478    66.7868   4   0   0.1065   0.1153   0.2717   0.0202   0.0632   0.1181   0.00    0.0
2158 455565.000   22.302153110  114.189139141    66.7287   4   0   0.1064   0.1151   0.2714   0.0201   0.0631   0.1181   0.00    0.0
2158 455566.000   22.302154867  114.189138650    66.6344   4   0   0.1063   0.1149   0.2711   0.0200   0.0631   0.1181   0.00    0.0
2158 455567.000   22.302156417  114.189137586    66.6077   4   0   0.1062   0.1147   0.2709   0.0202   0.0635   0.1181   0.00    0.0
2158 455568.000   22.302157277  114.189136414    66.3469   4   0   0.1061   0.1145   0.2706   0.0201   0.0635   0.1181   0.00    0.0
2158 455569.000   22.302158712  114.189136420    66.3559   4   0   0.1061   0.1144   0.2705   0.0201   0.0637   0.1181   0.00    0.0
2158 455570.000   22.302159809  114.189134853    66.1308   4   0   0.1059   0.1142   0.2699   0.0199   0.0637   0.1179   0.00    0.0
2158 455571.000   22.302161895  114.189131235    65.6311   4   2   0.1057   0.1138   0.2693   0.0195   0.0632   0.1176   0.00    0.0
2158 455572.000   22.302164898  114.189127567    65.3218   4   2   0.1054   0.1135   0.2686   0.0192   0.0628   0.1172   0.00    0.0
2158 455573.000   22.302167867  114.189124988    65.1656   4   0   0.1051   0.1133   0.2681   0.0193   0.0627   0.1170   0.00    0.0
2158 455574.000   22.302171317  114.189122761    64.8991   4   0   0.1049   0.1132   0.2676   0.0194   0.0626   0.1167   0.00    0.0
2158 455575.000   22.302175019  114.189118861    64.3651   2   4   0.1046   0.1129   0.2669   0.0193   0.0621   0.1164   0.00    0.0
2158 455576.000   22.302177032  114.189116717    64.1636   4   1   0.1045   0.1129   0.2665   0.0194   0.0618   0.1162   0.00    0.0
2158 455577.000   22.302179191  114.189115282    64.2735   4   1   0.1043   0.1129   0.2661   0.0195   0.0617   0.1159   0.00    0.0
2158 455579.000   22.302181923  114.189112106    63.8057   4   0   0.1042   0.1128   0.2657   0.0196   0.0613   0.1157   0.00    0.0
2158 455580.000   22.302183917  114.189107440    62.8222   4   0   0.1041   0.1126   0.2653   0.0193   0.0606   0.1156   0.00    0.0
2158 455581.000   22.302186506  114.189102519    61.8100   4   0   0.1039   0.1124   0.2649   0.0192   0.0599   0.1155   0.00    0.0
2158 455582.000   22.302189147  114.189098370    61.1800   4   0   0.1038   0.1123   0.2644   0.0191   0.0594   0.1153   0.00    0.0
2158 455583.000   22.302192467  114.189094484    60.6858   4   0   0.1037   0.1122   0.2642   0.0194   0.0592   0.1153   0.00    0.0
2158 455584.000   22.302195130  114.189091909    60.3520   4   0   0.1036   0.1122   0.2639   0.0194   0.0590   0.1151   0.00    0.0
2158 455586.000   22.302196399  114.189089526    59.9536   4   0   0.1035   0.1121   0.2638   0.0194   0.0587   0.1151   0.00    0.0
2158 455592.000   22.302200157  114.189085401    59.5011   4   0   0.1035   0.1120   0.2637   0.0196   0.0587   0.1151   0.00    0.0
2158 455593.000   22.302204808  114.189078523    59.1696   4   0   0.1034   0.1119   0.2636   0.0196   0.0585   0.1151   0.00    0.0
2158 455594.000   22.302208160  114.189073938    58.6456   4   0   0.1033   0.1118   0.2635   0.0196   0.0583   0.1150   0.00    0.0
2158 455596.000   22.302211275  114.189070654    58.3358   4   0   0.1033   0.1118   0.2634   0.0198   0.0582   0.1151   0.00    0.0
2158 455597.000   22.302215581  114.189065709    57.5900   4   0   0.1032   0.1117   0.2633   0.0198   0.0580   0.1151   0.00    0.0
2158 455598.000   22.302219353  114.189057671    56.1589   4   0   0.1031   0.1115   0.2630   0.0196   0.0574   0.1150   0.00    0.0
2158 455599.000   22.302223405  114.189051306    55.1602   4   0   0.1030   0.1114   0.2628   0.0197   0.0571   0.1149   0.00    0.0
2158 455600.000   22.302226922  114.189045004    54.0471   4   0   0.1029   0.1113   0.2627   0.0197   0.0567   0.1149   0.00    0.0
2158 455601.000   22.302231514  114.189041354    53.5483   4   0   0.1029   0.1113   0.2626   0.0198   0.0567   0.1150   0.00    0.0
2158 455602.000   22.302232579  114.189034892    52.4065   4   0   0.1028   0.1111   0.2625   0.0197   0.0562   0.1149   0.00    0.0
2158 455603.000   22.302236558  114.189027718    51.4129   4   0   0.1027   0.1110   0.2623   0.0198   0.0560   0.1149   0.00    0.0
2158 455604.000   22.302239690  114.189022294    50.5163   4   0   0.1027   0.1109   0.2622   0.0198   0.0557   0.1149   0.00    0.0
2158 455605.000   22.302244242  114.189016519    49.5972   4   0   0.1026   0.1109   0.2621   0.0200   0.0555   0.1150   0.00    0.0
2158 455606.000   22.302247513  114.189009210    48.4820   4   0   0.1026   0.1108   0.2620   0.0201   0.0552   0.1150   0.00    0.0
2158 455607.000   22.302251289  114.188999608    46.8913   4   0   0.1025   0.1106   0.2617   0.0200   0.0546   0.1149   0.00    0.0
2158 455608.000   22.302254122  114.188989494    45.2757   4   0   0.1024   0.1105   0.2615   0.0200   0.0541   0.1148   0.00    0.0
2158 455609.000   22.302256970  114.188979399    43.6660   4   0   0.1024   0.1103   0.2612   0.0200   0.0535   0.1148   0.00    0.0
2158 455610.000   22.302259832  114.188969340    42.0652   4   0   0.1023   0.1102   0.2610   0.0200   0.0529   0.1147   0.00    0.0
2158 455611.000   22.302262699  114.188959326    40.4740   4   0   0.1022   0.1100   0.2608   0.0200   0.0524   0.1147   0.00    0.0
2158 455612.000   22.302265552  114.188949341    38.8962   4   0   0.1022   0.1099   0.2605   0.0200   0.0518   0.1146   0.00    0.0
2158 455613.000   22.302269795  114.188938926    37.6029   4   0   0.1021   0.1097   0.2602   0.0200   0.0513   0.1145   0.00    0.0
2158 455614.000   22.302274014  114.188928589    36.3194   4   0   0.1020   0.1096   0.2600   0.0201   0.0507   0.1144   0.00    0.0
2158 455615.000   22.302278212  114.188918341    35.0486   4   0   0.1019   0.1094   0.2597   0.0201   0.0502   0.1143   0.00    0.0
2158 455616.000   22.302282386  114.188908182    33.7913   4   0   0.1018   0.1093   0.2594   0.0201   0.0497   0.1142   0.00    0.0
2158 455617.000   22.302287964  114.188897162    32.6834   4   0   0.1017   0.1091   0.2591   0.0202   0.0491   0.1141   0.00    0.0
2158 455618.000   22.302293453  114.188886683    31.7294   4   0   0.1016   0.1090   0.2588   0.0203   0.0486   0.1140   0.00    0.0
2158 455619.000   22.302299589  114.188876681    30.7532   4   0   0.1015   0.1088   0.2585   0.0204   0.0481   0.1138   0.00    0.0
2158 455620.000   22.302304418  114.188866837    29.3848   4   0   0.1014   0.1087   0.2582   0.0203   0.0475   0.1137   0.00    0.0
2158 455621.000   22.302309216  114.188857080    28.0317   4   0   0.1013   0.1085   0.2580   0.0204   0.0470   0.1137   0.00    0.0
2158 455622.000   22.302313941  114.188847836    26.8258   4   0   0.1012   0.1084   0.2578   0.0204   0.0465   0.1136   0.00    0.0
2158 455623.000   22.302318666  114.188838677    25.6327   4   0   0.1010   0.1082   0.2575   0.0203   0.0460   0.1135   0.00    0.0
2158 455624.000   22.302322696  114.188829189    24.4879   4   0   0.1010   0.1081   0.2573   0.0204   0.0454   0.1134   0.00    0.0
2158 455625.000   22.302326497  114.188819663    23.2924   4   0   0.1009   0.1080   0.2571   0.0205   0.0449   0.1134   0.00    0.0
2158 455626.000   22.302330289  114.188810201    22.1081   4   0   0.1008   0.1078   0.2569   0.0205   0.0444   0.1133   0.00    0.0
2158 455627.000   22.302334293  114.188800904    20.9962   4   0   0.1007   0.1077   0.2566   0.0206   0.0438   0.1132   0.00    0.0
2158 455628.000   22.302341291  114.188791736    20.0218   4   0   0.1006   0.1075   0.2563   0.0205   0.0433   0.1131   0.00    0.0
2158 455629.000   22.302346316  114.188782750    18.7915   4   0   0.1005   0.1074   0.2560   0.0205   0.0427   0.1130   0.00    0.0
2158 455630.000   22.302350221  114.188773384    17.5329   4   0   0.1003   0.1072   0.2556   0.0204   0.0419   0.1128   0.00    0.0
2158 455631.000   22.302353982  114.188764201    16.4012   4   0   0.1003   0.1071   0.2554   0.0204   0.0414   0.1127   0.00    0.0
2158 455632.000   22.302358301  114.188754828    15.2243   4   0   0.1001   0.1070   0.2552   0.0204   0.0408   0.1126   0.00    0.0
2158 455633.000   22.302362087  114.188745068    13.8818   4   0   0.1001   0.1068   0.2549   0.0205   0.0402   0.1126   0.00    0.0
2158 455634.000   22.302366185  114.188740638    13.3295   4   0   0.1000   0.1068   0.2548   0.0207   0.0400   0.1126   0.00    0.0
2158 455635.000   22.302369793  114.188736522    12.7059   4   0   0.1000   0.1068   0.2547   0.0208   0.0399   0.1126   0.00    0.0
2158 455636.000   22.302374006  114.188731958    12.2224   4   0   0.0999   0.1067   0.2546   0.0209   0.0398   0.1126   0.00    0.0
2158 455637.000   22.302377286  114.188729036    12.1193   4   0   0.0999   0.1067   0.2546   0.0210   0.0397   0.1126   0.00    0.0
2158 455638.000   22.302380713  114.188726208    12.0208   4   0   0.0999   0.1067   0.2546   0.0211   0.0397   0.1125   0.00    0.0
2158 455639.000   22.302384182  114.188723350    11.9219   4   0   0.0998   0.1066   0.2545   0.0212   0.0397   0.1125   0.00    0.0
2158 455640.000   22.302388622  114.188720730    11.7368   4   0   0.0998   0.1066   0.2545   0.0214   0.0397   0.1126   0.00    0.0
2158 455645.000   22.302392476  114.188717848    11.7232   4   0   0.0997   0.1065   0.2544   0.0214   0.0399   0.1126   0.00    0.0
2158 455646.000   22.302396364  114.188715024    11.7002   4   0   0.0997   0.1065   0.2544   0.0214   0.0402   0.1126   0.00    0.0
2158 455743.000   22.302399432  114.188716460    11.2515   4   0   0.0996   0.1064   0.2542   0.0212   0.0405   0.1127   0.00    0.0
2158 455744.000   22.302401204  114.188716742    10.8048   4   0   0.0996   0.1064   0.2541   0.0212   0.0406   0.1127   0.00    0.0
2158 455745.000   22.302402356  114.188715875    10.2984   4   0   0.0996   0.1063   0.2538   0.0209   0.0405   0.1126   0.00    0.0
2158 455748.000   22.302405405  114.188717270     9.8616   4   0   0.0995   0.1062   0.2536   0.0208   0.0409   0.1126   0.00    0.0
2158 455749.000   22.302407349  114.188717294     9.6976   4   0   0.0995   0.1062   0.2534   0.0208   0.0412   0.1126   0.00    0.0
2158 455750.000   22.302409290  114.188717310     9.5360   4   0   0.0995   0.1061   0.2533   0.0207   0.0414   0.1126   0.00    0.0
2158 455751.000   22.302411229  114.188717320     9.3762   4   0   0.0995   0.1061   0.2532   0.0206   0.0417   0.1126   0.00    0.0
2158 455752.000   22.302414259  114.188718661     8.9541   4   0   0.0994   0.1060   0.2530   0.0205   0.0420   0.1126   0.00    0.0
2158 455753.000   22.302417281  114.188719986     8.5362   4   0   0.0994   0.1059   0.2528   0.0204   0.0424   0.1127   0.00    0.0
2158 455754.000   22.302419208  114.188719969     8.3838   4   0   0.0994   0.1059   0.2527   0.0203   0.0426   0.1127   0.00    0.0
2158 455755.000   22.302421133  114.188719948     8.2328   4   0   0.0993   0.1058   0.2525   0.0203   0.0429   0.1127   0.00    0.0
2158 455756.000   22.302424144  114.188721245     7.8229   4   0   0.0993   0.1058   0.2524   0.0201   0.0432   0.1127   0.00    0.0
2158 455757.000   22.302427142  114.188722523     7.4181   4   0   0.0993   0.1057   0.2522   0.0200   0.0435   0.1128   0.00    0.0
2158 455758.000   22.302429063  114.188722482     7.2729   4   0   0.0992   0.1057   0.2520   0.0199   0.0437   0.1128   0.00    0.0
2158 455759.000   22.302432054  114.188723738     6.8743   4   0   0.0992   0.1056   0.2519   0.0198   0.0440   0.1128   0.00    0.0
2158 455760.000   22.302435034  114.188724975     6.4806   4   0   0.0992   0.1055   0.2517   0.0197   0.0443   0.1128   0.00    0.0
2158 455761.000   22.302436943  114.188724910     6.3424   4   0   0.0992   0.1055   0.2516   0.0196   0.0446   0.1128   0.00    0.0
2158 455764.000   22.302438844  114.188724829     6.2091   4   0   0.0991   0.1054   0.2514   0.0196   0.0448   0.1128   0.00    0.0
2158 455765.000   22.302440675  114.188724650     5.9335   4   0   0.0991   0.1054   0.2513   0.0195   0.0450   0.1128   0.00    0.0
2158 455768.000   22.302443811  114.188726068     5.7020   4   0   0.0991   0.1053   0.2511   0.0194   0.0453   0.1129   0.00    0.0
2158 455769.000   22.302445703  114.188725968     5.5745   4   0   0.0990   0.1053   0.2510   0.0193   0.0455   0.1129   0.00    0.0
2158 455772.000   22.302448483  114.188726911     5.0529   4   0   0.0990   0.1052   0.2508   0.0192   0.0458   0.1129   0.00    0.0
2158 455773.000   22.302450370  114.188726801     4.9286   4   0   0.0990   0.1052   0.2507   0.0191   0.0460   0.1129   0.00    0.0
2158 455776.000   22.302452253  114.188726693     4.8044   4   0   0.0990   0.1051   0.2505   0.0191   0.0462   0.1129   0.00    0.0
2158 455777.000   22.302454134  114.188726583     4.6813   4   0   0.0989   0.1051   0.2504   0.0190   0.0464   0.1129   0.00    0.0
2158 455778.000   22.302454801  114.188725001     4.6511   4   0   0.0989   0.1050   0.2503   0.0190   0.0465   0.1129   0.00    0.0
2158 455779.000   22.302456506  114.188724661     4.3820   4   0   0.0989   0.1050   0.2501   0.0190   0.0467   0.1129   0.00    0.0
2158 455780.000   22.302458280  114.188720345     3.4672   4   0   0.0989   0.1049   0.2499   0.0187   0.0466   0.1128   0.00    0.0
2158 455781.000   22.302460150  114.188720228     3.3477   4   0   0.0988   0.1048   0.2497   0.0187   0.0468   0.1128   0.00    0.0
2158 455782.000   22.302462018  114.188720109     3.2290   4   0   0.0988   0.1048   0.2496   0.0186   0.0470   0.1128   0.00    0.0
2158 455783.000   22.302464924  114.188721219     2.8743   4   0   0.0988   0.1047   0.2494   0.0185   0.0473   0.1129   0.00    0.0
2158 455784.000   22.302467818  114.188722315     2.5230   4   0   0.0988   0.1047   0.2493   0.0184   0.0476   0.1129   0.00    0.0
2158 455785.000   22.302469673  114.188722183     2.4081   4   0   0.0987   0.1046   0.2492   0.0183   0.0478   0.1129   0.00    0.0
2158 455786.000   22.302471468  114.188721965     2.1549   4   0   0.0987   0.1046   0.2490   0.0182   0.0479   0.1129   0.00    0.0
2158 455787.000   22.302474879  114.188721423     1.9368   4   0   0.0987   0.1045   0.2489   0.0182   0.0481   0.1129   0.00    0.0
2158 455788.000   22.302476554  114.188721053     1.6799   4   0   0.0986   0.1045   0.2487   0.0181   0.0483   0.1129   0.00    0.0
2158 455789.000   22.302478226  114.188720679     1.4242   4   0   0.0986   0.1044   0.2485   0.0181   0.0484   0.1129   0.00    0.0
2158 455790.000   22.302480067  114.188720534     1.3141   4   0   0.0986   0.1044   0.2484   0.0180   0.0486   0.1129   0.00    0.0
2158 455791.000   22.302481905  114.188720385     1.2048   4   0   0.0986   0.1043   0.2483   0.0179   0.0488   0.1129   0.00    0.0
2158 455792.000   22.302483740  114.188720234     1.0964   4   0   0.0986   0.1043   0.2482   0.0179   0.0490   0.1129   0.00    0.0
2158 455795.000   22.302485575  114.188720085     0.9882   4   0   0.0985   0.1043   0.2480   0.0178   0.0492   0.1129   0.00    0.0
2158 455796.000   22.302486485  114.188719106     1.0056   4   0   0.0985   0.1042   0.2479   0.0178   0.0494   0.1129   0.00    0.0
2158 455811.000   22.302489684  114.188720196     0.6750   4   0   0.0985   0.1042   0.2478   0.0177   0.0495   0.1129   0.00    0.0
2158 455883.000   22.302489759  114.188716307    -0.0544   4   0   0.0985   0.1041   0.2476   0.0176   0.0495   0.1129   0.00    0.0
2158 455936.000   22.302492166  114.188715064    -0.4703   4   0   0.0984   0.1040   0.2476   0.0174   0.0493   0.1129   0.00    0.0
2158 455956.000   22.302494672  114.188713820    -0.8348   4   0   0.0984   0.1039   0.2474   0.0173   0.0493   0.1128   0.00    0.0
2158 455975.000   22.302496678  114.188711868    -1.1800   4   0   0.0984   0.1038   0.2473   0.0171   0.0492   0.1128   0.00    0.0
2158 455998.000   22.302498915  114.188710113    -1.4069   4   0   0.0983   0.1037   0.2470   0.0168   0.0490   0.1127   0.00    0.0
2158 456017.000   22.302501105  114.188708874    -1.7103   4   0   0.0983   0.1036   0.2469   0.0167   0.0489   0.1126   0.00    0.0
2158 456101.000   22.302504778  114.188708899    -1.1375   4   0   0.0982   0.1035   0.2466   0.0165   0.0486   0.1125   0.00    0.0
2158 456102.000   22.302505671  114.188706779    -1.0367   4   0   0.0982   0.1034   0.2465   0.0166   0.0486   0.1124   0.00    0.0
2158 456103.000   22.302506578  114.188704706    -0.9266   4   2   0.0982   0.1033   0.2463   0.0166   0.0485   0.1123   0.00    0.0
2158 456104.000   22.302507492  114.188702096    -0.9170   4   0   0.0981   0.1032   0.2462   0.0166   0.0484   0.1123   0.00    0.0
2158 456105.000   22.302507997  114.188700599    -0.8522   4   0   0.0981   0.1031   0.2461   0.0167   0.0483   0.1122   0.00    0.0
2158 456108.000   22.302508663  114.188700182    -0.6799   4   0   0.0981   0.1031   0.2460   0.0166   0.0482   0.1122   0.00    0.0
2158 456109.000   22.302509943  114.188698900    -0.5335   4   0   0.0981   0.1030   0.2459   0.0166   0.0481   0.1121   0.00    0.0
2158 456110.000   22.302511620  114.188696501    -0.4471   4   0   0.0980   0.1029   0.2458   0.0166   0.0480   0.1120   0.00    0.0
2158 456111.000   22.302512019  114.188694147    -0.5017   4   0   0.0980   0.1028   0.2456   0.0166   0.0478   0.1120   0.00    0.0
2158 456112.000   22.302512922  114.188691568    -0.4956   4   0   0.0980   0.1027   0.2455   0.0167   0.0477   0.1119   0.00    0.0
2158 456115.000   22.302513824  114.188689002    -0.4888   4   0   0.0980   0.1026   0.2454   0.0167   0.0476   0.1119   0.00    0.0
2158 456116.000   22.302514322  114.188687552    -0.4235   4   0   0.0980   0.1025   0.2452   0.0167   0.0475   0.1118   0.00    0.0
2158 456117.000   22.302514819  114.188686105    -0.3585   4   0   0.0979   0.1025   0.2451   0.0168   0.0474   0.1117   0.00    0.0
2158 456118.000   22.302515315  114.188684663    -0.2934   4   0   0.0979   0.1024   0.2450   0.0168   0.0473   0.1117   0.00    0.0
2158 456119.000   22.302515810  114.188683228    -0.2282   4   0   0.0979   0.1023   0.2449   0.0168   0.0473   0.1116   0.00    0.0
2158 456120.000   22.302516711  114.188680701    -0.2193   4   0   0.0979   0.1022   0.2448   0.0168   0.0472   0.1116   0.00    0.0
2158 456121.000   22.302517205  114.188679278    -0.1536   4   0   0.0979   0.1022   0.2447   0.0168   0.0471   0.1115   0.00    0.0
2158 456122.000   22.302518104  114.188676769    -0.1435   4   0   0.0978   0.1021   0.2445   0.0169   0.0470   0.1115   0.00    0.0
2158 456123.000   22.302518597  114.188675360    -0.0774   4   0   0.0978   0.1020   0.2444   0.0169   0.0469   0.1114   0.00    0.0
2158 456124.000   22.302521174  114.188673939    -0.0882   4   0   0.0978   0.1019   0.2443   0.0169   0.0468   0.1113   0.00    0.0
2158 456125.000   22.302522068  114.188671460    -0.0774   4   0   0.0978   0.1018   0.2442   0.0169   0.0467   0.1113   0.00    0.0
2158 456126.000   22.302522980  114.188669099     0.1237   4   0   0.0977   0.1017   0.2441   0.0170   0.0467   0.1112   0.00    0.0
2158 456127.000   22.302524294  114.188665682     0.2709   4   2   0.0977   0.1016   0.2439   0.0172   0.0467   0.1111   0.00    0.0
2158 456128.000   22.302525614  114.188662276     0.4176   4   2   0.0977   0.1014   0.2438   0.0173   0.0467   0.1111   0.00    0.0
2158 456129.000   22.302526542  114.188659845     0.4354   4   2   0.0977   0.1014   0.2436   0.0174   0.0466   0.1110   0.00    0.0
2158 456130.000   22.302527841  114.188656468     0.5797   4   0   0.0976   0.1012   0.2435   0.0175   0.0466   0.1109   0.00    0.0
2158 456131.000   22.302529503  114.188654259     0.6716   4   0   0.0976   0.1011   0.2434   0.0175   0.0464   0.1109   0.00    0.0
2158 456132.000   22.302530391  114.188651968     0.8679   4   0   0.0976   0.1010   0.2432   0.0176   0.0465   0.1108   0.00    0.0
2158 456133.000   22.302531267  114.188649573     0.8784   4   0   0.0976   0.1010   0.2431   0.0177   0.0464   0.1107   0.00    0.0
2158 456134.000   22.302532057  114.188647547     0.8988   4   0   0.0975   0.1009   0.2430   0.0177   0.0463   0.1107   0.00    0.0
2158 456135.000   22.302532446  114.188646535     0.7845   4   0   0.0975   0.1008   0.2429   0.0177   0.0461   0.1107   0.00    0.0
2158 456136.000   22.302533724  114.188643236     0.9269   4   0   0.0975   0.1007   0.2428   0.0178   0.0461   0.1106   0.00    0.0
2158 456137.000   22.302534596  114.188640881     0.9396   4   0   0.0975   0.1006   0.2426   0.0179   0.0460   0.1105   0.00    0.0
2158 456138.000   22.302535868  114.188637617     1.0820   4   0   0.0974   0.1005   0.2425   0.0180   0.0460   0.1105   0.00    0.0
2158 456139.000   22.302536738  114.188635286     1.0953   4   0   0.0974   0.1004   0.2424   0.0180   0.0459   0.1104   0.00    0.0
2158 456140.000   22.302537998  114.188632043     1.2342   4   0   0.0974   0.1003   0.2423   0.0182   0.0459   0.1103   0.00    0.0
2158 456141.000   22.302538856  114.188630231     1.1923   4   0   0.0974   0.1002   0.2421   0.0182   0.0459   0.1103   0.00    0.0
2158 456142.000   22.302540069  114.188627502     1.4116   4   0   0.0973   0.1001   0.2420   0.0183   0.0459   0.1102   0.00    0.0
2158 456144.000   22.302542507  114.188625517     1.4347   4   0   0.0973   0.1000   0.2419   0.0184   0.0458   0.1102   0.00    0.0
2158 456145.000   22.302545351  114.188622963     1.5091   4   0   0.0973   0.0999   0.2418   0.0184   0.0457   0.1101   0.00    0.0
2158 456147.000   22.302547781  114.188621296     1.4753   4   0   0.0972   0.0999   0.2417   0.0185   0.0455   0.1101   0.00    0.0
2158 456148.000   22.302550785  114.188618444     1.2434   4   0   0.0972   0.0999   0.2417   0.0185   0.0453   0.1101   0.00    0.0
2158 456149.000   22.302553535  114.188615970     1.1819   4   0   0.0972   0.0998   0.2416   0.0185   0.0452   0.1100   0.00    0.0
2158 456151.000   22.302557046  114.188614096     1.4464   4   0   0.0971   0.0998   0.2415   0.0186   0.0450   0.1100   0.00    0.0
2158 456152.000   22.302561121  114.188611775     1.4998   4   0   0.0970   0.0997   0.2414   0.0186   0.0449   0.1099   0.00    0.0
2158 456153.000   22.302567630  114.188611090     1.1430   4   0   0.0970   0.0996   0.2413   0.0186   0.0448   0.1099   0.00    0.0
2158 456163.000   22.302570543  114.188609317     1.2222   4   0   0.0969   0.0995   0.2411   0.0189   0.0448   0.1098   0.00    0.0
2158 456164.000   22.302573614  114.188607461     1.2494   4   0   0.0968   0.0994   0.2411   0.0192   0.0450   0.1098   0.00    0.0
2158 456165.000   22.302576209  114.188605427     1.1519   4   0   0.0968   0.0994   0.2410   0.0195   0.0452   0.1098   0.00    0.0
2158 456166.000   22.302578503  114.188603883     1.1080   4   0   0.0967   0.0993   0.2410   0.0197   0.0454   0.1097   0.00    0.0
2158 456178.000   22.302580856  114.188602955     1.1224   4   0   0.0967   0.0992   0.2409   0.0199   0.0453   0.1097   0.00    0.0
2158 456179.000   22.302581133  114.188603744     1.2258   4   0   0.0967   0.0991   0.2408   0.0199   0.0452   0.1096   0.00    0.0
2158 456180.000   22.302584025  114.188601847     1.2063   4   0   0.0966   0.0990   0.2407   0.0201   0.0450   0.1096   0.00    0.0
2158 456182.000   22.302585972  114.188600587     1.1920   4   0   0.0966   0.0990   0.2407   0.0201   0.0449   0.1096   0.00    0.0
2158 456183.000   22.302587001  114.188599801     1.1882   4   0   0.0966   0.0989   0.2406   0.0202   0.0447   0.1096   0.00    0.0
2158 456187.000   22.302589508  114.188598461     1.2569   4   0   0.0965   0.0989   0.2406   0.0204   0.0446   0.1096   0.00    0.0
2158 456188.000   22.302592265  114.188597723     1.2492   4   1   0.0964   0.0988   0.2406   0.0205   0.0446   0.1096   0.00    0.0
2158 456189.000   22.302593783  114.188596766     1.1953   4   1   0.0964   0.0988   0.2405   0.0206   0.0444   0.1096   0.00    0.0
2158 456191.000   22.302594602  114.188596924     1.1146   4   1   0.0964   0.0987   0.2405   0.0207   0.0445   0.1096   0.00    0.0
2158 456192.000   22.302595547  114.188597417     1.3053   4   1   0.0963   0.0987   0.2404   0.0208   0.0444   0.1096   0.00    0.0
2158 456193.000   22.302597248  114.188598163     1.3584   4   2   0.0963   0.0986   0.2403   0.0209   0.0443   0.1095   0.00    0.0
2158 456194.000   22.302598125  114.188598812     1.5662   4   1   0.0962   0.0986   0.2402   0.0209   0.0441   0.1095   0.00    0.0
2158 456195.000   22.302600644  114.188602211     1.8425   4   2   0.0962   0.0984   0.2401   0.0209   0.0439   0.1094   0.00    0.0
2158 456197.000   22.302602197  114.188602787     2.1922   4   0   0.0961   0.0984   0.2400   0.0210   0.0438   0.1094   0.00    0.0
2158 456198.000   22.302604040  114.188605132     2.5046   4   0   0.0960   0.0983   0.2399   0.0211   0.0437   0.1093   0.00    0.0
2158 456199.000   22.302606030  114.188606598     2.2892   4   3   0.0960   0.0982   0.2398   0.0211   0.0438   0.1093   0.00    0.0
2158 456200.000   22.302606763  114.188606271     2.3152   4   2   0.0960   0.0982   0.2398   0.0212   0.0438   0.1092   0.00    0.0
2158 456201.000   22.302608145  114.188606860     2.5690   4   2   0.0959   0.0982   0.2397   0.0213   0.0436   0.1092   0.00    0.0
2158 456202.000   22.302610735  114.188609868     2.8743   4   2   0.0958   0.0981   0.2394   0.0212   0.0433   0.1091   0.00    0.0
2158 456203.000   22.302613713  114.188616896     2.0821   4   2   0.0958   0.0980   0.2392   0.0211   0.0434   0.1091   0.00    0.0
2158 456204.000   22.302616672  114.188619715     2.2913   4   2   0.0957   0.0979   0.2391   0.0211   0.0434   0.1091   0.00    0.0
2158 456205.000   22.302617805  114.188619505     2.6339   4   2   0.0957   0.0979   0.2389   0.0212   0.0434   0.1090   0.00    0.0
2158 456207.000   22.302619905  114.188621725     3.0206   4   2   0.0957   0.0979   0.2388   0.0213   0.0435   0.1089   0.00    0.0
2158 456214.000   22.302620325  114.188621319     2.9496   4   0   0.0957   0.0979   0.2388   0.0213   0.0435   0.1090   0.00    0.0
2158 456215.000   22.302621778  114.188621468     2.8248   4   0   0.0956   0.0978   0.2387   0.0213   0.0434   0.1090   0.00    0.0
2158 456216.000   22.302624728  114.188621782     2.6768   4   0   0.0956   0.0978   0.2387   0.0213   0.0434   0.1090   0.00    0.0
2158 456218.000   22.302626167  114.188622042     2.5731   4   1   0.0956   0.0978   0.2386   0.0213   0.0434   0.1090   0.00    0.0
2158 456219.000   22.302627888  114.188622029     2.5663   4   1   0.0955   0.0978   0.2386   0.0213   0.0434   0.1089   0.00    0.0
2158 456221.000   22.302628284  114.188623526     2.5895   4   1   0.0955   0.0978   0.2385   0.0214   0.0435   0.1089   0.00    0.0
2158 456222.000   22.302629076  114.188625556     2.4190   4   0   0.0955   0.0978   0.2385   0.0215   0.0436   0.1089   0.00    0.0
2158 456234.000   22.302630834  114.188624294     2.4943   4   1   0.0954   0.0977   0.2384   0.0216   0.0436   0.1088   0.00    0.0
2158 456235.000   22.302632615  114.188623158     2.5087   4   1   0.0954   0.0977   0.2384   0.0217   0.0436   0.1088   0.00    0.0
2158 456236.000   22.302634945  114.188622099     2.6279   4   0   0.0953   0.0977   0.2384   0.0218   0.0436   0.1088   0.00    0.0
2158 456237.000   22.302637422  114.188620713     2.6646   4   1   0.0953   0.0977   0.2384   0.0219   0.0436   0.1088   0.00    0.0
2158 456239.000   22.302639407  114.188619335     2.6344   4   0   0.0952   0.0977   0.2384   0.0221   0.0435   0.1088   0.00    0.0
2158 456240.000   22.302640854  114.188618633     2.7305   4   1   0.0952   0.0976   0.2384   0.0221   0.0435   0.1088   0.00    0.0
2158 456241.000   22.302642921  114.188617415     2.7791   4   1   0.0952   0.0976   0.2384   0.0222   0.0435   0.1088   0.00    0.0
2158 456242.000   22.302645221  114.188615999     2.8242   4   1   0.0951   0.0976   0.2384   0.0223   0.0435   0.1088   0.00    0.0
2158 456243.000   22.302647721  114.188614067     2.6370   4   1   0.0951   0.0976   0.2383   0.0224   0.0435   0.1088   0.00    0.0
2158 456247.000   22.302651855  114.188615235     2.3959   4   0   0.0950   0.0976   0.2383   0.0225   0.0436   0.1088   0.00    0.0
2158 456248.000   22.302654902  114.188614311     2.3148   4   0   0.0950   0.0975   0.2382   0.0225   0.0436   0.1087   0.00    0.0
2158 456257.000   22.302658109  114.188612009     2.2521   4   0   0.0949   0.0975   0.2382   0.0226   0.0435   0.1087   0.00    0.0
2158 456269.000   22.302661027  114.188610373     2.2802   4   0   0.0949   0.0975   0.2381   0.0227   0.0434   0.1087   0.00    0.0
2158 456272.000   22.302662667  114.188609359     2.3324   4   0   0.0949   0.0974   0.2381   0.0228   0.0433   0.1087   0.00    0.0
2158 456276.000   22.302664561  114.188608899     2.5163   4   0   0.0949   0.0974   0.2380   0.0228   0.0431   0.1087   0.00    0.0
2158 456280.000   22.302665259  114.188609465     2.7661   4   0   0.0948   0.0973   0.2379   0.0228   0.0429   0.1087   0.00    0.0
