% program   : RTKPOST demo5 b34k
% inp file  : C:\Users\owner\Downloads\AAE6102_Laboratory-main\GNSS Data\UrbanNav - Medium\20210521.medium-urban.whampoa.ublox.f9p.obs
% inp file  : C:\Users\owner\Downloads\2025-Apr-14_112045\2025-Apr-14_112045\r3_1s_1h_hksc141g.2021\hksc141g.21o
% inp file  : C:\Users\owner\Downloads\2025-Apr-14_112045\2025-Apr-14_112045\r3_1s_1h_hksc141g.2021\hksc141g.21g
% obs start : 2021/05/21 06:29:02.0 GPST (week2158 455342.0s)
% obs end   : 2021/05/21 06:54:39.0 GPST (week2158 456879.0s)
% pos mode  : Static
% freqs     : L1+L2/E5b
% solution  : Forward
% elev mask : 15.0 deg
% dynamics  : on
% tidecorr  : off
% ionos opt : Broadcast
% tropo opt : Saastamoinen
% ephemeris : Broadcast
% navi sys  : GPS GLONASS Galileo
% amb res   : Fix and Hold
% amb glo   : Fix and Hold
% val thres : 3.0
% antenna1  :                       ( 0.0000  0.0000  0.0000)
% antenna2  :                       ( 0.0000  0.0000  0.0000)
% ref pos   : 22.322172082  114.141187963    20.2386
%
% (lat/lon/height=WGS84/ellipsoidal,Q=1:fix,2:float,3:sbas,4:dgps,5:single,6:ppp,ns=# of satellites)
%  GPST                  latitude(deg) longitude(deg)  height(m)   Q  ns   sdn(m)   sde(m)   sdu(m)  sdne(m)  sdeu(m)  sdun(m) age(s)  ratio
2021/05/21 06:29:02.004   22.301558573  114.190278411     7.8483   4   3   2.1813   2.9573   8.6940   1.6074   3.3760   2.2689   0.00    0.0
2021/05/21 06:29:03.004   22.301559330  114.190278326     7.9421   2   4   1.6311   2.0359   5.9029   1.1563   2.1371   1.5364   0.00    0.0
2021/05/21 06:29:04.004   22.301559488  114.190277899     7.4289   2   4   1.3622   1.6885   4.9553   0.9699   1.8213   1.2895   0.00    0.0
2021/05/21 06:29:05.004   22.301559625  114.190277777     7.1387   2   4   1.1921   1.4725   4.3429   0.8493   1.6071   1.1281   0.00    0.0
2021/05/21 06:29:06.004   22.301559741  114.190279698     6.5672   2   4   1.0718   1.3209   3.9018   0.7624   1.4487   1.0105   0.00    0.0
2021/05/21 06:29:07.004   22.301559711  114.190284694     6.3129   2   4   0.9805   1.2065   3.5618   0.6955   1.3243   0.9188   0.00    0.0
2021/05/21 06:29:08.004   22.301562958  114.190293696    12.9954   2   4   0.9079   1.1158   3.2875   0.6413   1.2226   0.8437   0.00    0.0
2021/05/21 06:29:09.004   22.301564667  114.190300822    21.2020   4   3   0.8493   1.0420   3.0682   0.5973   1.1381   0.7811   0.00    0.0
2021/05/21 06:29:10.004   22.301559763  114.190300688    32.3207   4   3   0.8016   0.9827   2.8926   0.5632   1.0742   0.7364   0.00    0.0
2021/05/21 06:29:11.004   22.301564509  114.190319482    57.7148   4   3   0.7608   0.9319   2.7401   0.5335   1.0182   0.6970   0.00    0.0
2021/05/21 06:29:12.004   22.301600890  114.190389113   108.3458   4   3   0.7252   0.8876   2.6057   0.5073   0.9684   0.6619   0.00    0.0
2021/05/21 06:29:13.004   22.301709023  114.190658226   299.6973   4   2   0.6945   0.8660   2.5262   0.4896   0.9716   0.6430   0.00    0.0
2021/05/21 06:29:14.004   22.301826016  114.190900649   425.7399   4   1   0.6819   0.8616   2.4921   0.4831   0.9583   0.6156   0.00    0.0
2021/05/21 06:29:17.004   22.301826522  114.190878908   410.1663   4   1   0.6724   0.8497   2.4453   0.4681   0.9372   0.6088   0.00    0.0
2021/05/21 06:29:18.004   22.301820052  114.190881672   408.5850   4   2   0.6611   0.8497   2.4381   0.4675   0.9365   0.5952   0.00    0.0
2021/05/21 06:29:19.004   22.301830139  114.190896553   412.3929   4   2   0.6373   0.8455   2.4280   0.4542   0.9401   0.5926   0.00    0.0
2021/05/21 06:29:20.004   22.301829879  114.190902643   410.8301   4   1   0.6297   0.8455   2.4219   0.4537   0.9398   0.5784   0.00    0.0
2021/05/21 06:29:21.004   22.301843303  114.190914363   408.5785   4   2   0.6075   0.8420   2.4123   0.4424   0.9437   0.5789   0.00    0.0
2021/05/21 06:29:22.004   22.301845149  114.190923388   407.4003   4   1   0.6008   0.8353   2.4025   0.4404   0.9515   0.5680   0.00    0.0
2021/05/21 06:29:23.004   22.301851795  114.190932269   405.7283   4   3   0.5878   0.8226   2.3889   0.4347   0.9660   0.5648   0.00    0.0
2021/05/21 06:29:24.004   22.301852924  114.190936903   405.2154   4   0   0.5816   0.8114   2.3777   0.4310   0.9777   0.5567   0.00    0.0
2021/05/21 06:29:25.004   22.301860999  114.190903053   390.6280   4   2   0.5700   0.7929   2.3329   0.4246   0.9649   0.5510   0.00    0.0
2021/05/21 06:29:26.004   22.301872410  114.190906807   390.3084   4   0   0.5603   0.7834   2.3230   0.4197   0.9744   0.5472   0.00    0.0
2021/05/21 06:29:27.004   22.301876945  114.190907184   391.0079   4   2   0.5540   0.7749   2.3143   0.4161   0.9822   0.5412   0.00    0.0
2021/05/21 06:29:28.004   22.301881523  114.190907079   392.0552   4   0   0.5488   0.7671   2.3065   0.4127   0.9890   0.5345   0.00    0.0
2021/05/21 06:29:29.004   22.301887900  114.190906117   393.2764   4   2   0.5431   0.7598   2.2992   0.4092   0.9950   0.5289   0.00    0.0
2021/05/21 06:29:33.004   22.301892445  114.190899181   394.3988   4   1   0.5400   0.7536   2.2957   0.4068   0.9981   0.5265   0.00    0.0
2021/05/21 06:29:37.004   22.301914336  114.190899098   395.6002   4   1   0.5294   0.7499   2.2899   0.4023   1.0005   0.5230   0.00    0.0
2021/05/21 06:29:38.004   22.301917941  114.190891975   394.3226   4   1   0.5283   0.7472   2.2849   0.4018   1.0047   0.5258   0.00    0.0
2021/05/21 06:29:39.004   22.301946133  114.190894944   394.3866   4   1   0.5140   0.7432   2.2784   0.3951   1.0078   0.5265   0.00    0.0
2021/05/21 06:29:40.004   22.301953606  114.190887414   392.6108   4   1   0.5116   0.7407   2.2728   0.3948   1.0115   0.5313   0.00    0.0
2021/05/21 06:29:41.004   22.301976799  114.190888256   392.8366   4   2   0.4987   0.7370   2.2667   0.3888   1.0141   0.5317   0.00    0.0
2021/05/21 06:29:42.004   22.301968061  114.190860753   387.7686   4   2   0.4967   0.7342   2.2636   0.3873   1.0155   0.5288   0.00    0.0
2021/05/21 06:29:43.004   22.301985704  114.190853731   384.5809   4   3   0.4855   0.7307   2.2573   0.3821   1.0175   0.5287   0.00    0.0
2021/05/21 06:29:44.004   22.301986631  114.190824065   374.6775   4   2   0.4796   0.7279   2.2513   0.3797   1.0182   0.5252   0.00    0.0
2021/05/21 06:29:45.004   22.301993802  114.190805993   361.5946   4   2   0.4715   0.7270   2.2444   0.3760   1.0181   0.5248   0.00    0.0
2021/05/21 06:29:46.004   22.301997634  114.190777854   343.4260   4   2   0.4638   0.7260   2.2367   0.3725   1.0176   0.5243   0.00    0.0
2021/05/21 06:29:47.004   22.301999154  114.190744220   322.8196   4   2   0.4566   0.7249   2.2280   0.3691   1.0166   0.5234   0.00    0.0
2021/05/21 06:29:48.004   22.302001113  114.190707117   307.4964   4   2   0.4496   0.7216   2.2177   0.3659   1.0161   0.5223   0.00    0.0
2021/05/21 06:29:49.004   22.302007724  114.190709423   307.9554   4   0   0.4430   0.7210   2.2132   0.3630   1.0167   0.5220   0.00    0.0
2021/05/21 06:30:01.004   22.302007295  114.190675011   295.2904   4   0   0.4389   0.7134   2.1786   0.3584   0.9990   0.5168   0.00    0.0
2021/05/21 06:30:02.004   22.302018332  114.190678452   296.7782   4   2   0.4320   0.7127   2.1743   0.3552   0.9995   0.5161   0.00    0.0
2021/05/21 06:30:03.004   22.302024322  114.190680271   297.6408   4   2   0.4272   0.7122   2.1705   0.3528   1.0003   0.5175   0.00    0.0
2021/05/21 06:30:04.004   22.302033245  114.190681969   299.0924   4   2   0.4216   0.7117   2.1663   0.3503   1.0008   0.5167   0.00    0.0
2021/05/21 06:30:05.004   22.302041135  114.190665042   301.5245   4   2   0.4162   0.7090   2.1619   0.3480   1.0021   0.5160   0.00    0.0
2021/05/21 06:30:06.004   22.302047805  114.190630784   304.6952   4   2   0.4130   0.7050   2.1578   0.3473   1.0046   0.5166   0.00    0.0
2021/05/21 06:30:07.004   22.302056353  114.190599538   307.5592   4   2   0.4075   0.7006   2.1534   0.3450   1.0064   0.5160   0.00    0.0
2021/05/21 06:30:08.004   22.302061137  114.190568292   310.0568   4   2   0.4063   0.6973   2.1496   0.3457   1.0088   0.5179   0.00    0.0
2021/05/21 06:30:09.004   22.302068656  114.190540083   312.4379   4   2   0.4011   0.6932   2.1454   0.3433   1.0102   0.5172   0.00    0.0
2021/05/21 06:30:10.004   22.302072881  114.190511778   314.4912   4   2   0.3999   0.6902   2.1419   0.3439   1.0122   0.5190   0.00    0.0
2021/05/21 06:30:11.004   22.302079450  114.190486253   316.4549   4   2   0.3950   0.6864   2.1379   0.3416   1.0131   0.5181   0.00    0.0
2021/05/21 06:30:12.004   22.302083124  114.190460586   318.1361   4   2   0.3938   0.6836   2.1346   0.3420   1.0148   0.5197   0.00    0.0
2021/05/21 06:30:13.004   22.302088823  114.190437153   319.7399   4   2   0.3890   0.6799   2.1308   0.3396   1.0155   0.5187   0.00    0.0
2021/05/21 06:30:14.004   22.302092000  114.190413571   321.0911   4   2   0.3878   0.6772   2.1276   0.3398   1.0168   0.5202   0.00    0.0
2021/05/21 06:30:15.004   22.302097024  114.190391975   322.3953   4   2   0.3831   0.6737   2.1239   0.3374   1.0172   0.5190   0.00    0.0
2021/05/21 06:30:16.004   22.302099662  114.190369989   323.4466   4   2   0.3819   0.6711   2.1208   0.3374   1.0182   0.5203   0.00    0.0
2021/05/21 06:30:17.004   22.302104046  114.190349800   324.4343   4   2   0.3772   0.6677   2.1147   0.3348   1.0185   0.5203   0.00    0.0
2021/05/21 06:30:18.004   22.302106294  114.190329246   325.1686   4   2   0.3758   0.6652   2.1092   0.3348   1.0193   0.5221   0.00    0.0
2021/05/21 06:30:19.004   22.302110109  114.190310246   325.8282   4   2   0.3713   0.6619   2.1034   0.3321   1.0193   0.5216   0.00    0.0
2021/05/21 06:30:20.004   22.302106443  114.190256188   314.1468   4   2   0.3678   0.6512   2.0696   0.3277   1.0022   0.5150   0.00    0.0
2021/05/21 06:30:21.004   22.302109253  114.190238193   314.5560   4   2   0.3648   0.6484   2.0645   0.3261   1.0024   0.5156   0.00    0.0
2021/05/21 06:30:22.004   22.302111428  114.190220772   314.9130   4   3   0.3620   0.6456   2.0591   0.3246   1.0022   0.5156   0.00    0.0
2021/05/21 06:30:23.004   22.302114274  114.190204001   315.1377   4   3   0.3578   0.6424   2.0537   0.3220   1.0017   0.5146   0.00    0.0
2021/05/21 06:30:24.004   22.302116644  114.190187879   315.2982   4   3   0.3537   0.6392   2.0482   0.3193   1.0008   0.5134   0.00    0.0
2021/05/21 06:30:25.004   22.302118615  114.190171586   315.1804   4   3   0.3498   0.6360   2.0422   0.3166   0.9996   0.5120   0.00    0.0
2021/05/21 06:30:26.004   22.302120249  114.190155024   314.7033   4   3   0.3459   0.6326   2.0355   0.3139   0.9979   0.5103   0.00    0.0
2021/05/21 06:30:27.004   22.302121649  114.190138519   314.0271   4   3   0.3420   0.6291   2.0285   0.3111   0.9959   0.5084   0.00    0.0
2021/05/21 06:30:28.004   22.302122709  114.190121672   313.0190   4   3   0.3382   0.6255   2.0206   0.3082   0.9933   0.5061   0.00    0.0
2021/05/21 06:30:29.004   22.302123008  114.190102231   310.6282   4   3   0.3344   0.6211   2.0085   0.3049   0.9886   0.5028   0.00    0.0
2021/05/21 06:30:30.004   22.302123076  114.190082356   307.8224   4   3   0.3306   0.6165   1.9951   0.3014   0.9831   0.4991   0.00    0.0
2021/05/21 06:30:31.004   22.302123075  114.190063724   305.5363   4   3   0.3269   0.6122   1.9839   0.2980   0.9785   0.4956   0.00    0.0
2021/05/21 06:30:32.004   22.302122760  114.190044361   302.7371   4   3   0.3231   0.6076   1.9714   0.2945   0.9730   0.4917   0.00    0.0
2021/05/21 06:30:33.004   22.302121798  114.190023512   299.2563   4   3   0.3194   0.6026   1.9574   0.2908   0.9667   0.4873   0.00    0.0
2021/05/21 06:30:34.004   22.302120591  114.190002051   295.3359   4   3   0.3157   0.5974   1.9418   0.2869   0.9596   0.4824   0.00    0.0
2021/05/21 06:30:35.004   22.302119014  114.189979669   290.9007   4   3   0.3121   0.5918   1.9247   0.2828   0.9515   0.4771   0.00    0.0
2021/05/21 06:30:36.004   22.302116948  114.189956101   285.8862   4   3   0.3084   0.5859   1.9060   0.2785   0.9426   0.4712   0.00    0.0
2021/05/21 06:30:37.004   22.302114712  114.189932143   280.5509   4   3   0.3047   0.5796   1.8858   0.2740   0.9328   0.4649   0.00    0.0
2021/05/21 06:30:38.004   22.302112205  114.189907403   274.7554   4   3   0.3010   0.5731   1.8639   0.2693   0.9221   0.4581   0.00    0.0
2021/05/21 06:30:39.004   22.302109418  114.189881769   268.4321   2   4   0.2971   0.5661   1.8393   0.2643   0.9107   0.4517   0.00    0.0
2021/05/21 06:30:40.004   22.302106325  114.189855494   261.7948   4   3   0.2935   0.5590   1.8146   0.2593   0.8984   0.4440   0.00    0.0
2021/05/21 06:30:41.004   22.302103020  114.189828620   254.7957   4   3   0.2899   0.5515   1.7886   0.2540   0.8854   0.4360   0.00    0.0
2021/05/21 06:30:42.004   22.302092193  114.189769002   233.9365   4   3   0.2858   0.5379   1.7275   0.2460   0.8558   0.4208   0.00    0.0
2021/05/21 06:30:43.004   22.302060121  114.189659567   197.5396   4   3   0.2822   0.5309   1.7007   0.2405   0.8423   0.4125   0.00    0.0
2021/05/21 06:30:44.004   22.302062353  114.189660269   197.8005   4   0   0.2806   0.5308   1.6981   0.2400   0.8421   0.4122   0.00    0.0
2021/05/21 06:30:45.004   22.302064047  114.189660834   198.1038   4   2   0.2790   0.5307   1.6949   0.2394   0.8419   0.4116   0.00    0.0
2021/05/21 06:30:46.004   22.302065072  114.189661209   198.4404   4   0   0.2774   0.5307   1.6923   0.2389   0.8417   0.4113   0.00    0.0
2021/05/21 06:30:47.004   22.302065384  114.189661390   198.8343   4   0   0.2759   0.5306   1.6898   0.2384   0.8415   0.4110   0.00    0.0
2021/05/21 06:30:48.004   22.302065080  114.189661388   199.0274   4   0   0.2744   0.5305   1.6882   0.2380   0.8413   0.4104   0.00    0.0
2021/05/21 06:30:49.004   22.302064126  114.189661220   199.2502   4   0   0.2730   0.5304   1.6867   0.2375   0.8411   0.4098   0.00    0.0
2021/05/21 06:30:50.004   22.302062492  114.189660877   199.5043   4   0   0.2716   0.5304   1.6852   0.2370   0.8409   0.4091   0.00    0.0
2021/05/21 06:30:55.004   22.302060254  114.189660305   199.6279   4   0   0.2704   0.5303   1.6837   0.2366   0.8406   0.4078   0.00    0.0
2021/05/21 06:31:06.004   22.302053942  114.189641533   195.2069   4   0   0.2691   0.5263   1.6673   0.2346   0.8320   0.4039   0.00    0.0
2021/05/21 06:31:33.004   22.302050036  114.189629909   192.1409   4   2   0.2677   0.5224   1.6512   0.2326   0.8237   0.3998   0.00    0.0
2021/05/21 06:31:44.004   22.302048514  114.189629502   192.3859   4   1   0.2666   0.5223   1.6497   0.2321   0.8234   0.3988   0.00    0.0
2021/05/21 06:31:45.004   22.302046957  114.189629061   192.5763   4   2   0.2653   0.5223   1.6482   0.2316   0.8231   0.3975   0.00    0.0
2021/05/21 06:31:46.004   22.302045380  114.189628534   192.7102   4   2   0.2642   0.5222   1.6467   0.2311   0.8228   0.3964   0.00    0.0
2021/05/21 06:31:47.004   22.302045194  114.189628369   192.6157   4   2   0.2636   0.5221   1.6453   0.2308   0.8224   0.3949   0.00    0.0
2021/05/21 06:31:49.004   22.302043643  114.189627319   192.5295   4   2   0.2626   0.5218   1.6429   0.2303   0.8216   0.3936   0.00    0.0
2021/05/21 06:31:51.004   22.302042155  114.189625680   192.2000   4   2   0.2615   0.5214   1.6395   0.2297   0.8204   0.3921   0.00    0.0
2021/05/21 06:31:52.004   22.302040703  114.189623931   191.8172   4   2   0.2605   0.5209   1.6359   0.2291   0.8191   0.3906   0.00    0.0
2021/05/21 06:31:54.004   22.302039174  114.189621230   191.0296   4   2   0.2595   0.5202   1.6308   0.2284   0.8170   0.3888   0.00    0.0
2021/05/21 06:31:55.004   22.302038956  114.189619130   190.1464   4   2   0.2589   0.5194   1.6254   0.2278   0.8148   0.3866   0.00    0.0
2021/05/21 06:31:56.004   22.302037361  114.189615967   189.1545   4   2   0.2579   0.5185   1.6196   0.2270   0.8124   0.3847   0.00    0.0
2021/05/21 06:31:57.004   22.302037035  114.189613331   188.0343   4   2   0.2572   0.5176   1.6134   0.2263   0.8097   0.3824   0.00    0.0
2021/05/21 06:31:58.004   22.302035349  114.189609428   186.7216   4   2   0.2562   0.5165   1.6066   0.2255   0.8069   0.3803   0.00    0.0
2021/05/21 06:31:59.004   22.302034884  114.189606291   185.3784   4   2   0.2556   0.5154   1.5993   0.2247   0.8036   0.3777   0.00    0.0
2021/05/21 06:32:00.004   22.302033073  114.189601768   183.7836   4   2   0.2546   0.5141   1.5912   0.2238   0.8002   0.3755   0.00    0.0
2021/05/21 06:32:01.004   22.302032502  114.189598056   182.1878   4   2   0.2539   0.5128   1.5826   0.2230   0.7964   0.3727   0.00    0.0
2021/05/21 06:32:02.004   22.302030642  114.189592840   180.2999   4   2   0.2529   0.5113   1.5731   0.2220   0.7922   0.3702   0.00    0.0
2021/05/21 06:32:03.004   22.302030025  114.189588527   178.4563   4   2   0.2523   0.5097   1.5631   0.2211   0.7877   0.3672   0.00    0.0
2021/05/21 06:32:05.004   22.302030594  114.189596246   183.0394   4   2   0.2515   0.5075   1.5493   0.2199   0.7820   0.3642   0.00    0.0
2021/05/21 06:32:08.004   22.302029613  114.189595955   183.4008   4   0   0.2503   0.5075   1.5481   0.2194   0.7818   0.3636   0.00    0.0
2021/05/21 06:32:09.004   22.302028997  114.189595795   183.7648   4   0   0.2492   0.5074   1.5468   0.2190   0.7817   0.3630   0.00    0.0
2021/05/21 06:32:10.004   22.302028857  114.189595805   184.1053   4   0   0.2480   0.5073   1.5456   0.2185   0.7816   0.3625   0.00    0.0
2021/05/21 06:32:11.004   22.302029227  114.189596000   184.4426   4   0   0.2469   0.5072   1.5444   0.2181   0.7814   0.3619   0.00    0.0
2021/05/21 06:32:12.004   22.302030184  114.189596413   184.7907   4   0   0.2458   0.5072   1.5432   0.2176   0.7813   0.3613   0.00    0.0
2021/05/21 06:32:13.004   22.302031626  114.189597008   185.1526   4   0   0.2447   0.5071   1.5421   0.2172   0.7812   0.3608   0.00    0.0
2021/05/21 06:32:14.004   22.302032500  114.189597323   185.4852   4   0   0.2441   0.5071   1.5403   0.2169   0.7812   0.3611   0.00    0.0
2021/05/21 06:32:15.004   22.302035444  114.189600546   186.2225   4   1   0.2433   0.5070   1.5385   0.2166   0.7812   0.3612   0.00    0.0
2021/05/21 06:32:16.004   22.302037221  114.189601337   186.9466   4   1   0.2428   0.5070   1.5374   0.2164   0.7810   0.3600   0.00    0.0
2021/05/21 06:32:18.004   22.302039520  114.189602225   187.1160   4   1   0.2421   0.5069   1.5364   0.2161   0.7809   0.3599   0.00    0.0
2021/05/21 06:32:19.004   22.302041163  114.189606997   188.7259   4   2   0.2418   0.5069   1.5356   0.2160   0.7810   0.3605   0.00    0.0
2021/05/21 06:32:20.004   22.302043765  114.189608229   188.7961   4   2   0.2413   0.5069   1.5347   0.2158   0.7809   0.3605   0.00    0.0
2021/05/21 06:32:21.004   22.302047761  114.189612531   189.3921   4   0   0.2407   0.5068   1.5337   0.2156   0.7809   0.3604   0.00    0.0
2021/05/21 06:32:26.004   22.302054059  114.189617455   190.3793   4   0   0.2404   0.5062   1.5330   0.2156   0.7807   0.3609   0.00    0.0
2021/05/21 06:32:27.004   22.302056472  114.189613000   190.1435   4   0   0.2399   0.5054   1.5319   0.2154   0.7804   0.3609   0.00    0.0
2021/05/21 06:32:47.004   22.302059263  114.189608984   189.9298   4   0   0.2393   0.5047   1.5309   0.2152   0.7800   0.3608   0.00    0.0
2021/05/21 06:43:18.005   22.302070912  114.189618831   190.3479   4   0   0.2385   0.4997   1.5179   0.2132   0.7715   0.3575   0.00    0.0
2021/05/21 06:50:40.005   22.302084783  114.189639307   192.8532   4   0   0.2376   0.4927   1.5034   0.2104   0.7610   0.3533   0.00    0.0
2021/05/21 06:51:58.005   22.302084928  114.189630919   189.8138   4   0   0.2370   0.4863   1.4840   0.2085   0.7487   0.3494   0.00    0.0
2021/05/21 06:52:01.005   22.302084785  114.189619107   184.4900   4   0   0.2366   0.4801   1.4651   0.2068   0.7371   0.3460   0.00    0.0
2021/05/21 06:52:04.005   22.302085485  114.189614313   180.1434   4   0   0.2362   0.4742   1.4475   0.2050   0.7261   0.3434   0.00    0.0
2021/05/21 06:52:05.005   22.302087246  114.189604190   175.1751   4   0   0.2357   0.4706   1.4325   0.2035   0.7181   0.3405   0.00    0.0
2021/05/21 06:52:06.005   22.302094518  114.189611266   174.0193   4   0   0.2345   0.4618   1.4115   0.2001   0.7036   0.3354   0.00    0.0
2021/05/21 06:52:07.005   22.302096574  114.189602547   169.5076   4   0   0.2340   0.4586   1.3977   0.1988   0.6962   0.3328   0.00    0.0
2021/05/21 06:52:22.005   22.302102838  114.189600520   167.0295   4   0   0.2331   0.4530   1.3809   0.1965   0.6857   0.3289   0.00    0.0
2021/05/21 06:52:23.005   22.302107156  114.189601171   163.7870   4   0   0.2326   0.4475   1.3661   0.1945   0.6762   0.3263   0.00    0.0
2021/05/21 06:52:43.005   22.302110932  114.189596245   158.9098   4   0   0.2320   0.4442   1.3539   0.1927   0.6692   0.3241   0.00    0.0
2021/05/21 06:52:44.005   22.302117918  114.189592257   156.8343   4   2   0.2312   0.4405   1.3415   0.1907   0.6614   0.3205   0.00    0.0
2021/05/21 06:53:19.005   22.302120355  114.189595342   157.6818   4   0   0.2298   0.4395   1.3370   0.1888   0.6595   0.3172   0.00    0.0
2021/05/21 06:53:20.005   22.302122220  114.189597702   158.2898   4   0   0.2285   0.4385   1.3326   0.1868   0.6576   0.3138   0.00    0.0
2021/05/21 06:53:21.005   22.302123528  114.189599356   158.7023   4   0   0.2272   0.4376   1.3283   0.1849   0.6557   0.3106   0.00    0.0
2021/05/21 06:53:22.005   22.302124460  114.189600535   158.9971   4   0   0.2259   0.4366   1.3241   0.1831   0.6539   0.3074   0.00    0.0
2021/05/21 06:53:29.005   22.302124359  114.189597112   158.5375   4   0   0.2255   0.4342   1.3226   0.1825   0.6520   0.3076   0.00    0.0
2021/05/21 06:53:30.005   22.302124379  114.189594778   158.1970   4   0   0.2252   0.4317   1.3212   0.1820   0.6502   0.3079   0.00    0.0
2021/05/21 06:53:31.005   22.302124581  114.189593330   157.9280   4   0   0.2249   0.4294   1.3199   0.1814   0.6484   0.3081   0.00    0.0
2021/05/21 06:53:32.005   22.302124906  114.189592424   157.6994   4   0   0.2245   0.4271   1.3185   0.1809   0.6467   0.3083   0.00    0.0
2021/05/21 06:53:33.005   22.302124695  114.189586942   155.8958   4   0   0.2241   0.4228   1.3107   0.1798   0.6408   0.3074   0.00    0.0
2021/05/21 06:53:34.005   22.302124511  114.189581597   154.1184   4   2   0.2237   0.4182   1.3029   0.1785   0.6348   0.3064   0.00    0.0
2021/05/21 06:53:35.005   22.302122385  114.189576398   152.2394   4   3   0.2219   0.4140   1.2941   0.1753   0.6287   0.3012   0.00    0.0
2021/05/21 06:53:36.005   22.302120422  114.189571625   150.5303   4   3   0.2202   0.4102   1.2862   0.1721   0.6232   0.2963   0.00    0.0
2021/05/21 06:53:37.005   22.302118792  114.189563898   147.8513   2   4   0.2189   0.4050   1.2740   0.1695   0.6148   0.2921   0.00    0.0
2021/05/21 06:53:38.005   22.302119152  114.189563305   147.6199   4   1   0.2186   0.4030   1.2728   0.1691   0.6134   0.2924   0.00    0.0
2021/05/21 06:53:39.005   22.302117226  114.189558506   145.8895   2   4   0.2172   0.3989   1.2642   0.1662   0.6075   0.2877   0.00    0.0
2021/05/21 06:53:40.005   22.302117384  114.189556712   145.3995   4   3   0.2168   0.3960   1.2615   0.1654   0.6046   0.2875   0.00    0.0
2021/05/21 06:53:41.005   22.302115623  114.189552614   143.8666   2   4   0.2155   0.3927   1.2546   0.1629   0.6000   0.2834   0.00    0.0
2021/05/21 06:53:42.005   22.302115525  114.189546417   141.7153   4   3   0.2152   0.3885   1.2450   0.1621   0.5934   0.2828   0.00    0.0
2021/05/21 06:53:43.005   22.302113807  114.189539203   139.1546   4   3   0.2139   0.3838   1.2336   0.1596   0.5857   0.2788   0.00    0.0
2021/05/21 06:53:44.005   22.302114097  114.189538766   138.9320   4   3   0.2136   0.3821   1.2325   0.1593   0.5845   0.2790   0.00    0.0
2021/05/21 06:53:45.005   22.302113209  114.189536461   137.9876   4   3   0.2128   0.3798   1.2286   0.1580   0.5818   0.2772   0.00    0.0
2021/05/21 06:53:46.005   22.302113168  114.189532073   136.4592   4   3   0.2124   0.3765   1.2217   0.1572   0.5768   0.2767   0.00    0.0
2021/05/21 06:53:47.005   22.302111690  114.189528775   135.1414   4   3   0.2112   0.3737   1.2156   0.1551   0.5728   0.2730   0.00    0.0
2021/05/21 06:53:48.005   22.302111331  114.189520005   132.0490   4   3   0.2108   0.3685   1.2019   0.1540   0.5637   0.2717   0.00    0.0
2021/05/21 06:53:49.005   22.302110408  114.189517917   131.1015   4   3   0.2100   0.3663   1.1979   0.1526   0.5611   0.2697   0.00    0.0
2021/05/21 06:53:50.005   22.302110596  114.189513716   129.5515   4   3   0.2096   0.3630   1.1901   0.1519   0.5559   0.2691   0.00    0.0
2021/05/21 06:53:51.005   22.302111575  114.189515042   130.2101   4   2   0.2084   0.3604   1.1842   0.1498   0.5521   0.2655   0.00    0.0
2021/05/21 06:53:52.005   22.302121922  114.189529583   136.8770   4   2   0.2080   0.3572   1.1766   0.1491   0.5470   0.2647   0.00    0.0
2021/05/21 06:53:53.005   22.302122415  114.189530257   136.9538   4   1   0.2073   0.3554   1.1737   0.1480   0.5450   0.2633   0.00    0.0
2021/05/21 06:53:54.005   22.302122691  114.189526880   135.5050   4   2   0.2070   0.3517   1.1663   0.1472   0.5396   0.2628   0.00    0.0
2021/05/21 06:53:55.005   22.302124202  114.189527752   135.5371   4   3   0.2063   0.3491   1.1603   0.1461   0.5356   0.2613   0.00    0.0
2021/05/21 06:53:56.005   22.302124310  114.189526977   134.7915   4   0   0.2061   0.3467   1.1558   0.1456   0.5324   0.2609   0.00    0.0
2021/05/21 06:53:57.005   22.302124329  114.189526990   134.0510   4   2   0.2057   0.3433   1.1482   0.1442   0.5270   0.2587   0.00    0.0
2021/05/21 06:53:58.005   22.302124632  114.189524260   132.4910   4   1   0.2049   0.3420   1.1415   0.1433   0.5238   0.2567   0.00    0.0
2021/05/21 06:53:59.005   22.302125436  114.189527286   132.6266   4   2   0.2039   0.3388   1.1350   0.1411   0.5191   0.2530   0.00    0.0
2021/05/21 06:54:00.005   22.302124935  114.189524198   131.2175   4   2   0.2036   0.3378   1.1288   0.1408   0.5163   0.2516   0.00    0.0
2021/05/21 06:54:03.005   22.302124527  114.189523890   129.7374   4   2   0.2032   0.3368   1.1253   0.1399   0.5145   0.2494   0.00    0.0
2021/05/21 06:54:04.005   22.302124422  114.189522570   126.2007   4   1   0.2030   0.3353   1.1230   0.1391   0.5129   0.2481   0.00    0.0
2021/05/21 06:54:18.005   22.302122621  114.189526081   124.8480   4   0   0.2027   0.3341   1.1177   0.1386   0.5105   0.2465   0.00    0.0
2021/05/21 06:54:21.005   22.302122457  114.189533947   125.6724   4   0   0.2025   0.3319   1.1099   0.1380   0.5060   0.2453   0.00    0.0
2021/05/21 06:54:22.005   22.302121106  114.189549651   126.8678   4   0   0.2020   0.3286   1.0999   0.1368   0.4999   0.2427   0.00    0.0
2021/05/21 06:54:23.005   22.302121283  114.189566665   129.2092   4   0   0.2015   0.3255   1.0918   0.1358   0.4946   0.2412   0.00    0.0
2021/05/21 06:54:24.005   22.302121944  114.189575594   130.5663   4   2   0.2015   0.3234   1.0840   0.1356   0.4902   0.2409   0.00    0.0
2021/05/21 06:54:25.005   22.302121485  114.189583062   131.3301   4   2   0.2013   0.3214   1.0765   0.1351   0.4860   0.2398   0.00    0.0
2021/05/21 06:54:26.005   22.302118967  114.189589293   131.1811   4   2   0.2009   0.3195   1.0692   0.1345   0.4820   0.2383   0.00    0.0
2021/05/21 06:54:27.005   22.302116536  114.189595567   131.1439   4   0   0.2003   0.3174   1.0619   0.1334   0.4778   0.2363   0.00    0.0
2021/05/21 06:54:28.005   22.302116254  114.189602678   131.8050   4   0   0.2000   0.3153   1.0553   0.1326   0.4739   0.2352   0.00    0.0
2021/05/21 06:54:29.005   22.302115241  114.189609032   132.3487   4   0   0.1994   0.3133   1.0487   0.1316   0.4700   0.2338   0.00    0.0
2021/05/21 06:54:30.005   22.302114089  114.189615009   132.8339   4   0   0.1989   0.3113   1.0423   0.1306   0.4662   0.2325   0.00    0.0
2021/05/21 06:54:31.005   22.302110652  114.189619385   132.4730   4   0   0.1980   0.3093   1.0355   0.1294   0.4623   0.2305   0.00    0.0
2021/05/21 06:54:32.005   22.302109138  114.189619434   131.8798   4   2   0.1974   0.3079   1.0297   0.1283   0.4592   0.2290   0.00    0.0
2021/05/21 06:54:33.005   22.302104644  114.189622523   130.6783   4   3   0.1965   0.3058   1.0220   0.1271   0.4550   0.2265   0.00    0.0
2021/05/21 06:54:34.005   22.302101507  114.189626533   130.3266   4   3   0.1958   0.3039   1.0157   0.1259   0.4513   0.2246   0.00    0.0
2021/05/21 06:54:35.005   22.302098526  114.189630541   130.0457   4   3   0.1950   0.3021   1.0094   0.1248   0.4477   0.2227   0.00    0.0
2021/05/21 06:54:36.005   22.302097657  114.189635631   130.5142   4   3   0.1945   0.3003   1.0037   0.1239   0.4443   0.2216   0.00    0.0
2021/05/21 06:54:37.005   22.302094879  114.189639742   130.3470   4   3   0.1937   0.2984   0.9969   0.1228   0.4405   0.2197   0.00    0.0
2021/05/21 06:54:38.005   22.302094021  114.189644736   130.8213   4   3   0.1932   0.2966   0.9914   0.1219   0.4372   0.2186   0.00    0.0
2021/05/21 06:54:39.005   22.302090787  114.189647963   130.3264   4   3   0.1924   0.2948   0.9851   0.1209   0.4336   0.2168   0.00    0.0
