% program   : RTKPOST demo5 b34k
% inp file  : C:\Users\owner\Downloads\AAE6102_Laboratory-main\GNSS Data\UrbanNav - Medium\20210521.medium-urban.whampoa.ublox.f9p.obs
% inp file  : C:\Users\owner\Downloads\2025-Apr-14_112045\2025-Apr-14_112045\r3_1s_1h_hksc141g.2021\hksc141g.21o
% inp file  : C:\Users\owner\Downloads\2025-Apr-14_112045\2025-Apr-14_112045\r3_1s_1h_hksc141g.2021\hksc141g.21g
% obs start : 2021/05/21 06:29:02.0 GPST (week2158 455342.0s)
% obs end   : 2021/05/21 06:54:39.0 GPST (week2158 456879.0s)
% pos mode  : Kinematic
% freqs     : L1+L2/E5b
% solution  : Backward
% elev mask : 15.0 deg
% dynamics  : on
% tidecorr  : off
% ionos opt : Broadcast
% tropo opt : Saastamoinen
% ephemeris : Broadcast
% navi sys  : GPS GLONASS Galileo
% amb res   : Fix and Hold
% amb glo   : Fix and Hold
% val thres : 3.0
% antenna1  :                       ( 0.0000  0.0000  0.0000)
% antenna2  :                       ( 0.0000  0.0000  0.0000)
% ref pos   : 22.322172082  114.141187963    20.2386
%
% (lat/lon/height=WGS84/ellipsoidal,Q=1:fix,2:float,3:sbas,4:dgps,5:single,6:ppp,ns=# of satellites)
%  GPST                  latitude(deg) longitude(deg)  height(m)   Q  ns   sdn(m)   sde(m)   sdu(m)  sdne(m)  sdeu(m)  sdun(m) age(s)  ratio
2021/05/21 06:54:39.005   22.301564816  114.190316101     7.6558   2   5   1.9697   2.0716   8.0008   0.7869   2.0406   1.4987   0.00    0.0
2021/05/21 06:54:38.005   22.301565346  114.190315437     8.3759   2   5   1.4909   1.5566   6.1747   0.5644   1.6370   1.1311   0.00    0.0
2021/05/21 06:54:37.005   22.301566411  114.190315073     8.5675   2   5   1.2259   1.2998   5.0795   0.4665   1.4080   0.7888   0.00    0.0
2021/05/21 06:54:36.005   22.301566811  114.190317111     8.3907   2   5   1.0660   1.1390   4.4183   0.4057   1.2517   0.6121   0.00    0.0
2021/05/21 06:54:35.005   22.301563136  114.190324146     7.7664   2   5   0.9560   1.0261   3.9597   0.3636   1.1368   0.5026   0.00    0.0
2021/05/21 06:54:34.005   22.301558430  114.190334091     7.5182   2   5   0.8743   0.9413   3.6167   0.3322   1.0479   0.4267   0.00    0.0
2021/05/21 06:54:33.005   22.301551610  114.190344702     6.6840   2   4   0.8108   0.8746   3.3570   0.3074   0.9760   0.3777   0.00    0.0
2021/05/21 06:54:32.005   22.301542722  114.190359361     6.7799   4   3   0.7637   0.9229   3.2625   0.2206   1.0986   0.2159   0.00    0.0
2021/05/21 06:54:31.005   22.301537250  114.190378537     6.5211   4   3   0.9636   0.8335   3.7435  -0.3491   1.2078  -1.1678   0.00    0.0
2021/05/21 06:54:30.005   22.301541578  114.190401781     5.8650   4   3   1.2002   0.8938   4.5413  -0.6574   1.5782  -1.8516   0.00    0.0
2021/05/21 06:54:29.005   22.301556126  114.190425771     4.3729   4   3   1.3222   0.9274   4.9643  -0.7962   1.7752  -2.1736   0.00    0.0
2021/05/21 06:54:28.005   22.301574610  114.190451685     2.8961   4   3   1.3425   0.9237   5.0310  -0.8329   1.8187  -2.2511   0.00    0.0
2021/05/21 06:54:27.005   22.301587681  114.190482356     4.6023   4   3   1.3376   0.9100   5.0065  -0.8431   1.8208  -2.2670   0.00    0.0
2021/05/21 06:54:26.005   22.301609423  114.190510455     4.8182   2   4   1.2479   0.8500   4.6366  -0.7674   1.6702  -2.0833   0.00    0.0
2021/05/21 06:54:25.005   22.301641586  114.190534065     3.7585   2   4   0.8966   0.6992   3.3794  -0.4446   1.1553  -1.2919   0.00    0.0
2021/05/21 06:54:24.005   22.301686951  114.190553773     4.0022   4   3   1.9401   0.6793   3.0209   0.5080   1.0396  -0.4634   0.00    0.0
2021/05/21 06:54:23.005   22.301721359  114.190559474     2.7317   4   3   0.9881   0.7062   3.6357  -0.5487   1.2784  -1.5390   0.00    0.0
2021/05/21 06:54:22.005   22.301767451  114.190553547     1.9348   4   3   1.3927   0.8514   4.9871  -0.8883   1.8215  -2.4031   0.00    0.0
2021/05/21 06:54:21.005   22.301813891  114.190535852     1.3733   4   3   1.5688   0.9130   5.5548  -1.0221   2.0432  -2.7553   0.00    0.0
2021/05/21 06:54:20.005   22.301864716  114.190509756     0.0860   4   3   1.5910   0.9131   5.6064  -1.0378   2.0640  -2.8001   0.00    0.0
2021/05/21 06:54:19.005   22.301911158  114.190477010    -0.1084   4   2   1.8989   1.8844   5.5728   0.8268   1.8757  -2.8577   0.00    0.0
2021/05/21 06:54:18.005   22.301947026  114.190430269    -0.2019   4   2   2.5830   2.2553   5.9386   1.3110   1.7153  -2.3217   0.00    0.0
2021/05/21 06:54:17.005   22.301998051  114.190394459    -0.5359   4   2   2.2004   2.2665   5.8819   1.3679   1.8130  -2.7268   0.00    0.0
2021/05/21 06:54:16.005   22.302063200  114.190386238    -3.1471   4   2   2.1550   2.2791   5.9260   1.3570   1.8252  -2.8023   0.00    0.0
2021/05/21 06:54:15.005   22.302116035  114.190376986    -4.8568   4   2   2.6247   2.0732   6.2398   1.1743   1.9462  -2.1413   0.00    0.0
2021/05/21 06:54:14.005   22.302157524  114.190343141    -3.7111   4   0   3.0204   2.2775   6.8008   1.4306   1.9497  -0.9660   0.00    0.0
2021/05/21 06:54:13.005   22.302183526  114.190304280    -7.4807   4   0   3.0369   2.3011   7.0243   1.4663   2.0288  -0.6693   0.00    0.0
2021/05/21 06:54:12.005   22.302209348  114.190259828    -6.2821   4   0   3.0443   2.3046   7.0909   1.4566   2.0613  -0.8038   0.00    0.0
2021/05/21 06:54:11.005   22.302225111  114.190208156    -6.4645   4   0   3.0537   2.3065   7.1013   1.4580   2.0647  -0.8452   0.00    0.0
2021/05/21 06:54:10.005   22.302238965  114.190148113    -7.0776   4   2   2.8174   2.0987   7.0627   0.9993   1.8790  -1.2723   0.00    0.0
2021/05/21 06:54:09.005   22.302265368  114.190091975    -6.6990   4   2   2.4351   1.7240   7.0551  -0.8363   1.7278  -1.5122   0.00    0.0
2021/05/21 06:54:08.005   22.302292477  114.190025661    -6.9405   4   3   2.2356   1.2859   6.5464  -0.8137   2.2706  -2.0431   0.00    0.0
2021/05/21 06:54:07.005   22.302313164  114.189968476    -7.7323   4   2   2.2205   1.4958   6.8080  -1.2266   1.7617  -1.6920   0.00    0.0
2021/05/21 06:54:06.005   22.302291046  114.189922835     1.3511   2   4   1.6024   1.0806   5.6167  -0.5622   1.9593  -1.8702   0.00    0.0
2021/05/21 06:54:05.005   22.302289511  114.189877990     4.5461   4   3   1.5767   1.0778   5.7724  -0.7175   2.0594  -2.1534   0.00    0.0
2021/05/21 06:54:04.005   22.302295342  114.189824806     5.1929   4   3   1.7281   1.7804   5.7459   0.6459   2.0863  -2.2855   0.00    0.0
2021/05/21 06:54:03.005   22.302306422  114.189772804     3.6752   4   3   1.5930   1.2810   5.6437  -0.6430   2.0616  -2.3451   0.00    0.0
2021/05/21 06:54:02.005   22.302307504  114.189715007     1.1953   4   3   1.5622   1.1841   5.5452  -0.7405   2.0347  -2.3780   0.00    0.0
2021/05/21 06:54:01.005   22.302321896  114.189658779    -2.7644   4   2   1.8432   1.2079   5.8267  -0.2083   2.2278  -1.5065   0.00    0.0
2021/05/21 06:54:00.005   22.302308061  114.189611912    -1.8057   2   4   2.0177   1.2150   5.9431   0.7324   2.3248   1.1460   0.00    0.0
2021/05/21 06:53:59.005   22.302266530  114.189566189     0.3663   2   5   1.7681   1.1094   5.1706   0.9716   2.0467   2.0691   0.00    0.0
2021/05/21 06:53:58.005   22.302228655  114.189520015     0.7599   2   4   1.1671   0.8924   3.9119   0.5173   1.4537   0.9304   0.00    0.0
2021/05/21 06:53:57.005   22.302191615  114.189474257     0.9737   4   3   1.1294   0.8046   3.3733   0.4416   1.2122   0.6543   0.00    0.0
2021/05/21 06:53:56.005   22.302154535  114.189430511     0.0430   4   3   1.6424   0.8345   3.4622   0.7941   1.3242   1.5488   0.00    0.0
2021/05/21 06:53:55.005   22.302120771  114.189389748    -1.2667   2   4   1.8243   0.8521   3.5967   0.9358   1.4175   1.9226   0.00    0.0
2021/05/21 06:53:54.005   22.302105083  114.189356708    -0.6327   2   4   1.0996   0.7116   2.9288   0.5198   1.0490   1.0124   0.00    0.0
2021/05/21 06:53:53.005   22.302092597  114.189328072    -0.1232   2   4   0.9282   0.6685   2.7149   0.4283   0.9477   0.8037   0.00    0.0
2021/05/21 06:53:52.005   22.302082798  114.189304702     0.1148   2   4   0.8506   0.6393   2.5735   0.3909   0.8869   0.7222   0.00    0.0
2021/05/21 06:53:51.005   22.302077289  114.189289962     0.2939   2   4   0.7898   0.6142   2.4534   0.3618   0.8363   0.6592   0.00    0.0
2021/05/21 06:53:50.005   22.302077978  114.189286823     0.8347   2   5   0.6336   0.5829   2.3026   0.2728   0.7617   0.4376   0.00    0.0
2021/05/21 06:53:49.005   22.302077299  114.189287030     1.3181   2   4   0.6073   0.5649   2.2207   0.2623   0.7300   0.4178   0.00    0.0
2021/05/21 06:53:48.005   22.302077567  114.189286816     1.1101   2   5   0.5825   0.5469   2.1478   0.2492   0.6996   0.3903   0.00    0.0
2021/05/21 06:53:47.005   22.302077616  114.189286621     0.9576   2   4   0.5595   0.5328   2.0854   0.2374   0.6774   0.3592   0.00    0.0
2021/05/21 06:53:46.005   22.302077707  114.189286544     0.8620   2   4   0.5416   0.5198   2.0311   0.2289   0.6578   0.3403   0.00    0.0
2021/05/21 06:53:45.005   22.302077840  114.189286536     0.8090   2   4   0.5254   0.5079   1.9834   0.2217   0.6411   0.3250   0.00    0.0
2021/05/21 06:53:44.005   22.302078005  114.189286430     0.6680   2   4   0.5106   0.4967   1.9378   0.2148   0.6249   0.3105   0.00    0.0
2021/05/21 06:53:43.005   22.302078145  114.189286505     0.6098   2   4   0.4969   0.4859   1.8893   0.2080   0.6077   0.2948   0.00    0.0
2021/05/21 06:53:42.005   22.302078327  114.189286592     0.5653   2   5   0.4842   0.4760   1.8463   0.2022   0.5927   0.2810   0.00    0.0
2021/05/21 06:53:41.005   22.302078539  114.189286581     0.5323   2   4   0.4725   0.4669   1.8118   0.1970   0.5809   0.2708   0.00    0.0
2021/05/21 06:53:40.005   22.302078734  114.189286566     0.5047   2   4   0.4624   0.4585   2.0333   0.1932   0.5552   0.2078   0.00    0.0
2021/05/21 06:53:39.005   22.302078958  114.189286666     0.4443   2   4   0.4521   0.4502   1.9355   0.1885   0.5477   0.2128   0.00    0.0
2021/05/21 06:53:38.005   22.302079356  114.189286531     0.4178   4   2   0.4918   1.7642   2.4615  -0.5691   0.6649  -0.2159   0.00    0.0
2021/05/21 06:53:37.005   22.302079632  114.189286789     0.5259   2   4   0.4335   0.4361   1.6715   0.1799   0.5328   0.2297   0.00    0.0
2021/05/21 06:53:36.005   22.302079824  114.189286603    -0.0325   2   4   0.4283   0.4296   2.4740   0.1802   0.4700  -0.1908   0.00    0.0
2021/05/21 06:53:35.005   22.302079698  114.189286399    -0.3407   2   4   0.4191   0.4221   1.9167   0.1741   0.5014   0.1592   0.00    0.0
2021/05/21 06:53:34.005   22.302077713  114.189293231    -1.5077   4   2   1.8053   1.6450   2.4204   0.4229   0.6555   0.2974   0.00    0.0
2021/05/21 06:53:33.005   22.302074152  114.189280885    -5.5662   4   2   2.0342   0.9525   3.9726   1.2673  -0.7350   1.0560   0.00    0.0
2021/05/21 06:53:32.005   22.302054449  114.189251240   -15.6609   4   0   2.1273   2.0134   5.8327   0.7913   1.2535   1.2033   0.00    0.0
2021/05/21 06:53:31.005   22.302024748  114.189202477   -27.8653   4   0   2.1800   2.3653   7.5685   0.4553   2.5512   0.6470   0.00    0.0
2021/05/21 06:53:30.005   22.301992798  114.189143444   -36.5992   4   0   2.2548   2.7747   9.7146  -0.7526   3.8784  -1.5761   0.00    0.0
2021/05/21 06:53:29.005   22.301964061  114.189061995   -51.4082   4   0   3.3949   3.4331  14.1369   1.9277   5.9649   4.3721   0.00    0.0
2021/05/21 06:53:28.005   22.301955854  114.188965746   -67.4506   4   0   4.2914   4.4329  20.8348   3.3198   8.8573   7.6693   0.00    0.0
2021/05/21 06:53:27.005   22.301971915  114.188880987   -84.8593   4   0   5.1778   5.7807  29.3453   4.6652  12.4547  10.8928   0.00    0.0
2021/05/21 06:53:26.005   22.302005752  114.188788363  -105.2644   4   0   6.2145   7.5745  40.1179   6.2893  17.0111  14.6939   0.00    0.0
2021/05/21 06:53:25.005   22.302129485  114.188815482   -58.4198   4   0   4.1476   3.1813  16.0695   2.6070   6.0208   6.5374   0.00    0.0
2021/05/21 06:53:24.005   22.302225395  114.188815969   -33.7087   4   0   3.8265   2.4419  10.9641   1.8877   3.5302   4.8782   0.00    0.0
2021/05/21 06:53:23.005   22.302338406  114.188814015    -9.0717   4   0   2.6665   2.2714   8.6165   1.1298   2.5421   2.6575   0.00    0.0
2021/05/21 06:53:22.005   22.302354954  114.188799822    -3.0342   4   0   2.1824   2.2289   7.9264   0.7819   2.2472   1.4910   0.00    0.0
2021/05/21 06:53:21.005   22.302383182  114.188779305    -2.0810   4   0   2.1624   2.2242   7.8378   0.7592   2.2102   1.3902   0.00    0.0
2021/05/21 06:53:20.005   22.302434057  114.188752484    -5.5036   4   0   2.1571   2.2235   7.7961   0.7576   2.1999   1.3860   0.00    0.0
2021/05/21 06:53:19.005   22.302487554  114.188738655    -7.4286   4   0   2.1606   2.7077   7.7335   0.5690   2.2966   1.3477   0.00    0.0
2021/05/21 06:53:18.005   22.302543271  114.188729470    -8.7408   4   0   2.4887   2.2756   7.6646   1.0096   2.1766   1.3315   0.00    0.0
2021/05/21 06:53:17.005   22.302576693  114.188733240    -9.3134   4   0   3.1260   2.3190   7.6262   1.4389   2.1422   1.2734   0.00    0.0
2021/05/21 06:53:16.005   22.302624609  114.188730235   -10.3822   4   0   3.2012   2.3296   7.6136   1.4894   2.1388   1.2654   0.00    0.0
2021/05/21 06:53:15.005   22.302684607  114.188740832   -10.9841   4   0   3.2049   2.3285   7.6137   1.4926   2.1404   1.2677   0.00    0.0
2021/05/21 06:53:14.005   22.302745524  114.188756677   -11.2613   4   0   3.2114   2.3296   7.6156   1.4974   2.1415   1.2690   0.00    0.0
2021/05/21 06:53:13.005   22.302805485  114.188778988   -11.3391   4   0   3.2138   2.3303   7.6146   1.4997   2.1418   1.2694   0.00    0.0
2021/05/21 06:53:12.005   22.302865993  114.188808752   -11.8764   4   0   3.2143   2.3305   7.6114   1.5006   2.1417   1.2696   0.00    0.0
2021/05/21 06:53:11.005   22.302909704  114.188842310    -9.0498   4   2   3.2097   2.2124   7.5560   1.4564   2.2880   1.3317   0.00    0.0
2021/05/21 06:53:10.005   22.302959838  114.188883984    -6.2794   4   2   3.0419   2.3185   7.3971   1.4340   2.0889  -0.3156   0.00    0.0
2021/05/21 06:53:09.005   22.303002765  114.188928149    -5.4091   4   2   3.8865   6.6448   7.2555   4.5932   3.6214   0.6542   0.00    0.0
2021/05/21 06:53:08.005   22.303047203  114.188978291    -5.1693   4   0   7.2701  15.1544   7.4764  10.1304   6.8280   3.9578   0.00    0.0
2021/05/21 06:53:07.005   22.303091235  114.189039792    -5.0107   4   0  12.7552  27.7620   8.8748  18.5407  12.0260   7.9787   0.00    0.0
2021/05/21 06:53:06.005   22.303135297  114.189118550    -5.2609   4   0  20.3090  44.5825  11.4159  29.9180  19.6804  13.2095   0.00    0.0
2021/05/21 06:53:05.005   22.303184965  114.189214434    -5.9216   4   0  29.9515  65.9238  15.2789  44.3247  29.7015  19.9431   0.00    0.0
2021/05/21 06:53:04.005   22.303184841  114.189208472    -3.0764   4   0  12.4543  26.8830  10.5694  17.9723  11.9695   7.9613   0.00    0.0
2021/05/21 06:53:03.005   22.303231245  114.189301902    -2.5624   4   0  13.0699  28.3177   9.7478  18.9497  12.8046   8.5531   0.00    0.0
2021/05/21 06:53:02.005   22.303292783  114.189386842    -1.5137   4   0  15.3787  33.4930  10.8588  22.4467  15.2168  10.1781   0.00    0.0
2021/05/21 06:52:58.005   22.303177978  114.189185716    -3.0540   4   0   2.9146   6.2847  11.4020   1.0656   5.5187  -1.8364   0.00    0.0
2021/05/21 06:52:56.005   22.303330012  114.189221837   -33.5738   4   0   2.8785   3.4774  10.8758  -0.8787   4.2414  -1.9827   0.00    0.0
2021/05/21 06:52:55.005   22.303388184  114.189244180   -35.0312   4   0   2.8487   3.4403  10.7598  -0.8661   4.1953  -1.9614   0.00    0.0
2021/05/21 06:52:54.005   22.303452017  114.189241553   -26.4057   4   0   2.7800   3.3854  10.8538  -0.8718   4.2429  -1.9848   0.00    0.0
2021/05/21 06:52:53.005   22.303448779  114.189234329   -34.5798   4   0   2.7651   3.3287  10.6580  -0.9518   4.0060   1.9230   0.00    0.0
2021/05/21 06:52:52.005   22.303525862  114.189178679   -37.9702   4   0   2.3227   3.9788  12.9801  -1.3389   5.8461  -2.2060   0.00    0.0
2021/05/21 06:52:51.005   22.303552618  114.189241752   -29.2575   4   0   2.6535   2.5809  10.2607   0.3131   3.5551  -1.6658   0.00    0.0
2021/05/21 06:52:50.005   22.303594097  114.189297338   -32.4168   4   0   2.6804   2.4788   9.5659   0.4816   3.1858  -1.5254   0.00    0.0
2021/05/21 06:52:49.005   22.303607741  114.189343976   -28.6343   4   0   2.1768   2.2550   8.1797   0.7786   2.3676   1.3662   0.00    0.0
2021/05/21 06:52:48.005   22.303613543  114.189367006   -24.4935   4   0   2.1609   2.2317   7.8075   0.7823   2.2189   1.4251   0.00    0.0
2021/05/21 06:52:47.005   22.303590360  114.189373063   -20.1536   4   0   2.1579   2.2300   7.7098   0.7787   2.1960   1.3898   0.00    0.0
2021/05/21 06:52:46.005   22.303601446  114.189373741   -10.1427   4   0   2.1608   2.7136   7.6854   0.6040   2.2908   1.3672   0.00    0.0
2021/05/21 06:52:45.005   22.303614565  114.189417491    -5.2072   4   0   2.1611   2.7594   7.6665   0.5898   2.3082   1.3626   0.00    0.0
2021/05/21 06:52:44.005   22.303627806  114.189411950    -8.3143   4   2   2.1763   3.8990   8.6146  -0.8255  -0.7397   1.0346   0.00    0.0
2021/05/21 06:52:43.005   22.303605142  114.189412948    -1.5658   4   2   2.1645   4.2381   7.4361  -0.7911   2.2618   1.5596   0.00    0.0
2021/05/21 06:52:42.005   22.303570817  114.189468711    -6.3880   4   2   2.1673   4.2423   7.1620  -0.7103   2.3382   1.5346   0.00    0.0
2021/05/21 06:52:41.005   22.303503412  114.189658706    -9.7078   4   0   2.1652   2.8651   8.4180   0.6237   1.7958   1.1226   0.00    0.0
2021/05/21 06:52:40.005   22.303460780  114.189717666   -20.8852   4   0   2.1601   2.7751   7.8735   0.5793   2.2798   1.3387   0.00    0.0
2021/05/21 06:52:39.005   22.303426433  114.189706675   -17.4735   4   0   2.1609   2.7773   7.6858   0.5933   2.3255   1.3660   0.00    0.0
2021/05/21 06:52:38.005   22.303392021  114.189722206    -9.9317   4   2   2.1608   2.7679   7.6259   0.5948   2.3038   1.3559   0.00    0.0
2021/05/21 06:52:37.005   22.303335778  114.189740306    -7.3660   4   0   3.5414   2.7856   8.6647   0.7344   2.3617   3.6632   0.00    0.0
2021/05/21 06:52:36.005   22.303327288  114.189755073    -2.4575   4   2   3.9520   2.7912   9.4203   0.8942   2.4766   4.4607   0.00    0.0
2021/05/21 06:52:35.005   22.303334975  114.189786363     3.6300   4   3   3.6721   2.5984   8.9504  -0.7751   1.7974   4.2243   0.00    0.0
2021/05/21 06:52:34.005   22.303321814  114.189808475     5.5326   4   3   3.4441   2.0608   8.4617  -1.6169  -1.2275   3.7413   0.00    0.0
2021/05/21 06:52:33.005   22.303318258  114.189832637     8.0559   4   2   3.1788   2.3346   7.4557  -1.0792  -1.5734   4.0775   0.00    0.0
2021/05/21 06:52:32.005   22.303312465  114.189840276     9.8969   4   3   2.8198   1.9768   6.5769  -1.6643  -2.0818   3.6691   0.00    0.0
2021/05/21 06:52:31.005   22.303307203  114.189850263    10.3853   4   3   2.7058   1.9558   6.0875  -1.7084  -2.0597   3.4836   0.00    0.0
2021/05/21 06:52:30.005   22.303302584  114.189857082    10.4102   4   3   2.6328   1.9432   5.7362  -1.7458  -2.0709   3.3617   0.00    0.0
2021/05/21 06:52:29.005   22.303297331  114.189862934     9.9196   4   3   2.5885   1.9290   5.5008  -1.7783  -2.1100   3.2966   0.00    0.0
2021/05/21 06:52:28.005   22.303294759  114.189865211     9.5823   4   3   2.5597   1.9124   5.3481  -1.8036  -2.1600   3.2673   0.00    0.0
2021/05/21 06:52:27.005   22.303294134  114.189865250     9.5094   4   3   2.5380   1.8952   5.2448  -1.8223  -2.2086   3.2545   0.00    0.0
2021/05/21 06:52:26.005   22.303288443  114.189869744     8.4616   4   3   2.5193   1.8794   5.1662  -1.8365  -2.2510   3.2467   0.00    0.0
2021/05/21 06:52:25.005   22.303279527  114.189876891     6.8092   4   3   2.5025   1.8666   5.0979  -1.8481  -2.2861   3.2384   0.00    0.0
2021/05/21 06:52:24.005   22.303271358  114.189883291     5.2845   4   3   2.4870   1.8569   5.0331  -1.8583  -2.3144   3.2277   0.00    0.0
2021/05/21 06:52:23.005   22.303181265  114.189957917   -11.7470   4   3   1.9992   1.4644   4.2898  -1.3579  -1.6298   2.5893   0.00    0.0
2021/05/21 06:52:22.005   22.303149785  114.189982580   -17.5800   4   3   1.9173   1.4031   4.1311  -1.2942  -1.5487   2.4854   0.00    0.0
2021/05/21 06:52:21.005   22.303061520  114.190053994   -34.1442   4   3   2.2951   1.7171   4.6209  -1.7274  -2.1592   2.9853   0.00    0.0
2021/05/21 06:52:20.005   22.303009746  114.190094421   -43.7882   4   3   2.4180   1.8215   4.7629  -1.8710  -2.3580   3.1470   0.00    0.0
2021/05/21 06:52:19.005   22.302988774  114.190108079   -47.5318   4   3   2.4214   1.8288   4.7336  -1.8899  -2.3864   3.1513   0.00    0.0
2021/05/21 06:52:18.005   22.302960351  114.190081856   -50.6791   4   3   2.8472   2.2315   4.9276  -1.2724  -1.9336   3.4858   0.00    0.0
2021/05/21 06:52:17.005   22.302887612  114.190028764   -59.2949   4   2   3.5070   2.5799   5.3955   1.0074  -0.9246   4.0957   0.00    0.0
2021/05/21 06:52:16.005   22.302812377  114.190007334   -69.2443   4   2   3.6853   2.5969   5.5637   1.1356  -0.7360   4.2902   0.00    0.0
2021/05/21 06:52:15.005   22.302751791  114.189997954   -77.0413   4   2   3.7122   2.6071   5.5835   1.0976  -0.8456   4.3237   0.00    0.0
2021/05/21 06:52:14.005   22.302697567  114.190003858   -84.2018   4   2   3.7138   2.6147   5.5623   1.0980  -0.8733   4.3223   0.00    0.0
2021/05/21 06:52:13.005   22.302640702  114.190019022   -91.8367   4   2   3.7173   2.6149   5.5425   1.1023  -0.8812   4.3224   0.00    0.0
2021/05/21 06:52:12.005   22.302603191  114.190040584   -96.9013   4   2   3.7228   2.6150   5.5281   1.0982  -0.9007   4.3257   0.00    0.0
2021/05/21 06:52:11.005   22.302586676  114.190072855   -92.5901   4   2   3.7272   2.6154   5.5140   1.0934  -0.9205   4.3281   0.00    0.0
2021/05/21 06:52:10.005   22.302594611  114.190099569   -83.3970   4   0   3.7861   2.6633   6.0704   0.9291   0.6492   4.1289   0.00    0.0
2021/05/21 06:52:09.005   22.302640524  114.190108950   -84.4951   4   3   3.5485   2.6341   7.2718  -0.4904   1.5070   3.8583   0.00    0.0
2021/05/21 06:52:08.005   22.302616529  114.190114972   -86.3076   4   3   3.7155   2.6351   6.7745   1.1254   0.7146   4.5179   0.00    0.0
2021/05/21 06:52:07.005   22.302582034  114.190115130   -93.1218   4   3   3.0248   1.9457   5.9344  -1.6165  -2.1767   3.8249   0.00    0.0
2021/05/21 06:52:06.005   22.302558095  114.190125035   -98.0350   4   3   2.8282   1.9275   5.5596  -1.6629  -2.1751   3.5781   0.00    0.0
2021/05/21 06:52:05.005   22.302514426  114.190152220   -99.3628   4   3   2.7057   1.9236   5.2911  -1.7045  -2.1752   3.4174   0.00    0.0
2021/05/21 06:52:04.005   22.302465593  114.190140871   -96.7906   4   0   3.2108   2.3198   5.5843  -1.2091  -1.5734   3.3366   0.00    0.0
2021/05/21 06:52:03.005   22.302462659  114.190040766  -102.9096   4   2   5.2274   4.9487   7.9851  -3.8706  -3.7948   5.3034   0.00    0.0
2021/05/21 06:52:02.005   22.302517504  114.189903564   -97.8668   4   2   3.6494   2.3814   8.6132   1.6076   2.7064   3.9532   0.00    0.0
2021/05/21 06:52:01.005   22.302604752  114.189778569   -86.9895   4   0   4.9750   2.8497   9.6387   1.7482   3.0037   5.1397   0.00    0.0
2021/05/21 06:52:00.005   22.302842323  114.189587504   -51.5533   4   2   2.9305   4.1951   7.9326  -1.5471   1.5866   2.8678   0.00    0.0
2021/05/21 06:51:59.005   22.303015813  114.189401488   -21.1911   4   0   2.8484   4.5349   7.9262  -1.8051   1.8082   2.4231   0.00    0.0
2021/05/21 06:51:51.005   22.303235422  114.190431924    23.0653   4   0   4.7310   3.5020   9.9444   2.5190   2.9870   3.7165   0.00    0.0
2021/05/21 06:51:50.005   22.303216353  114.190495510    22.3811   4   2   4.3136   3.3019   7.9818   2.2569   2.3634   3.3240   0.00    0.0
2021/05/21 06:51:49.005   22.303201345  114.190560727    22.8731   4   2   4.2800   3.3507   7.4752   2.4451   2.3193   4.2279   0.00    0.0
2021/05/21 06:51:48.005   22.303173196  114.190617822    22.3969   4   2   4.4753   3.3632   7.3094   2.4885   2.3803   4.2198   0.00    0.0
2021/05/21 06:51:47.005   22.303047438  114.190594485    12.5233   4   2   3.5832   2.7820   6.2843   1.3976   1.1847   3.9017   0.00    0.0
2021/05/21 06:51:46.005   22.302915557  114.190632458   -10.9354   4   2   2.7457   2.6639   5.4707   0.7509  -0.5306   3.0956   0.00    0.0
2021/05/21 06:51:45.005   22.302844685  114.190765351   -36.6182   4   0   2.6482   2.4622   5.7118   1.4092   0.9913   2.4734   0.00    0.0
2021/05/21 06:51:44.005   22.302721061  114.190802491   -58.3778   4   0   3.5910   2.5651   7.7960   1.9157   1.8535   2.7598   0.00    0.0
2021/05/21 06:51:43.005   22.302646671  114.190749304   -80.0128   4   0   3.8500   3.1215  10.2061   2.3745   3.4205   3.6934   0.00    0.0
2021/05/21 06:51:39.005   22.302866098  114.191023220    41.7141   4   0   2.9104   3.1798  12.5079   1.7524   3.5755   2.3540   0.00    0.0
2021/05/21 06:51:38.005   22.302855000  114.191044130    40.7535   4   0   2.7841   3.0738  10.0936   0.4575   3.3382   2.6381   0.00    0.0
2021/05/21 06:51:37.005   22.302838058  114.191142836    44.2246   4   0   2.8184   3.1314  10.7340   0.5669   3.5871   2.8428   0.00    0.0
2021/05/21 06:51:36.005   22.302769612  114.191298206    75.1779   4   0   2.8626   4.3097  15.5641  -0.9642   6.7543   2.1014   0.00    0.0
2021/05/21 06:51:35.005   22.302706188  114.191365476    70.1301   4   0   2.3448   4.5244  15.7021  -1.4855   7.2493  -2.6494   0.00    0.0
2021/05/21 06:51:34.005   22.302659273  114.191508488    77.7172   4   0   2.7124  10.0850  22.5850  -3.8786  14.1612  -5.5586   0.00    0.0
2021/05/21 06:51:33.005   22.302614984  114.191629125    94.3813   4   0   3.5849  18.1622  36.6305  -7.1083  25.2428  -9.9400   0.00    0.0
2021/05/21 06:51:32.005   22.302563581  114.191760347   111.9650   4   0   4.7857  27.3920  54.8209 -10.7505  38.3920 -15.1094   0.00    0.0
2021/05/21 06:51:31.005   22.302643480  114.191312968     5.8701   4   0   2.3051   4.7478   9.2969  -0.8056   3.2433   1.5980   0.00    0.0
2021/05/21 06:51:30.005   22.302668654  114.191419660     9.0535   4   0   2.2510   4.3932   7.9455  -0.7691   2.6863   1.3596   0.00    0.0
2021/05/21 06:51:29.005   22.302721258  114.191452261    10.7983   4   0   2.3215   5.3177   9.9139  -1.4404   4.7777  -0.7453   0.00    0.0
2021/05/21 06:51:28.005   22.302829890  114.191467000    34.6331   4   2   2.1733   4.5555   8.7743  -0.4567   3.4887   1.0324   0.00    0.0
2021/05/21 06:51:27.005   22.302988256  114.191466324    56.6303   4   0   5.8668   6.1577  11.9213  -4.8398  -4.9198   6.7831   0.00    0.0
2021/05/21 06:51:26.005   22.303175665  114.191427449    87.7964   4   0  12.4689  10.5873  21.0457 -10.8899 -13.2411  15.4189   0.00    0.0
2021/05/21 06:51:25.005   22.303448461  114.191284427   122.6491   4   0   3.0736   5.2936  10.9054  -2.1257   3.9675   3.1107   0.00    0.0
2021/05/21 06:51:23.005   22.304082582  114.190983701   220.7713   4   0  11.7060  10.1891  19.7104 -10.2124 -12.0964  14.2241   0.00    0.0
2021/05/21 06:51:16.005   22.303571850  114.191768781    21.4486   4   0  12.7747  26.9942   9.9709  18.2559  10.3128   6.9256   0.00    0.0
2021/05/21 06:51:15.005   22.303757224  114.192014032    28.1118   4   0   2.7145   5.6491   7.9955   2.1299   3.1322   1.6465   0.00    0.0
2021/05/21 06:51:14.005   22.303795717  114.191964956    37.3459   4   0   2.6886   5.4154   8.5016   1.9320   3.0573   1.6137   0.00    0.0
2021/05/21 06:51:13.005   22.303820518  114.191881093    41.3987   4   0   2.6822   6.5989  10.7073   1.7268   5.6981   1.2552   0.00    0.0
2021/05/21 06:51:12.005   22.303826139  114.191787151    36.4093   4   0   2.6400   6.7033  11.0638   1.7265   6.0766   1.2512   0.00    0.0
2021/05/21 06:51:11.005   22.303853788  114.191735644    37.8059   4   0   2.6134   6.5903  10.8168   1.7134   5.9536   1.2530   0.00    0.0
2021/05/21 06:51:10.005   22.303846426  114.191573936    36.8628   4   0   2.2535   5.4636  10.3711  -1.3357   5.2715  -0.8225   0.00    0.0
2021/05/21 06:51:09.005   22.303890992  114.191514500    38.2175   4   0   2.5625   6.2126  10.1674   1.4003   5.5047   0.9689   0.00    0.0
2021/05/21 06:51:08.005   22.303925748  114.191444603    38.3653   4   0   2.2522   5.3890   9.8600  -1.3290   5.0353  -0.7818   0.00    0.0
2021/05/21 06:51:07.005   22.303958711  114.191403322    39.3331   4   0   2.2425   5.2701   9.6645  -1.4071   4.8801  -0.8597   0.00    0.0
2021/05/21 06:51:06.005   22.303987675  114.191358020    42.0986   4   2   2.2101   5.1333   9.4931  -1.5374   4.9018  -0.6022   0.00    0.0
2021/05/21 06:51:05.005   22.304000771  114.191321195    38.5511   4   2   2.5583   4.8252   9.8314  -2.4275   4.6690   2.2022   0.00    0.0
2021/05/21 06:51:04.005   22.304059467  114.191156915    31.8918   4   0   2.5505   3.0356   9.7161  -0.6974   3.6170   2.9361   0.00    0.0
2021/05/21 06:51:03.005   22.304088511  114.191096684    36.0723   4   0   2.2096   3.0780   9.9423   0.3913   2.9008   1.1275   0.00    0.0
2021/05/21 06:51:02.005   22.304100604  114.191087966    38.7810   4   0   2.1844   3.0662  10.1087   0.2774   2.7884   0.3939   0.00    0.0
2021/05/21 06:51:01.005   22.304101547  114.191074421    42.8032   4   0   2.1873   3.0590  10.1873   0.3393   2.8367   0.6200   0.00    0.0
2021/05/21 06:51:00.005   22.304117315  114.191072008    45.5990   4   0   2.1881   3.0668  10.2132   0.3865   2.8676   0.7118   0.00    0.0
2021/05/21 06:50:59.005   22.304104517  114.191079987    43.2868   4   0   2.1662   2.8376   9.6814   0.7143   2.1077   1.2270   0.00    0.0
2021/05/21 06:50:58.005   22.304155874  114.191088046    38.0487   4   0   2.5153   2.8633   9.5220   1.0829   1.8749   0.8702   0.00    0.0
2021/05/21 06:50:57.005   22.304200618  114.191071287    41.7681   4   0   2.1829   2.8212   9.4615   0.7490   1.9530   1.2056   0.00    0.0
2021/05/21 06:50:56.005   22.304323214  114.191195887    58.7904   4   0   2.1604   2.3787   9.3982   0.8822   1.5345   1.3165   0.00    0.0
2021/05/21 06:50:55.005   22.304479044  114.191209527    76.1462   4   0   3.1805   2.3665   8.3948   1.5245   2.5494   2.5541   0.00    0.0
2021/05/21 06:50:54.005   22.304709258  114.191223403    88.1216   4   0   4.1873   2.5169   8.1894   2.1591   2.7301   3.0494   0.00    0.0
2021/05/21 06:50:53.005   22.304574419  114.191109951    84.2352   4   0   2.6071   2.3107   7.7643   1.1954   2.3142   1.5782   0.00    0.0
2021/05/21 06:50:52.005   22.304546466  114.191031303    77.5094   4   0   2.1797   2.2603   7.6732   0.8689   2.2590   1.3937   0.00    0.0
2021/05/21 06:50:51.005   22.304630175  114.190984377    71.3095   4   0   3.3823   2.4821   8.5766   1.1749   2.8242  -1.7356   0.00    0.0
2021/05/21 06:50:50.005   22.304711261  114.190917385    56.6182   4   0   2.6216   2.5087   8.8092   0.9121   3.0595  -0.5449   0.00    0.0
2021/05/21 06:50:49.005   22.304714799  114.190841528    43.5194   4   0   2.5697   2.5120   8.8744   0.9108   3.0896   0.3984   0.00    0.0
2021/05/21 06:50:48.005   22.304699861  114.190772351    37.8598   4   0   2.5761   2.5119   8.8714   0.9166   3.0857   0.4239   0.00    0.0
2021/05/21 06:50:47.005   22.304584597  114.190737137    56.1475   4   0   2.6072   2.9247  11.3566   0.9373   4.7188   1.7003   0.00    0.0
2021/05/21 06:50:46.005   22.304493255  114.190644973    53.0349   4   0   2.6605   2.5655   9.7142   0.6987   3.4617  -1.1668   0.00    0.0
2021/05/21 06:50:45.005   22.304488093  114.190589788    49.4270   4   0   2.6699   2.5002   9.2313   0.6796   3.1592  -1.3767   0.00    0.0
2021/05/21 06:50:44.005   22.304462364  114.190538893    35.9742   4   2   2.9552   2.4420   9.6144   1.1560   3.5532   1.5252   0.00    0.0
2021/05/21 06:50:43.005   22.304528568  114.190492333    18.5761   4   2   2.6225   2.0772   9.7075   1.2830   3.7785   2.4046   0.00    0.0
2021/05/21 06:50:42.005   22.304670699  114.190491950    17.7034   4   2   3.2755   2.0512   9.7840   1.6414   3.9525   2.9139   0.00    0.0
2021/05/21 06:50:41.005   22.304704299  114.190476720    19.1057   4   2   2.6115   1.8199   9.0236   0.9969   3.5788   0.9818   0.00    0.0
2021/05/21 06:50:40.005   22.304678472  114.190448566    19.9982   4   2   2.5729   1.7549   8.7881   0.9109   3.5167   0.3519   0.00    0.0
2021/05/21 06:50:39.005   22.304577063  114.190389631    17.5146   4   2   2.2009   1.7241   8.7062   0.7987   3.5307   0.7456   0.00    0.0
2021/05/21 06:50:38.005   22.304569369  114.190304416    11.7813   4   2   2.1839   2.2094   8.7448   0.7092   3.3349   0.8424   0.00    0.0
2021/05/21 06:50:37.005   22.304600096  114.190180258     4.4882   4   0   2.1831   2.4708   8.8429   0.6534   3.1077   0.8832   0.00    0.0
2021/05/21 06:50:36.005   22.304649174  114.190068050    -1.0691   4   0   2.1813   2.4768   8.8802   0.6515   3.0991   0.8854   0.00    0.0
2021/05/21 06:50:35.005   22.304697544  114.190006572    -0.7593   4   0   2.1811   2.4915   8.8893   0.6517   3.1193   0.8889   0.00    0.0
2021/05/21 06:50:34.005   22.304726065  114.189990273    -4.5952   4   0   2.1809   2.4972   8.8871   0.6532   3.1240   0.8916   0.00    0.0
2021/05/21 06:50:33.005   22.304743223  114.189961229     0.8283   4   0   2.1843   2.5387  10.2295   0.6957   2.7283   0.4141   0.00    0.0
2021/05/21 06:50:32.005   22.304763373  114.189944010    -7.9554   4   0   2.1808   2.5005   9.2928   0.6539   3.1715   0.8720   0.00    0.0
2021/05/21 06:50:31.005   22.304787572  114.189913601    -8.5949   4   0   2.1809   2.5089   8.9919   0.6596   3.1751   0.9099   0.00    0.0
2021/05/21 06:50:30.005   22.304836832  114.189874442    -5.3561   4   0   2.1808   2.5030   8.9000   0.6590   3.1378   0.9002   0.00    0.0
2021/05/21 06:50:29.005   22.304878408  114.189838824     2.6941   4   0   2.1807   2.5000   8.8893   0.6584   3.1290   0.8966   0.00    0.0
2021/05/21 06:50:28.005   22.304883486  114.189818002     5.6841   4   0   2.1807   2.5011   8.8975   0.6596   3.1335   0.8991   0.00    0.0
2021/05/21 06:50:27.005   22.304893510  114.189813540     6.0542   4   0   2.1807   2.5018   8.9022   0.6609   3.1362   0.9012   0.00    0.0
2021/05/21 06:50:26.005   22.304901888  114.189816144     6.8555   4   0   2.1807   2.5019   8.9008   0.6618   3.1358   0.9018   0.00    0.0
2021/05/21 06:50:25.005   22.304908661  114.189813228     6.1737   4   0   2.1806   2.5019   8.8971   0.6627   3.1346   0.9022   0.00    0.0
2021/05/21 06:50:24.005   22.304915411  114.189806904     4.4786   4   0   2.1806   2.5021   8.8943   0.6637   3.1342   0.9029   0.00    0.0
2021/05/21 06:50:23.005   22.304929004  114.189799559     6.2774   4   0   2.1806   2.5024   8.8934   0.6647   3.1346   0.9040   0.00    0.0
2021/05/21 06:50:22.005   22.304920234  114.189833134    23.1079   4   0   2.1588   2.2861   7.9635   0.8696   2.4077   1.4269   0.00    0.0
2021/05/21 06:50:21.005   22.304922556  114.189836987    31.3523   4   0   2.1588   2.2653   7.6987   0.8722   2.2736   1.4354   0.00    0.0
2021/05/21 06:50:20.005   22.304924311  114.189826911    35.3173   4   0   2.1580   2.2651   7.6441   0.8714   2.2655   1.4169   0.00    0.0
2021/05/21 06:50:19.005   22.304953771  114.189831405    37.9050   4   0   2.5026   2.2999   7.6414   1.1247   2.2661   1.4097   0.00    0.0
2021/05/21 06:50:18.005   22.304976142  114.189849491    39.9283   4   0   2.5413   2.4023   8.6732   1.2125   1.5273   1.0251   0.00    0.0
2021/05/21 06:50:17.005   22.304992662  114.189864986    40.8948   4   0   2.5429   2.4089   9.1708   1.2185   1.3449   0.9064   0.00    0.0
2021/05/21 06:50:16.005   22.305016652  114.189874925    30.7237   4   0   2.6864   2.5270  10.7164   0.9171   2.4387  -1.9212   0.00    0.0
2021/05/21 06:50:15.005   22.305037804  114.189871609    19.4111   4   0   2.7129   2.5587  11.5640   0.8371   2.7720  -2.2989   0.00    0.0
2021/05/21 06:50:14.005   22.305050466  114.189859989    15.4449   4   0   2.6712   2.5299   9.7616   0.7034   3.2943  -1.4961   0.00    0.0
2021/05/21 06:50:13.005   22.305067989  114.189854570    12.8724   4   0   2.6676   2.5252   9.2234   0.7250   3.2154  -1.3061   0.00    0.0
2021/05/21 06:50:12.005   22.305102819  114.189856945    11.7562   4   0   2.6677   2.5132   9.0905   0.7299   3.1548  -1.2919   0.00    0.0
2021/05/21 06:50:11.005   22.305238670  114.189864365    25.5025   4   0   4.1375   2.6857   9.6532   1.8259   3.4798   1.5423   0.00    0.0
2021/05/21 06:50:10.005   22.305271758  114.189820418    37.5286   4   0   3.0733   2.6368   9.9414   1.3020   3.6151   1.8697   0.00    0.0
2021/05/21 06:50:09.005   22.305298975  114.189736466    48.1420   4   0   2.9952   2.6379  10.0314   1.2623   3.6485   1.8920   0.00    0.0
2021/05/21 06:50:08.005   22.305314993  114.189632047    48.2186   4   0   3.0028   2.6382  10.0386   1.2643   3.6485   1.8758   0.00    0.0
2021/05/21 06:50:07.005   22.305292574  114.189539160    46.8632   4   0   2.6306   2.6373   9.8778   1.2523   3.6485   2.4466   0.00    0.0
2021/05/21 06:50:06.005   22.305267268  114.189438312    27.8130   4   0   2.6568   2.5320   9.2824   0.8074   3.2486  -0.8564   0.00    0.0
2021/05/21 06:50:05.005   22.305273904  114.189337924     9.2615   4   0   2.6710   2.5135   9.1395   0.7266   3.1637  -1.3459   0.00    0.0
2021/05/21 06:50:04.005   22.305246421  114.189238188    -0.0022   4   0   2.2040   2.5124   8.9805   0.6776   3.1702   0.7867   0.00    0.0
2021/05/21 06:50:03.005   22.305214904  114.189148346   -12.0972   4   0   2.5826   2.5460   9.1835   1.0211   3.2987   1.9438   0.00    0.0
2021/05/21 06:50:02.005   22.305269368  114.189103094   -16.0696   4   0   3.5167   2.7588  10.5210   1.8914   4.0410   3.9990   0.00    0.0
2021/05/21 06:50:01.005   22.305239540  114.189207216   -19.8524   4   0   3.9535   3.3382  11.3152   1.5390   4.3359   4.6662   0.00    0.0
2021/05/21 06:50:00.005   22.305223977  114.189225360   -22.3431   4   0   3.9960   2.8804   9.9001   1.2092   2.9110   4.5395   0.00    0.0
2021/05/21 06:49:59.005   22.305259135  114.189160642   -19.9282   4   0   3.9722   2.8295   9.4482   1.1074   2.6166   4.3873   0.00    0.0
2021/05/21 06:49:58.005   22.305533693  114.189034711    29.1419   4   2   2.6062   2.5411   9.1038   1.0240   3.3000   2.4413   0.00    0.0
2021/05/21 06:49:57.005   22.305695205  114.188836117    48.2688   4   2   2.6964   2.7996   8.2887   0.5409   2.4816   2.3562   0.00    0.0
2021/05/21 06:49:56.005   22.305799203  114.188692104    59.6996   4   2   2.5641   3.6371   7.9504  -2.2306   2.6922   2.8235   0.00    0.0
2021/05/21 06:49:55.005   22.305798723  114.188631091    64.6635   4   0   2.8194   4.3416   7.9165  -1.9200   2.3455   2.6085   0.00    0.0
2021/05/21 06:49:54.005   22.305809480  114.188637631    66.2095   4   0   2.8447   4.5866   8.0021  -1.7438   1.8688   2.4281   0.00    0.0
2021/05/21 06:49:53.005   22.305816129  114.188724199    63.0281   4   0   2.6944   2.8868   8.0153   0.1973   2.2141   2.3456   0.00    0.0
2021/05/21 06:49:52.005   22.305859519  114.188779881    78.1225   4   2   2.6428   2.9716   9.0700   0.2431   3.1356   2.5831   0.00    0.0
2021/05/21 06:49:51.005   22.305916246  114.188811373    87.2936   4   0   2.7096   3.0436   9.6310   0.6340   3.3441   2.6030   0.00    0.0
2021/05/21 06:49:50.005   22.306005840  114.188853106    92.6932   4   0   3.7985   3.0867  10.9602   1.3643   3.7510   4.4567   0.00    0.0
2021/05/21 06:49:49.005   22.306060521  114.188875686    91.9955   4   0   4.1010   3.1215  11.7711   1.6095   4.0112   5.1434   0.00    0.0
2021/05/21 06:49:48.005   22.306089863  114.188888843    78.8305   4   0   2.8060   3.0633  10.3683   0.8330   3.5672   3.0130   0.00    0.0
2021/05/21 06:49:47.005   22.306104790  114.188898274    64.9475   4   0   2.7192   3.0476   9.9894   0.6752   3.4451   2.6361   0.00    0.0
2021/05/21 06:49:46.005   22.306131814  114.188910516    46.9379   4   0   2.7209   3.0429   9.8888   0.6774   3.4105   2.6391   0.00    0.0
2021/05/21 06:49:45.005   22.306158753  114.188939305    30.9798   4   0   2.7128   2.8385   8.5010   0.5312   2.4672   2.4865   0.00    0.0
2021/05/21 06:49:44.005   22.306159467  114.188978833    18.5090   4   0   2.7074   2.8162   8.1309   0.4754   2.2806   2.4034   0.00    0.0
2021/05/21 06:49:43.005   22.306192617  114.188913582   -10.8684   4   0   2.7528   3.1972   8.8568  -0.7423   3.2731   1.9425   0.00    0.0
2021/05/21 06:49:42.005   22.306214738  114.188775095   -71.3325   4   0   2.7570   3.8278  11.7186  -0.9142   5.1850   1.6495   0.00    0.0
2021/05/21 06:49:38.005   22.306111710  114.189866269    96.0488   4   2   3.6869  13.9840  27.1073  -5.5599  18.3690  -6.4365   0.00    0.0
2021/05/21 06:49:37.005   22.306108393  114.189933695   104.7916   4   2   2.7580   5.4181  11.7448  -2.2664   5.8323   2.7467   0.00    0.0
2021/05/21 06:49:36.005   22.306109686  114.189932326   102.1726   4   2   2.8101   4.9459  10.7307  -2.4432   5.0721   2.9620   0.00    0.0
2021/05/21 06:49:35.005   22.306108008  114.189925888    97.7854   4   2   2.8259   5.0471  11.4659  -2.4565   5.6304   3.1783   0.00    0.0
2021/05/21 06:49:34.005   22.306100000  114.189924150    92.6982   4   2   2.7762   4.9654  11.4734  -2.4147   5.7016   3.2104   0.00    0.0
2021/05/21 06:49:33.005   22.306094610  114.189915622    86.7933   4   2   2.7195   4.8525  11.1918  -2.3986   5.6037   3.1365   0.00    0.0
2021/05/21 06:49:32.005   22.306090841  114.189908308    82.1359   4   2   2.6830   4.7643  10.8821  -2.4124   5.4804   3.0476   0.00    0.0
2021/05/21 06:49:31.005   22.306079933  114.189913633    78.4370   4   2   6.0087   6.7710  12.8280  -5.6762  -2.5522   6.9092   0.00    0.0
2021/05/21 06:49:30.005   22.306065025  114.189913210    72.2379   4   2  11.3611  10.7992  18.6273 -10.6661 -11.0938  13.3923   0.00    0.0
2021/05/21 06:49:29.005   22.306038852  114.189926103    65.5322   4   2  18.0704  16.1009  27.8730 -16.7893 -19.3011  21.7160   0.00    0.0
2021/05/21 06:49:28.005   22.306018927  114.189926359    58.0194   4   2  25.8030  22.2087  39.6394 -23.7445 -28.3631  31.4821   0.00    0.0
2021/05/21 06:49:27.005   22.306728388  114.189293259   183.2461   4   2   4.5794   3.4385  14.4253   2.0042   4.9321   6.2222   0.00    0.0
2021/05/21 06:49:26.005   22.306738596  114.189287048   181.3811   4   2   3.0372   2.9547  12.0048  -0.9684   4.1374   5.2326   0.00    0.0
2021/05/21 06:49:25.005   22.306731914  114.189286546   179.5371   4   2   3.1622   3.0223  12.8153  -0.7770   4.4221   5.5920   0.00    0.0
2021/05/21 06:49:24.005   22.306716246  114.189282082   173.0146   4   2   3.3480   3.0995  14.1258   0.4433   4.8758   6.1692   0.00    0.0
2021/05/21 06:49:23.005   22.306701806  114.189276584   166.5774   4   2   3.3632   3.0748  14.3836   0.7267   4.9661   6.2831   0.00    0.0
2021/05/21 06:49:22.005   22.306686000  114.189274364   160.3976   4   2   3.3067   3.0305  14.1352   0.6848   4.8817   6.1749   0.00    0.0
2021/05/21 06:49:21.005   22.306676973  114.189276249   158.0710   4   2   3.2415   2.9986  13.7675   0.5016   4.7559   6.0144   0.00    0.0
2021/05/21 06:49:20.005   22.306670358  114.189276701   156.1954   4   2   3.1801   2.9740  13.4009   0.1208   4.6306   5.8541   0.00    0.0
2021/05/21 06:49:19.005   22.306662409  114.189280545   154.6912   4   2   3.1250   2.9523  13.0712  -0.4390   4.5182   5.7099   0.00    0.0
2021/05/21 06:49:18.005   22.306656532  114.189273534   151.1882   4   2   3.0783   2.9343  12.7924  -0.6035   4.4234   5.5879   0.00    0.0
2021/05/21 06:49:17.005   22.306649592  114.189271543   148.5874   4   2   3.0408   2.9204  12.5711  -0.7065   4.3484   5.4910   0.00    0.0
2021/05/21 06:49:16.005   22.306643162  114.189268003   145.5660   4   2   3.0128   2.9103  12.4090  -0.7732   4.2938   5.4200   0.00    0.0
2021/05/21 06:49:15.005   22.306636697  114.189270604   143.9378   4   2   2.9934   2.9036  12.3015  -0.8148   4.2581   5.3730   0.00    0.0
2021/05/21 06:49:14.005   22.306636230  114.189273966   145.0867   4   2   2.9809   2.8997  12.2386  -0.8391   4.2378   5.3454   0.00    0.0
2021/05/21 06:49:13.005   22.306636993  114.189281021   147.6002   4   2   2.9733   2.8978  12.2066  -0.8522   4.2282   5.3314   0.00    0.0
2021/05/21 06:49:12.005   22.306633294  114.189288155   148.2175   4   2   2.9685   2.8969  12.1922  -0.8589   4.2247   5.3251   0.00    0.0
2021/05/21 06:49:11.005   22.306628701  114.189289801   147.0635   4   2   2.4607   2.6517  11.7952   1.0879   4.6268   4.8235   0.00    0.0
2021/05/21 06:49:10.005   22.306624901  114.189298427   147.8811   4   2   2.4047   2.6513  11.6585   1.0928   4.6325   4.7283   0.00    0.0
2021/05/21 06:49:09.005   22.306622484  114.189308224   149.5839   4   2   2.3999   2.6404  11.6167   1.0805   4.6081   4.7177   0.00    0.0
2021/05/21 06:49:08.005   22.306619942  114.189318071   151.3210   4   2   2.3967   2.6351  11.6058   1.0791   4.6010   4.7162   0.00    0.0
2021/05/21 06:49:07.005   22.306614482  114.189320844   150.1186   4   2   2.3937   2.6347  11.6004   1.0769   4.6002   4.7141   0.00    0.0
2021/05/21 06:49:06.005   22.306601970  114.189332451   148.5623   4   2   2.3909   2.6339  11.5936   1.0742   4.5984   4.7117   0.00    0.0
2021/05/21 06:49:05.005   22.306590065  114.189347893   148.0826   4   2   2.3882   2.6329  11.5856   1.0712   4.5958   4.7091   0.00    0.0
2021/05/21 06:49:04.005   22.306583588  114.189359893   148.8258   4   2   2.3854   2.6322  11.5780   1.0685   4.5938   4.7063   0.00    0.0
2021/05/21 06:49:03.005   22.306584422  114.189359643   149.3519   4   2   2.3829   2.6320  11.5720   1.0662   4.5927   4.7039   0.00    0.0
2021/05/21 06:49:02.005   22.306582416  114.189350518   146.4130   4   2   2.3805   2.6319  11.5673   1.0645   4.5923   4.7021   0.00    0.0
2021/05/21 06:49:01.005   22.306576812  114.189348225   143.7132   4   2   2.3784   2.6319  11.5636   1.0632   4.5922   4.7006   0.00    0.0
2021/05/21 06:49:00.005   22.306562489  114.189352637   139.3776   4   2   2.3765   2.6320  11.5603   1.0619   4.5922   4.6994   0.00    0.0
2021/05/21 06:48:59.005   22.306549327  114.189349729   133.6303   4   2   2.3746   2.6321  11.5571   1.0608   4.5922   4.6981   0.00    0.0
2021/05/21 06:48:58.005   22.306531674  114.189346782   126.1923   4   2   2.3728   2.6322  11.5537   1.0597   4.5922   4.6968   0.00    0.0
2021/05/21 06:48:57.005   22.306502557  114.189349427   115.4906   4   2   2.3710   2.6323  11.5503   1.0587   4.5922   4.6955   0.00    0.0
2021/05/21 06:48:56.005   22.306478696  114.189354079   107.4503   4   2   2.3693   2.6324  11.5469   1.0577   4.5922   4.6942   0.00    0.0
2021/05/21 06:48:55.005   22.306459228  114.189356136   100.4165   4   2   2.3676   2.6326  11.5436   1.0568   4.5922   4.6929   0.00    0.0
2021/05/21 06:48:54.005   22.306441189  114.189350436    91.8573   4   2   2.3660   2.6327  11.5403   1.0559   4.5922   4.6916   0.00    0.0
2021/05/21 06:48:53.005   22.306349931  114.189310431    46.3595   4   2   1.9282   2.5796   9.8029   0.6263   4.2289   3.6978   0.00    0.0
2021/05/21 06:48:52.005   22.306310274  114.189282390    24.2700   4   2   1.8464   2.5360   9.3257   0.3609   4.0572   3.4653   0.00    0.0
2021/05/21 06:48:51.005   22.306286990  114.189266758    11.9492   4   2   1.8344   2.5159   9.2224   0.2546   4.0032   3.4251   0.00    0.0
2021/05/21 06:48:50.005   22.306270927  114.189261559     5.1795   4   2   1.8332   2.5132   9.2155   0.2434   3.9990   3.4235   0.00    0.0
2021/05/21 06:48:49.005   22.306262366  114.189253913     0.7224   4   2   1.8328   2.5135   9.2099   0.2447   3.9991   3.4238   0.00    0.0
2021/05/21 06:48:48.005   22.306254600  114.189254220    -1.5248   4   2   1.8319   2.5120   9.1912   0.2379   3.9930   3.4210   0.00    0.0
2021/05/21 06:48:47.005   22.306246249  114.189268699    -0.2021   4   2   1.8307   2.5099   9.1688   0.2275   3.9852   3.4169   0.00    0.0
2021/05/21 06:48:46.005   22.306236628  114.189289724     2.2625   4   2   1.8297   2.5087   9.1513   0.2202   3.9799   3.4139   0.00    0.0
2021/05/21 06:48:45.005   22.306224938  114.189301749     1.4465   4   2   1.8291   2.5084   9.1414   0.2183   3.9777   3.4129   0.00    0.0
2021/05/21 06:48:44.005   22.306213705  114.189310265    -0.0166   4   2   1.7994   2.1313   7.9099  -0.6189   3.1257   3.1873   0.00    0.0
2021/05/21 06:48:43.005   22.306207866  114.189309771    -1.6228   4   2   1.7755   2.0806   7.5754  -0.7189   2.9535   3.0831   0.00    0.0
2021/05/21 06:48:42.005   22.306200831  114.189307928    -4.0617   4   2   1.7655   2.0775   7.5077  -0.7334   2.9349   3.0536   0.00    0.0
2021/05/21 06:48:41.005   22.306227899  114.189305268     7.7415   4   0   2.8909   2.2772   8.3580   1.1882   2.9402   3.5793   0.00    0.0
2021/05/21 06:48:40.005   22.306237089  114.189322380    14.0161   4   0   3.5705   2.4409   8.7366   1.8033   3.0064   3.7424   0.00    0.0
2021/05/21 06:48:39.005   22.306242045  114.189330322     9.1169   4   2   2.2070   2.4664  10.2383   0.6120   4.0353   4.2097   0.00    0.0
2021/05/21 06:48:38.005   22.306241275  114.189338808    -0.5321   4   2   3.3021   2.8091  11.0275   1.8496   4.4074   4.4455   0.00    0.0
2021/05/21 06:48:37.005   22.306244308  114.189355722   -11.4734   4   2   2.6461   2.6693  11.3097   1.2830   4.5261   4.5858   0.00    0.0
2021/05/21 06:48:36.005   22.306267357  114.189370097   -18.7213   4   0   3.1091   2.7894  11.3769   1.7238   4.5382   4.5969   0.00    0.0
2021/05/21 06:48:35.005   22.306288565  114.189377896   -26.0625   4   0   3.7212   2.9238  11.3871   2.1825   4.5268   4.5641   0.00    0.0
2021/05/21 06:48:34.005   22.306314331  114.189397771   -33.0359   4   2   3.5007   2.8683  11.3967   2.0100   4.5365   4.5769   0.00    0.0
2021/05/21 06:48:33.005   22.306307768  114.189473524   -36.6259   4   2   3.2329   3.2198  11.4198   0.4763   4.4940   4.6490   0.00    0.0
2021/05/21 06:48:32.005   22.306373670  114.189457468   -37.3578   4   0   3.2159   2.8292  11.4367   1.7678   4.5549   4.6150   0.00    0.0
2021/05/21 06:48:31.005   22.306408947  114.189463555   -43.6737   4   0   4.0011   4.1711  16.9541   3.0228   7.6046   6.2704   0.00    0.0
2021/05/21 06:48:30.005   22.306469060  114.189514775   -29.2216   4   0   2.7007   2.8703  11.3765   1.5084   4.4298   3.0327   0.00    0.0
2021/05/21 06:48:29.005   22.306520298  114.189522568   -20.1528   4   0   2.7123   3.0484  10.2808   0.8761   3.6289   2.7158   0.00    0.0
2021/05/21 06:48:28.005   22.306545491  114.189561027    -9.5193   4   0   2.7281   3.0673   9.9801   0.8036   3.4763   2.6899   0.00    0.0
2021/05/21 06:48:27.005   22.306551997  114.189612049    -0.5841   4   0   2.7253   3.0693   9.9464   0.8072   3.4781   2.6861   0.00    0.0
2021/05/21 06:48:26.005   22.306550688  114.189655709     6.3935   4   0   3.8147   3.1264  11.0292   1.4706   3.8532   4.4539   0.00    0.0
2021/05/21 06:48:25.005   22.306574981  114.189695719    16.4404   4   0   2.8087   3.0891  10.2533   0.9185   3.5857   2.9778   0.00    0.0
2021/05/21 06:48:24.005   22.306579178  114.189729582    21.2197   4   0   2.7263   3.0795  10.0355   0.8088   3.5130   2.6954   0.00    0.0
2021/05/21 06:48:23.005   22.306542043  114.189791804    33.5556   4   2   2.6926   3.8947  12.3340  -0.6467   5.5138   2.2831   0.00    0.0
2021/05/21 06:48:22.005   22.306513090  114.189839285    42.0171   4   0   2.7114   4.2985  14.1048  -0.6566   6.5311   2.1778   0.00    0.0
2021/05/21 06:48:21.005   22.306510151  114.189859830    42.8296   4   0   2.3259   4.3877  14.8433  -1.1016   7.0654   2.9450   0.00    0.0
2021/05/21 06:48:20.005   22.306518663  114.189873342    49.4724   4   2   3.0799   5.0193  20.4390   1.9723   9.2034   6.3523   0.00    0.0
2021/05/21 06:48:19.005   22.306491131  114.189858805    36.6738   4   2   2.5769   4.6965  16.5958   0.7255   7.8315   3.7989   0.00    0.0
2021/05/21 06:48:18.005   22.306481722  114.189885616    41.7475   4   2   2.2825   3.0685  10.9399  -0.7911   4.4372   3.5725   0.00    0.0
2021/05/21 06:48:17.005   22.306484778  114.189837946    31.0443   4   2   2.2263   3.8635  12.1019  -1.1385   5.7773   3.2873   0.00    0.0
2021/05/21 06:48:16.005   22.306479464  114.189788246    15.8634   4   2   2.2141   4.2442  13.2081  -1.0414   6.5746   3.4103   0.00    0.0
2021/05/21 06:48:15.005   22.306467679  114.189818439    20.9661   4   2   2.2221   3.0297  10.3516  -0.9154   4.3499   3.5845   0.00    0.0
2021/05/21 06:48:14.005   22.306453875  114.189832757    20.4051   4   2   2.2086   2.8856   9.6052  -1.0261   3.9303   3.5016   0.00    0.0
2021/05/21 06:48:13.005   22.306444062  114.189833347    17.8687   4   2   2.1897   2.8777   9.3727  -1.0563   3.8810   3.4530   0.00    0.0
2021/05/21 06:48:12.005   22.306442173  114.189826077    16.1711   4   2   2.1812   2.8747   9.3087  -1.0631   3.8842   3.4506   0.00    0.0
2021/05/21 06:48:11.005   22.306438485  114.189829479    16.4053   4   2   2.1758   2.8700   9.2858  -1.0731   3.8847   3.4581   0.00    0.0
2021/05/21 06:48:10.005   22.306442403  114.189836588    20.4625   4   2   2.1678   2.8662   9.2691  -1.0853   3.8833   3.4597   0.00    0.0
2021/05/21 06:48:09.005   22.306439181  114.189836408    20.0115   4   2   2.1591   2.8633   9.2547  -1.0967   3.8822   3.4579   0.00    0.0
2021/05/21 06:48:08.005   22.306431584  114.189844383    19.9906   4   2   2.1518   2.8609   9.2445  -1.1061   3.8820   3.4572   0.00    0.0
2021/05/21 06:48:07.005   22.306428790  114.189839301    18.3618   4   2   2.1465   2.8590   9.2383  -1.1130   3.8829   3.4588   0.00    0.0
2021/05/21 06:48:06.005   22.306425648  114.189824247    13.9380   4   2   2.1427   2.8578   9.2338  -1.1177   3.8851   3.4623   0.00    0.0
2021/05/21 06:48:05.005   22.306475075  114.189815191    25.3822   4   2   3.2225   2.9813  10.6401   0.4894   3.8610   4.5071   0.00    0.0
2021/05/21 06:48:04.005   22.306516376  114.189818709    38.0294   4   2   3.7938   3.0852  11.4573   1.3437   4.0129   4.9624   0.00    0.0
2021/05/21 06:48:03.005   22.306517907  114.189820292    41.3158   4   2   3.3279   2.9706  11.7747   0.5172   4.1447   5.1205   0.00    0.0
2021/05/21 06:48:02.005   22.306504855  114.189852675    37.4514   4   2   3.5058   3.0436  11.8539   1.0006   4.1873   5.1505   0.00    0.0
2021/05/21 06:48:01.005   22.306458291  114.189917431    28.1370   4   0   4.0638   3.1772  11.8587   1.6949   4.1720   5.1148   0.00    0.0
2021/05/21 06:48:00.005   22.306370346  114.189942282    -1.7763   4   0   3.0593   3.2006  10.6774   1.3543   3.4040   2.4911   0.00    0.0
2021/05/21 06:47:45.005   22.305677355  114.190694043   123.9300   4   0   3.2235   3.4722  12.6320   1.4905   3.8768   2.4056   0.00    0.0
2021/05/21 06:47:44.005   22.305646669  114.190696315   118.5622   4   0   3.1530   3.3618  11.2657   1.4052   3.4316   2.1252   0.00    0.0
2021/05/21 06:47:43.005   22.305580328  114.190693015   107.6541   4   0   2.8203   3.3624  10.9021   1.4025   3.6830  -1.3586   0.00    0.0
2021/05/21 06:47:42.005   22.305448523  114.190658848   113.4333   4   2   3.7231   3.4770  10.7632   2.0999   3.3412  -3.0145   0.00    0.0
2021/05/21 06:47:41.005   22.305385688  114.190656350   117.3612   4   2   3.8909   3.4468  10.6974   2.1804   3.2514  -2.7924   0.00    0.0
2021/05/21 06:47:40.005   22.305369029  114.190672020   116.5166   4   2   3.8516   3.4095  10.4539   2.1593   3.1865  -2.6775   0.00    0.0
2021/05/21 06:47:39.005   22.305472166  114.190718521   107.6415   4   2   2.6947   3.2364   9.7751   1.3910   3.3867  -1.9446   0.00    0.0
2021/05/21 06:47:38.005   22.305443649  114.190705417   108.2305   4   2   3.6829   3.3609   9.8149   2.0535   3.0818  -2.4011   0.00    0.0
2021/05/21 06:47:37.005   22.305424558  114.190708248   106.1255   4   2   3.6421   3.3801   9.6380   2.1407   2.9345  -2.8299   0.00    0.0
2021/05/21 06:47:36.005   22.305384252  114.190734744   103.7100   4   2   4.6931   3.9857  14.8063  -1.3072   5.6949  -6.4257   0.00    0.0
2021/05/21 06:47:32.005   22.305474442  114.190868173    82.5327   4   0   3.2221   3.4725  12.5204   1.4973   3.8518   2.3899   0.00    0.0
2021/05/21 06:47:30.005   22.305497417  114.190967359   108.5408   4   0   3.2061   3.4456  12.1349   1.4767   3.7270   2.3113   0.00    0.0
2021/05/21 06:47:29.005   22.305545083  114.191114443   168.7924   4   0   2.2840   3.3338  12.0001   0.7536   3.5708   1.3795   0.00    0.0
2021/05/21 06:47:28.005   22.305673716  114.191254896   250.7682   4   0   2.6900   3.3028  12.5394   1.1195   3.8149   2.5685   0.00    0.0
2021/05/21 06:47:18.005   22.304747060  114.191582625   246.0756   4   0   4.1730   2.9542  12.4179   1.0200   3.3783   1.2580   0.00    0.0
2021/05/21 06:47:16.005   22.304642481  114.191654952   261.4936   4   0   4.1441   2.9365  12.0370   1.0105   3.2730   1.2238   0.00    0.0
2021/05/21 06:47:15.005   22.304598389  114.191668158   264.0232   4   0   4.0749   2.9095  11.9947   0.9922   3.2652   1.2282   0.00    0.0
2021/05/21 06:47:14.005   22.304572501  114.191672115   248.1660   4   0   4.0020   2.8494  12.1464   0.9857   3.3172   1.2560   0.00    0.0
2021/05/21 06:47:13.005   22.304551912  114.191672395   239.5083   4   0   3.9041   2.7963  11.9185   0.9605   3.2619   1.2416   0.00    0.0
2021/05/21 06:47:12.005   22.304504887  114.191676248   240.6319   4   0   3.8651   2.7813  11.5709   0.9456   3.1704   1.2124   0.00    0.0
2021/05/21 06:47:11.005   22.304477097  114.191674963   242.7714   4   0   3.8623   2.7744  11.2285   0.9426   3.0782   1.1820   0.00    0.0
2021/05/21 06:47:10.005   22.304447681  114.191686690   247.1253   4   0   3.8627   2.7670  10.9330   0.9418   2.9980   1.1551   0.00    0.0
2021/05/21 06:47:09.005   22.304431538  114.191692926   253.1796   4   0   3.8614   2.7615  10.6986   0.9406   2.9345   1.1340   0.00    0.0
2021/05/21 06:47:08.005   22.304445653  114.191698003   255.0874   4   0   3.8609   2.7581  10.5282   0.9403   2.8889   1.1195   0.00    0.0
2021/05/21 06:47:07.005   22.304442213  114.191707127   255.9236   4   0   3.8611   2.7560  10.4171   0.9409   2.8597   1.1114   0.00    0.0
2021/05/21 06:46:57.005   22.304428515  114.191153052   216.7134   4   2   4.3175   3.7305  12.1970   2.8088   3.8374   3.6660   0.00    0.0
2021/05/21 06:46:33.005   22.304693660  114.191233546   112.6706   4   0   4.1915   2.9749  12.4311   1.1053   3.4628   1.4693   0.00    0.0
2021/05/21 06:46:25.005   22.304785510  114.191192592    50.6144   4   0   3.0130   2.9585  12.4180   0.4928   3.5083   2.0150   0.00    0.0
2021/05/21 06:46:24.005   22.304645271  114.191143591    50.3983   4   0   3.9250   2.8420  10.3738   1.0069   2.8774   1.2699   0.00    0.0
2021/05/21 06:46:23.005   22.304594549  114.191117688    50.5007   4   0   4.0232   2.8802  11.1349   1.0518   3.1016   1.3361   0.00    0.0
2021/05/21 06:46:22.005   22.304591049  114.191093162    49.7467   4   0   4.0505   2.8923  12.0096   1.0824   3.3649   1.4669   0.00    0.0
2021/05/21 06:46:21.005   22.304611977  114.191072524    55.0257   4   0   3.9742   2.8469  12.0775   1.0682   3.3934   1.4860   0.00    0.0
2021/05/21 06:46:13.005   22.304292807  114.190495294    17.5796   4   0   3.2452   6.4825   9.7269   0.7829  -1.0266   2.8317   0.00    0.0
2021/05/21 06:46:09.005   22.304513315  114.190689938    20.7863   4   2   4.9807   2.8337   9.5538   2.8174   3.5954   3.6331   0.00    0.0
2021/05/21 06:46:08.005   22.304526847  114.190634559    19.6643   4   0   4.5653   2.7518   8.2027   2.5268   2.8678   2.9523   0.00    0.0
2021/05/21 06:46:07.005   22.304534767  114.190576472    19.4550   4   2   4.7098   2.3946   8.5118   2.5575   3.5916   3.3272   0.00    0.0
2021/05/21 06:46:06.005   22.304528955  114.190505296    18.2390   4   2   4.7869   2.3237   8.8284   2.6303   3.8942   3.5645   0.00    0.0
