% program   : RTKPOST demo5 b34k
% inp file  : E:\AAE6102_Laboratory-main\AAE6102_Laboratory-main\GNSS Data\UrbanNav - Medium\20210521.medium-urban.whampoa.ublox.f9p.obs
% inp file  : E:\AAE6102_Laboratory-main\AAE6102_Laboratory-main\GNSS Data\UrbanNav - Medium\hksc141g.21o
% inp file  : E:\AAE6102_Laboratory-main\AAE6102_Laboratory-main\GNSS Data\UrbanNav - Medium\hksc141g.21*
% obs start : 2021/05/21 06:29:02.0 GPST (week2158 455342.0s)
% obs end   : 2021/05/21 06:54:39.0 GPST (week2158 456879.0s)
% pos mode  : Kinematic
% freqs     : L1+L2/E5b
% solution  : Backward
% elev mask : 15.0 deg
% dynamics  : on
% tidecorr  : off
% ionos opt : Broadcast
% tropo opt : Saastamoinen
% ephemeris : Broadcast
% navi sys  : GPS GLONASS Galileo
% amb res   : Fix and Hold
% amb glo   : Fix and Hold
% val thres : 3.0
% antenna1  :                       ( 0.0000  0.0000  0.0000)
% antenna2  :                       ( 0.0000  0.0000  0.0000)
% ref pos   : 22.322172082  114.141187963    20.2386
%
% (lat/lon/height=WGS84/ellipsoidal,Q=1:fix,2:float,3:sbas,4:dgps,5:single,6:ppp,ns=# of satellites)
%  GPST          latitude(deg) longitude(deg)  height(m)   Q  ns   sdn(m)   sde(m)   sdu(m)  sdne(m)  sdeu(m)  sdun(m) age(s)  ratio
2158 456879.000   22.301570174  114.190306719     9.4690   2  14   1.0052   1.2229   3.3042   0.5758   1.2853   1.0116   0.00    0.0
2158 456878.000   22.301570446  114.190306689     9.3819   2  14   0.7304   0.8951   2.3969   0.4224   0.9443   0.7229   0.00    0.0
2158 456877.000   22.301569999  114.190306815     9.1347   2  14   0.5991   0.7396   1.9658   0.3491   0.7810   0.5834   0.00    0.0
2158 456876.000   22.301568021  114.190308757     8.2891   2  14   0.5194   0.6439   1.7055   0.3040   0.6803   0.5029   0.00    0.0
2158 456875.000   22.301564797  114.190315275     7.6933   2  14   0.4651   0.5775   1.5254   0.2731   0.6093   0.4483   0.00    0.0
2158 456874.000   22.301559559  114.190326324     7.4923   2  14   0.4269   0.5311   1.3921   0.2545   0.5542   0.4057   0.00    0.0
2158 456873.000   22.301552198  114.190338792     7.2949   2  12   0.3969   0.4944   1.2904   0.2391   0.5120   0.3737   0.00    0.0
2158 456872.000   22.301542920  114.190353598     7.3707   4   3   0.3727   0.4648   1.2092   0.2264   0.4784   0.3477   0.00    0.0
2158 456871.000   22.301536840  114.190373619     7.3348   4   3   0.3539   0.4415   1.1402   0.2183   0.4497   0.3246   0.00    0.0
2158 456870.000   22.301539715  114.190397814     7.2908   4   3   0.3371   0.4214   1.0804   0.2105   0.4245   0.3033   0.00    0.0
2158 456869.000   22.301550520  114.190423869     7.1843   4   3   0.3225   0.4010   1.0216   0.2017   0.3953   0.2832   0.00    0.0
2158 456868.000   22.301565407  114.190451878     6.8839   4   3   0.3097   0.3834   0.9718   0.1939   0.3708   0.2664   0.00    0.0
2158 456867.000   22.301583468  114.190480345     6.6356   2  10   0.2980   0.3678   0.9280   0.1870   0.3497   0.2522   0.00    0.0
2158 456866.000   22.301605876  114.190507916     6.3452   2  11   0.2885   0.3540   0.8923   0.1809   0.3326   0.2378   0.00    0.0
2158 456865.000   22.301634614  114.190533068     6.2306   2  11   0.2799   0.3419   0.8583   0.1766   0.3179   0.2267   0.00    0.0
2158 456864.000   22.301669645  114.190551305     6.0392   2  11   0.2719   0.3310   0.8270   0.1723   0.3038   0.2161   0.00    0.0
2158 456863.000   22.301710464  114.190559308     5.8582   2  12   0.2647   0.3213   0.7996   0.1681   0.2914   0.2074   0.00    0.0
2158 456862.000   22.301754307  114.190554161     5.7393   2  13   0.2586   0.3122   0.7753   0.1647   0.2804   0.2003   0.00    0.0
2158 456861.000   22.301798756  114.190537120     5.6356   2  11   0.2530   0.3041   0.7533   0.1616   0.2706   0.1940   0.00    0.0
2158 456860.000   22.301846373  114.190513239     5.4881   2   9   0.2478   0.2968   0.7333   0.1586   0.2615   0.1880   0.00    0.0
2158 456859.000   22.301896290  114.190488361     5.3842   2   7   0.2428   0.2901   0.7160   0.1559   0.2523   0.1825   0.00    0.0
2158 456858.000   22.301947194  114.190463007     5.2796   2  11   0.2391   0.2842   0.6980   0.1542   0.2465   0.1767   0.00    0.0
2158 456857.000   22.301998774  114.190439037     5.1367   2   9   0.2353   0.2775   0.6797   0.1517   0.2366   0.1694   0.00    0.0
2158 456856.000   22.302046617  114.190416404     4.8769   2   8   0.2324   0.2726   0.6689   0.1502   0.2242   0.1629   0.00    0.0
2158 456855.000   22.302090708  114.190393853     4.8511   2   8   0.2297   0.2672   0.6543   0.1489   0.2156   0.1566   0.00    0.0
2158 456854.000   22.302131286  114.190368369     3.7671   2   5   0.2325   0.3088   0.9991   0.1169  -0.2849   0.2479   0.00    0.0
2158 456853.000   22.302165601  114.190332203     2.1506   2   4   0.2547   0.4449   1.8783  -0.1483  -0.7740   0.4844   0.00    0.0
2158 456852.000   22.302193106  114.190284268     1.9986   2   4   0.2649   0.5106   2.2557  -0.2054  -0.9582   0.5772   0.00    0.0
2158 456851.000   22.302214423  114.190229923     2.3295   2   4   0.2626   0.5085   2.2549  -0.2042  -0.9584   0.5745   0.00    0.0
2158 456850.000   22.302235158  114.190168378     4.4108   2   9   0.2184   0.2508   0.6129   0.1448   0.1891   0.1418   0.00    0.0
2158 456849.000   22.302255319  114.190109692     4.3142   2   8   0.2157   0.2461   0.5968   0.1437   0.1890   0.1355   0.00    0.0
2158 456848.000   22.302277602  114.190050041     4.3081   2   8   0.2135   0.2420   0.5806   0.1429   0.1851   0.1279   0.00    0.0
2158 456847.000   22.302300801  114.189991952     4.3433   2   6   0.2115   0.2384   0.5700   0.1416   0.1794   0.1235   0.00    0.0
2158 456846.000   22.302322498  114.189939413     4.5364   2  10   0.2090   0.2351   0.5602   0.1403   0.1752   0.1190   0.00    0.0
2158 456845.000   22.302341685  114.189891834     4.4416   2  10   0.2067   0.2328   0.5526   0.1396   0.1739   0.1178   0.00    0.0
2158 456844.000   22.302359277  114.189845668     4.3784   2   8   0.2046   0.2310   0.5470   0.1392   0.1702   0.1160   0.00    0.0
2158 456843.000   22.302369378  114.189795039     4.3176   2   8   0.2024   0.2281   0.5406   0.1380   0.1695   0.1161   0.00    0.0
2158 456842.000   22.302364500  114.189739729     4.2270   2  10   0.1993   0.2249   0.5333   0.1358   0.1685   0.1152   0.00    0.0
2158 456841.000   22.302343852  114.189685021     4.1723   2   9   0.1962   0.2220   0.5273   0.1337   0.1674   0.1150   0.00    0.0
2158 456840.000   22.302311067  114.189633879     4.2221   2  12   0.1932   0.2193   0.5196   0.1319   0.1666   0.1132   0.00    0.0
2158 456839.000   22.302273291  114.189584099     4.3867   2  12   0.1902   0.2164   0.5140   0.1295   0.1656   0.1133   0.00    0.0
2158 456838.000   22.302236016  114.189536553     4.4609   2  12   0.1874   0.2137   0.5083   0.1276   0.1641   0.1123   0.00    0.0
2158 456837.000   22.302200424  114.189490014     4.5464   2  11   0.1846   0.2109   0.5020   0.1253   0.1641   0.1131   0.00    0.0
2158 456836.000   22.302170066  114.189447251     4.5849   2  10   0.1817   0.2077   0.4953   0.1228   0.1624   0.1129   0.00    0.0
2158 456835.000   22.302144800  114.189408462     4.5774   2  11   0.1791   0.2043   0.4874   0.1202   0.1600   0.1121   0.00    0.0
2158 456834.000   22.302124435  114.189373330     4.5224   2  11   0.1764   0.2011   0.4799   0.1178   0.1578   0.1112   0.00    0.0
2158 456833.000   22.302109215  114.189343548     4.5585   2  11   0.1736   0.1982   0.4739   0.1154   0.1572   0.1116   0.00    1.5
2158 456832.000   22.302098166  114.189319503     4.5691   2  12   0.1710   0.1955   0.4681   0.1132   0.1570   0.1116   0.00    1.9
2158 456831.000   22.302092011  114.189304597     4.5609   2  13   0.1684   0.1930   0.4627   0.1110   0.1568   0.1115   0.00    1.7
2158 456830.000   22.302090466  114.189300543     4.5144   2  14   0.1659   0.1907   0.4562   0.1090   0.1565   0.1107   0.00    1.0
2158 456829.000   22.302090332  114.189300275     4.4400   2  13   0.1635   0.1883   0.4510   0.1071   0.1561   0.1104   0.00    1.2
2158 456828.000   22.302090324  114.189300379     4.3175   2  13   0.1612   0.1861   0.4461   0.1051   0.1556   0.1100   0.00    1.1
2158 456827.000   22.302090294  114.189300463     4.2559   2  13   0.1590   0.1839   0.4415   0.1033   0.1552   0.1097   0.00    1.2
2158 456826.000   22.302090294  114.189300551     4.2180   2  14   0.1569   0.1819   0.4372   0.1016   0.1549   0.1096   0.00    2.3
2158 456825.000   22.302090203  114.189300528     4.1753   2  12   0.1548   0.1799   0.4326   0.0999   0.1543   0.1091   0.00    1.2
2158 456824.000   22.302090129  114.189300427     4.1330   2  12   0.1528   0.1780   0.4288   0.0983   0.1538   0.1089   0.00    1.1
2158 456823.000   22.302089979  114.189300364     4.1128   2  12   0.1509   0.1762   0.4248   0.0968   0.1533   0.1087   0.00    1.2
2158 456822.000   22.302089867  114.189300298     4.1018   2  14   0.1489   0.1743   0.4202   0.0952   0.1527   0.1077   0.00    1.1
2158 456821.000   22.302089844  114.189300259     4.0961   2  11   0.1471   0.1726   0.4164   0.0937   0.1521   0.1073   0.00    1.0
2158 456820.000   22.302089837  114.189300147     4.0869   2  11   0.1453   0.1709   0.4128   0.0923   0.1514   0.1069   0.00    1.4
2158 456819.000   22.302088662  114.189299031     3.6537   1  10   0.0072   0.0097   0.0476  -0.0041  -0.0158   0.0153   0.00    3.4
2158 456818.000   22.302089792  114.189299898     4.1017   2   9   0.1420   0.1678   0.4056   0.0897   0.1505   0.1063   0.00    2.9
2158 456817.000   22.302089725  114.189299721     4.1219   2  12   0.1403   0.1662   0.4020   0.0884   0.1501   0.1059   0.00    1.1
2158 456816.000   22.302089712  114.189299467     4.1591   2  10   0.1392   0.1654   0.4011   0.0876   0.1487   0.1073   0.00    1.1
2158 456815.000   22.302089623  114.189299150     4.1347   2  10   0.1379   0.1640   0.3978   0.0866   0.1483   0.1072   0.00    1.8
2158 456814.000   22.302089338  114.189298024     4.1918   2   8   0.1377   0.1638   0.4030   0.0848   0.1435   0.1126   0.00    1.7
2158 456813.000   22.302086158  114.189290427     4.0759   2   8   0.1364   0.1611   0.3959   0.0846   0.1472   0.1111   0.00    2.0
2158 456812.000   22.302079628  114.189272088     3.7536   4   0   0.1503   0.3450   1.2889  -0.1078  -0.5923   0.3002   0.00    0.0
2158 456811.000   22.302070638  114.189240535     2.5392   4   0   0.1706   0.5011   1.9737  -0.2041  -0.9461   0.4616   0.00    0.0
2158 456810.000   22.302070449  114.189192809     1.1083   4   0   0.4835   0.3014   1.8808  -0.0103  -0.5212  -0.7863   0.00    0.0
2158 456809.000   22.302078887  114.189133641     1.8425   4   0   1.0155   0.5344   1.5452  -0.6703   0.4147  -0.9623   0.00    0.0
2158 456808.000   22.302088766  114.189076429     1.6223   4   0   0.2576   0.5178   1.8173  -0.1838   0.6895  -0.4533   0.00    0.0
2158 456807.000   22.302124401  114.189016815     2.0259   4   0   1.2541   0.7915   2.9854  -0.3023   1.3036   1.1710   0.00    0.0
2158 456806.000   22.302160899  114.188967527     4.2826   4   0   1.2684   0.8575   3.5218   0.3488   1.5557   1.4914   0.00    0.0
2158 456805.000   22.302193966  114.188916374     1.0840   4   0   0.9777   1.2072   2.8915   0.8717   1.6758   0.8040   0.00    0.0
2158 456804.000   22.302228180  114.188864717    -0.0985   4   0   0.6296   1.2175   2.5122   0.6791   1.6217   0.7330   0.00    0.0
2158 456803.000   22.302277877  114.188839973     3.3056   4   0   0.6084   0.5537   1.9744   0.3898  -0.8339   0.6167   0.00    0.0
2158 456802.000   22.302301129  114.188802197    -0.2399   4   0   0.1523   0.5006   2.0712  -0.1520  -0.9748   0.3779   0.00    0.0
2158 456801.000   22.302345708  114.188770830     2.5695   4   0   0.1399   0.2020   0.7278   0.0478  -0.2454   0.1774   0.00    0.0
2158 456800.000   22.302394077  114.188750732     4.4678   4   0   0.2151   0.3910   1.8689  -0.2173  -0.7978   0.5479   0.00    0.0
2158 456799.000   22.302443775  114.188742945     3.1241   4   0   0.1479   0.3498   1.4459  -0.1147  -0.6494   0.3165   0.00    0.0
2158 456798.000   22.302498450  114.188743685     1.9388   4   0   0.1474   0.3567   1.4784  -0.1206  -0.6666   0.3244   0.00    0.0
2158 456797.000   22.302555721  114.188747261     1.4003   4   0   0.1465   0.3415   1.4137  -0.1151  -0.6330   0.3156   0.00    0.0
2158 456796.000   22.302614370  114.188751560     1.6832   4   0   0.1615   0.5150   1.9956  -0.1997  -0.9723   0.4437   0.00    0.0
2158 456795.000   22.302669511  114.188769111    -1.7052   4   0   0.1745   0.5938   2.3017  -0.2450  -1.1337   0.5243   0.00    0.0
2158 456794.000   22.302724485  114.188776820    -0.6610   4   0   0.1619   0.4650   1.8376  -0.1905  -0.8800   0.4312   0.00    0.0
2158 456793.000   22.302777904  114.188783192     2.0919   2   4   0.1687   0.5483   2.1211  -0.2253  -1.0408   0.4880   0.00    0.0
2158 456792.000   22.302825191  114.188805536    -1.1476   2   5   0.3552   0.4250   2.1663  -0.2964  -0.8880   0.8037   0.00    0.0
2158 456791.000   22.302871877  114.188823403    -1.2257   2   6   0.1966   0.3250   1.3751  -0.1511  -0.5915   0.4223   0.00    0.0
2158 456790.000   22.302913210  114.188838987    -0.7313   2   4   0.1804   0.2907   1.1881  -0.1145  -0.5013   0.3568   0.00    0.0
2158 456789.000   22.302948161  114.188853380    -0.1278   2   6   0.1739   0.2699   1.0774  -0.0931  -0.4454   0.3249   0.00    0.0
2158 456788.000   22.302972408  114.188857899     0.5763   4   2   0.6878   1.1644   1.3323   0.8545   0.3291   0.6167   0.00    0.0
2158 456787.000   22.302993181  114.188875625    -0.5099   2   4   0.1669   0.2503   0.9700  -0.0762  -0.3963   0.2940   0.00    0.0
2158 456786.000   22.303002564  114.188880528    -0.5705   2   4   0.1875   0.3426   1.5015  -0.1629  -0.6529   0.4319   0.00    0.0
2158 456785.000   22.303006576  114.188881116     0.0097   2   4   0.2014   0.3942   1.7914  -0.2036  -0.7861   0.5100   0.00    0.0
2158 456784.000   22.303007726  114.188880003     0.7479   2   4   0.1936   0.3672   1.6547  -0.1846  -0.7214   0.4730   0.00    0.0
2158 456783.000   22.303011707  114.188880268     1.3965   2   4   0.1826   0.3264   1.4444  -0.1544  -0.6208   0.4166   0.00    0.0
2158 456782.000   22.303023049  114.188884620     2.6476   2   4   0.3269   0.3216   2.1444  -0.1941  -0.6704   0.7800   0.00    0.0
2158 456781.000   22.303042214  114.188892868     4.3980   2   4   0.4746   0.3703   3.1950  -0.3225  -0.9469   1.1941   0.00    0.0
2158 456780.000   22.303053534  114.188922278     3.8906   4   2   1.2988   1.3915   3.4729   0.1788   0.9112   1.4882   0.00    0.0
2158 456779.000   22.303089613  114.188989989     5.5996   4   3   1.1401   1.0695   3.2533  -0.6807   0.3848   1.1145   0.00    0.0
2158 456778.000   22.303135187  114.189070164     6.7005   4   0   1.4853   1.5939   4.2028  -0.4697  -0.7008   1.7631   0.00    0.0
2158 456777.000   22.303201270  114.189107397    10.4181   4   0   1.5784   1.6130   4.4219   0.0623   1.0151   1.9867   0.00    0.0
2158 456776.000   22.303263339  114.189150005    11.4271   4   0   1.5828   1.4700   4.4158   0.2390   1.0668   2.0105   0.00    0.0
2158 456775.000   22.303317835  114.189177997    16.4412   4   0   1.5500   1.4448   4.3541  -0.1702   1.1288   2.0583   0.00    0.0
2158 456774.000   22.303362940  114.189188447    21.3685   4   2   1.5410   1.4049   4.1954   0.0928   1.2807   2.0185   0.00    0.0
2158 456773.000   22.303389757  114.189208783    20.1086   4   3   1.6052   1.3762   4.3712   0.3679   1.3407   2.1758   0.00    0.0
2158 456772.000   22.303463444  114.189237094    26.5216   4   2   1.3358   1.4698   4.0935  -0.2752   1.4554   2.0009   0.00    0.0
2158 456771.000   22.303515514  114.189289181    30.5880   4   2   1.1705   1.2979   3.7820   0.4821   1.5416   1.8506   0.00    0.0
2158 456770.000   22.303550188  114.189330997    30.2532   4   0   1.3109   1.2828   3.7854   0.6319   1.4205   1.6807   0.00    0.0
2158 456769.000   22.303572909  114.189326719    23.4934   4   0   1.2146   1.2415   3.6425   0.5584   1.2777   1.5002   0.00    0.0
2158 456768.000   22.303589706  114.189334383    16.9924   4   0   1.2183   1.2544   3.5828   0.5787   1.2708   1.4807   0.00    0.0
2158 456767.000   22.303584276  114.189352962    11.6887   2   4   1.1853   1.2122   3.3679   0.5594   1.3900   1.2814   0.00    0.0
2158 456766.000   22.303592534  114.189368965     8.2264   2   4   1.0120   1.2438   3.2754   0.4156   1.4543   1.4033   0.00    0.0
2158 456765.000   22.303588124  114.189394817     6.6984   2   4   0.9836   1.2431   3.2001   0.4123   1.4590   1.4600   0.00    0.0
2158 456764.000   22.303574701  114.189410598     4.8320   2   5   0.9736   1.3009   3.1398   0.3586   1.4676   1.4744   0.00    0.0
2158 456763.000   22.303556581  114.189435026     4.9119   2   7   0.7978   1.2418   2.9598   0.6202   1.6268   1.3056   0.00    0.0
2158 456762.000   22.303525432  114.189506821     6.7383   2   7   1.0342   1.2730   3.1230   0.1398   1.3253   1.5889   0.00    0.0
2158 456761.000   22.303490688  114.189559367     6.1470   2   7   0.7181   0.6301   2.2162   0.2809   0.7657   1.0960   0.00    0.0
2158 456760.000   22.303451518  114.189611334     3.4466   2   9   0.7929   0.7356   2.0489  -0.4911  -0.4256   1.1158   0.00    0.0
2158 456759.000   22.303420422  114.189664306     3.7336   2   6   0.6032   0.5595   1.7825  -0.1947   0.3580   0.8772   0.00    0.0
2158 456758.000   22.303390138  114.189717809     3.8513   2   8   0.5673   0.5401   1.6963  -0.1979   0.2957   0.8269   0.00    0.0
2158 456757.000   22.303360301  114.189769169     3.8906   2   6   0.5367   0.5027   1.6449  -0.1531   0.2789   0.7947   0.00    0.0
2158 456756.000   22.303337294  114.189808039     6.2051   2   8   0.5130   0.4742   1.5807  -0.1222   0.2799   0.7629   0.00    0.0
2158 456755.000   22.303314425  114.189848223     5.7563   2   8   0.5547   0.4830   1.8094  -0.1031  -0.2556   0.6374   0.00    0.0
2158 456754.000   22.303293363  114.189881438     6.4051   2   9   0.5193   0.4676   1.5463  -0.2073  -0.0974   0.7700   0.00    0.0
2158 456753.000   22.303278318  114.189907301     6.7927   2   7   0.5807   0.5271   1.5872  -0.3435  -0.3858   0.8383   0.00    0.0
2158 456752.000   22.303268110  114.189925027     7.0534   2   9   0.4798   0.4257   1.4709  -0.1633  -0.0771   0.7209   0.00    0.0
2158 456751.000   22.303266802  114.189931579     7.7151   2   9   0.4639   0.4102   1.4397  -0.1484  -0.0842   0.7016   0.00    0.0
2158 456750.000   22.303269119  114.189932971     8.4251   2   9   0.4502   0.3971   1.4114  -0.1371  -0.0964   0.6847   0.00    0.0
2158 456749.000   22.303269928  114.189933923     8.7374   2   9   0.4404   0.3864   1.3866  -0.1327  -0.1148   0.6715   0.00    0.0
2158 456748.000   22.303269531  114.189935559     8.2936   2   9   0.4298   0.3743   1.3600  -0.1232  -0.1128   0.6566   0.00    0.0
2158 456747.000   22.303272564  114.189933124     8.6803   2   9   0.4215   0.3656   1.3382  -0.1206  -0.1270   0.6452   0.00    0.0
2158 456746.000   22.303275209  114.189931053     9.0348   2   8   0.4197   0.3595   1.3222  -0.1294  -0.1527   0.6406   0.00    0.0
2158 456745.000   22.303277106  114.189929649     9.2281   2   8   0.4129   0.3523   1.3029  -0.1286  -0.1621   0.6310   0.00    0.0
2158 456744.000   22.303278338  114.189928728     9.3056   2   9   0.3989   0.3430   1.2789  -0.1144  -0.1543   0.6141   0.00    0.0
2158 456743.000   22.303277694  114.189930157     8.8341   2   9   0.3910   0.3347   1.2575  -0.1087  -0.1517   0.6026   0.00    0.0
2158 456742.000   22.303278619  114.189929030     8.9567   2   9   0.3847   0.3286   1.2405  -0.1078  -0.1578   0.5939   0.00    0.0
2158 456741.000   22.303279716  114.189927812     9.1834   2   9   0.3785   0.3228   1.2242  -0.1070  -0.1628   0.5854   0.00    0.0
2158 456740.000   22.303282905  114.189926153    10.0834   2   9   0.3706   0.3173   1.2036  -0.1057  -0.1663   0.5736   0.00    0.0
2158 456739.000   22.303285293  114.189924814    10.7649   2   9   0.3643   0.3138   1.1862  -0.1094  -0.1759   0.5644   0.00    0.0
2158 456738.000   22.303288067  114.189922668    11.5489   2   9   0.3650   0.3112   1.1725  -0.1174  -0.1893   0.5603   0.00    0.0
2158 456737.000   22.303289726  114.189921120    12.2101   2   8   0.3590   0.3067   1.1552  -0.1164  -0.1912   0.5509   0.00    0.0
2158 456736.000   22.303284742  114.189923697    11.7278   2   7   0.3511   0.3023   1.1334  -0.1137  -0.1902   0.5379   0.00    0.0
2158 456735.000   22.303278867  114.189930396    11.4973   2   7   0.3445   0.2982   1.1140  -0.1108  -0.1890   0.5268   0.00    0.0
2158 456734.000   22.303270967  114.189938726    11.2338   2   7   0.3382   0.2934   1.0942  -0.1070  -0.1847   0.5158   0.00    0.0
2158 456733.000   22.303261011  114.189950531    10.8877   2   6   0.3333   0.2908   1.0785  -0.1046  -0.1861   0.5072   0.00    0.0
2158 456732.000   22.303252701  114.189961090    10.8138   2   7   0.3284   0.2874   1.0622  -0.1011  -0.1843   0.4984   0.00    0.0
2158 456731.000   22.303245449  114.189970322    10.8121   2   7   0.3183   0.2804   1.0400  -0.0837  -0.1673   0.4833   0.00    0.0
2158 456730.000   22.303239622  114.189977659    10.8702   2   8   0.3190   0.2800   1.0299  -0.0929  -0.1772   0.4813   0.00    0.0
2158 456729.000   22.303236412  114.189982645    10.9401   2   9   0.3086   0.2741   1.0102  -0.0745  -0.1631   0.4669   0.00    0.0
2158 456728.000   22.303235176  114.189984731    10.9547   2   9   0.3021   0.2702   0.9946  -0.0637  -0.1569   0.4571   0.00    0.0
2158 456727.000   22.303234906  114.189984461    10.8795   2   9   0.2968   0.2671   0.9808  -0.0549  -0.1534   0.4488   0.00    0.0
2158 456726.000   22.303234630  114.189984267    10.7735   2   9   0.2921   0.2642   0.9672  -0.0457  -0.1501   0.4410   0.00    0.0
2158 456725.000   22.303233186  114.189983109    10.5859   2   8   0.2875   0.2613   0.9549  -0.0385  -0.1483   0.4338   0.00    0.0
2158 456724.000   22.303231783  114.189983025    10.5320   2   7   0.2840   0.2589   0.9431  -0.0278  -0.1461   0.4275   0.00    0.0
2158 456723.000   22.303230687  114.189982820    10.4660   2   8   0.2804   0.2566   0.9324  -0.0133  -0.1454   0.4214   0.00    0.0
2158 456722.000   22.303227507  114.189985035    10.3572   2   8   0.2775   0.2542   0.9219   0.0123  -0.1441   0.4161   0.00    0.0
2158 456721.000   22.303222628  114.189990353    10.1827   2   7   0.2747   0.2519   0.9118   0.0214  -0.1430   0.4110   0.00    0.0
2158 456720.000   22.303178248  114.190010828    15.0204   2   6   1.2088   0.7906   1.3232  -0.9137  -0.5597   0.5175   0.00    0.0
2158 456719.000   22.303188858  114.189997019    22.0421   2   8   0.7801   0.6714   1.9103  -0.5737  -0.8928   0.4995   0.00    0.0
2158 456718.000   22.303203503  114.189960457    38.0750   2   4   0.8129   1.0186   2.8253  -0.7742  -1.5697   1.0860   0.00    0.0
2158 456717.000   22.303197341  114.189970505    42.7609   2   5   0.8635   1.2406   3.4084  -0.9212  -1.9644   1.4016   0.00    0.0
2158 456716.000   22.303127787  114.190020611    48.8182   2   4   1.1340   1.5535   4.8073  -1.0475  -2.5807   1.2906   0.00    0.0
2158 456715.000   22.303063114  114.190089345    47.2320   2   4   0.8007   0.6400   3.1312   0.2253  -1.2216  -1.1472   0.00    0.0
2158 456714.000   22.303048812  114.190173733    39.6691   4   0   1.6983   1.5499   3.7425   0.6465  -0.6736   1.4954   0.00    0.0
2158 456713.000   22.303029844  114.190232564    33.5029   4   0   1.7552   1.4657   4.5834   0.7319   1.1394   2.2945   0.00    0.0
2158 456712.000   22.303023552  114.190285803    25.5569   4   2   1.7630   1.3889   4.8034   0.6759   1.3537   2.4437   0.00    0.0
2158 456711.000   22.303013721  114.190352236    11.9586   4   2   1.5737   1.2970   4.3922   0.5379   1.3201   2.1814   0.00    0.0
2158 456710.000   22.302996710  114.190427407     6.0396   4   2   1.6206   1.2937   4.3232   0.4588   1.2341   2.2065   0.00    0.0
2158 456709.000   22.302986946  114.190501579    13.8701   2   4   1.9111   1.2218   3.8866   0.5102   0.7241   2.4696   0.00    0.0
2158 456708.000   22.302984694  114.190549822    20.6624   2   5   1.7007   1.0769   3.5613  -0.2949  -0.9320   1.9750   0.00    0.0
2158 456707.000   22.302968982  114.190589868    24.1049   2   5   1.3458   0.9254   3.0832  -0.5163  -0.8094   1.7609   0.00    0.0
2158 456706.000   22.302799118  114.190748617    -7.6669   2   5   1.1346   0.8227   2.7254  -0.4808  -0.6963   1.5195   0.00    0.0
2158 456705.000   22.302774300  114.190714100   -28.2253   2   4   1.4419   1.5178   3.3746  -0.4194  -0.9793   1.6580   0.00    0.0
2158 456704.000   22.302756847  114.190700430   -35.5567   2   5   1.4991   1.3966   4.2719   0.6181   1.0107   1.9998   0.00    0.0
2158 456703.000   22.302787087  114.190769975   -19.6500   2   7   1.2861   1.0114   3.6892  -0.5193  -0.2167   1.6233   0.00    0.0
2158 456702.000   22.302796563  114.190805916   -10.3768   2   7   0.9297   0.7652   2.5515  -0.0274   0.5770   1.1863   0.00    0.0
2158 456701.000   22.302797217  114.190820751    -2.4647   2   5   0.7880   0.6797   2.2558   0.1808   0.5210   1.0388   0.00    0.0
2158 456700.000   22.302795525  114.190842107     7.7787   2   5   0.7136   0.7218   2.4459   0.1494  -0.4868   0.9973   0.00    0.0
2158 456699.000   22.302785465  114.190885356    12.5296   2   6   0.6555   0.7920   2.7607  -0.0826  -0.9296   0.9891   0.00    0.0
2158 456698.000   22.302770465  114.190941678    13.7312   2   6   0.6157   0.7894   2.8316  -0.1815  -1.0351   0.9883   0.00    0.0
2158 456697.000   22.302765690  114.191006552    10.3032   2   5   0.7781   0.9321   2.6634  -0.6160  -1.1887   1.3005   0.00    0.0
2158 456696.000   22.302743750  114.191069365    11.3280   2   6   0.6589   0.6626   2.0221  -0.3773  -0.6129   1.0021   0.00    0.0
2158 456695.000   22.302718414  114.191136668    10.4610   2   5   0.5926   0.5770   1.8007  -0.2824  -0.4062   0.8741   0.00    0.0
2158 456694.000   22.302695627  114.191197716     9.8549   2   6   0.5536   0.5340   1.6767  -0.2426  -0.3109   0.8076   0.00    0.0
2158 456693.000   22.302675415  114.191251584     9.8374   2   7   0.5203   0.5040   1.5953  -0.2161  -0.2684   0.7616   0.00    0.0
2158 456692.000   22.302658946  114.191302405     9.3424   2   4   0.5348   0.4974   1.5776  -0.2570  -0.3299   0.7788   0.00    0.0
2158 456691.000   22.302650195  114.191355639     9.2634   2   7   0.5453   0.7938   1.9266   0.2495   0.8165   0.8838   0.00    0.0
2158 456690.000   22.302650984  114.191409921     9.2999   2   6   0.4751   0.4716   1.4231  -0.2324  -0.2591   0.6844   0.00    0.0
2158 456689.000   22.302662689  114.191467333     9.0704   2   6   0.4747   0.4647   1.3932  -0.2478  -0.2799   0.6795   0.00    0.0
2158 456688.000   22.302695892  114.191521023    10.5168   2   5   0.4527   0.5620   1.7309  -0.2810  -0.6584   0.7121   0.00    0.0
2158 456687.000   22.302735006  114.191568661    11.1535   2   5   0.4361   0.4275   1.3116  -0.2099  -0.2271   0.6287   0.00    0.0
2158 456686.000   22.302784164  114.191611941    11.4325   2   5   0.4203   0.4123   1.2719  -0.1995  -0.2302   0.6075   0.00    0.0
2158 456685.000   22.302840182  114.191645829    11.0962   2   7   0.4082   0.3973   1.2360  -0.1910  -0.2250   0.5907   0.00    0.0
2158 456684.000   22.302897974  114.191665327    13.0596   2   7   0.7016   0.9285   1.4178   0.6666   0.6489   0.8351   0.00    0.0
2158 456683.000   22.302946625  114.191701521     3.7964   2   6   0.5339   0.6152   1.3438   0.3715   0.3766   0.7096   0.00    0.0
2158 456682.000   22.303016604  114.191748916     0.4199   2   5   0.5063   0.5992   1.6505   0.2855  -0.3534   0.7346   0.00    0.0
2158 456681.000   22.303087136  114.191782434     1.6433   2   4   0.4921   0.8269   2.2061   0.2961  -1.0104   0.6859   0.00    0.0
2158 456680.000   22.303158019  114.191796186     5.2193   4   0   1.3495   1.3339   3.1086  -0.4012  -0.3784   1.4813   0.00    0.0
2158 456679.000   22.303225553  114.191823914     8.2176   2   5   1.3080   0.8165   2.2459  -0.5134  -1.0650   1.2722   0.00    0.0
2158 456678.000   22.303286207  114.191881652    12.0659   2   5   0.9480   1.0219   2.7740   0.3717   1.2123   1.1785   0.00    0.0
2158 456677.000   22.303338901  114.191865307     2.9717   2   6   0.7946   1.0644   2.4797   0.3403   1.2532   1.0081   0.00    0.0
2158 456676.000   22.303399064  114.191903427     6.8808   4   3   0.7738   1.0329   2.7411   0.5763   1.4281   1.1844   0.00    0.0
2158 456675.000   22.303440052  114.191942597     6.9431   2   4   1.0511   1.2143   3.2238   0.3418   1.4671   1.5844   0.00    0.0
2158 456674.000   22.303496734  114.191942368     9.3564   2   5   0.6714   0.8196   1.8709   0.3130   0.9713   0.8074   0.00    0.0
2158 456673.000   22.303542359  114.191917584    10.5166   2   5   0.6034   0.8465   1.9920   0.3656   0.4651   0.6516   0.00    0.0
2158 456672.000   22.303575361  114.191851667    15.3257   4   2   1.3809   1.6944   3.0572   0.8906  -0.5720   1.0662   0.00    0.0
2158 456671.000   22.303625594  114.191829250    17.1779   2   4   0.5283   0.9078   2.5678   0.3573  -0.9546   0.5572   0.00    0.0
2158 456670.000   22.303651227  114.191780730    13.3445   2   5   0.5029   0.7235   1.8757   0.3410  -0.3719   0.5372   0.00    0.0
2158 456669.000   22.303678571  114.191722658    10.6722   2   4   0.4865   0.6703   1.7342   0.3194  -0.2518   0.5510   0.00    0.0
2158 456668.000   22.303708656  114.191655492    10.2034   2   6   0.4638   0.6171   1.5427   0.3220   0.1863   0.5033   0.00    0.0
2158 456667.000   22.303743962  114.191594539    10.1419   2   6   0.4441   0.5827   1.4441   0.3118   0.2379   0.4805   0.00    0.0
2158 456666.000   22.303778834  114.191537228    10.1578   2   6   0.4262   0.5549   1.3713   0.3008   0.2571   0.4623   0.00    0.0
2158 456665.000   22.303813721  114.191481384    10.6144   2   9   0.4062   0.5215   1.2964   0.2827   0.2863   0.4484   0.00    0.0
2158 456664.000   22.303845460  114.191429974    10.4324   2   6   0.3891   0.4947   1.2341   0.2683   0.2991   0.4342   0.00    0.0
2158 456663.000   22.303874419  114.191384162    10.3236   2   5   0.3738   0.4704   1.1815   0.2550   0.3268   0.4284   0.00    0.0
2158 456662.000   22.303898019  114.191342953    10.3592   2   6   0.3676   0.4598   1.1310   0.2596   0.3612   0.4287   0.00    0.0
2158 456661.000   22.303918046  114.191308014    10.1621   2   6   0.3557   0.4470   1.0897   0.2527   0.3569   0.4151   0.00    0.0
2158 456660.000   22.303934713  114.191270215    10.1950   2   5   0.3447   0.4264   1.0524   0.2405   0.3554   0.4066   0.00    0.0
2158 456659.000   22.303957334  114.191237294     9.6226   2   5   0.3371   0.4992   1.3828   0.2089  -0.3779   0.4372   0.00    0.0
2158 456658.000   22.303984318  114.191191032     9.4537   4   2   0.3371   0.7188   2.2500   0.0588  -1.0459   0.5558   0.00    0.0
2158 456657.000   22.304003482  114.191125589    17.8371   4   2   0.9506   0.8299   2.4462  -0.5766  -1.0670  -0.2559   0.00    0.0
2158 456656.000   22.304029448  114.191074161    17.2873   2   4   0.5962   0.4926   2.3445   0.4535  -0.7624  -0.9779   0.00    0.0
2158 456655.000   22.304082169  114.191037207     7.9375   2   5   0.6275   0.5167   2.4957   0.4927  -0.8655  -1.0683   0.00    0.0
2158 456654.000   22.304119978  114.191001425     0.4311   2   4   1.0573   0.7939   2.6403  -0.4879  -1.0864  -0.8761   0.00    0.0
2158 456653.000   22.304153584  114.190941697     1.6329   4   2   1.0558   0.8037   2.4820  -0.5883  -1.0364  -0.6776   0.00    0.0
2158 456652.000   22.304194497  114.190887466     0.1103   4   2   0.9677   0.7716   2.2388  -0.6018  -0.9640  -0.2940   0.00    0.0
2158 456651.000   22.304215461  114.190834060     1.7633   2   4   1.0744   0.7701   2.2972  -0.6390  -0.9291  -0.5988   0.00    0.0
2158 456650.000   22.304240957  114.190775052     4.4665   2   5   0.7658   0.6874   1.9586  -0.5005  -0.8710   0.4032   0.00    0.0
2158 456649.000   22.304267399  114.190718234     7.0537   2   4   0.6962   0.5730   1.9353  -0.2961  -0.7538  -0.4783   0.00    0.0
2158 456648.000   22.304284485  114.190656408    12.9268   2   5   0.7282   0.5396   2.1251   0.0968  -0.7882  -0.8031   0.00    0.0
2158 456647.000   22.304299338  114.190560277    31.7967   2   6   0.5803   0.5607   2.0226   0.0241  -0.8413  -0.5295   0.00    0.0
2158 456646.000   22.304348497  114.190540768    19.3968   2   5   0.5381   0.4708   1.5093  -0.2005  -0.5650  -0.2324   0.00    0.0
2158 456645.000   22.304376739  114.190523132    10.9578   2   4   0.5069   0.5617   1.9204  -0.1133  -0.8409  -0.3205   0.00    0.0
2158 456644.000   22.304432141  114.190502961    -0.6038   4   3   1.0796   0.7424   2.5558  -0.5038  -1.0296  -1.0014   0.00    0.0
2158 456643.000   22.304467977  114.190475485    -4.0714   2   7   1.0466   0.5373   2.6303   0.2132  -0.8464  -1.3750   0.00    0.0
2158 456642.000   22.304455402  114.190451261     3.1339   2   6   0.7019   0.4600   1.7174  -0.1570  -0.5716  -0.7263   0.00    0.0
2158 456641.000   22.304462324  114.190429656     5.4242   2   5   0.5941   0.4231   1.4579  -0.1364  -0.4810  -0.5470   0.00    0.0
2158 456640.000   22.304477037  114.190405483     6.1310   2   7   0.5400   0.3963   1.3368  -0.0996  -0.4308  -0.4784   0.00    0.0
2158 456639.000   22.304497689  114.190371159     7.2608   2   8   0.4842   0.3762   1.2239  -0.0641  -0.3897  -0.3941   0.00    0.0
2158 456638.000   22.304523052  114.190326168     8.2525   2   9   0.4769   0.3601   1.1960   0.0710  -0.3649  -0.4127   0.00    0.0
2158 456637.000   22.304558489  114.190276398     7.9810   2   4   0.4337   0.3460   1.1163   0.0742  -0.3284  -0.3398   0.00    0.0
2158 456636.000   22.304594438  114.190223043     7.8492   2   6   0.4082   0.3342   1.0624   0.0865  -0.3022  -0.3003   0.00    0.0
2158 456635.000   22.304628366  114.190168366     8.3100   2   6   0.3843   0.3230   1.0147   0.0884  -0.2755  -0.2610   0.00    0.0
2158 456634.000   22.304665524  114.190115228     8.0915   2   7   0.3634   0.3101   0.9635   0.0805  -0.2408  -0.2175   0.00    0.0
2158 456633.000   22.304698417  114.190059782     8.6405   2   6   0.3445   0.2985   0.9134   0.0741  -0.2044  -0.1663   0.00    0.0
2158 456632.000   22.304731151  114.190008900     8.6263   2   5   0.3287   0.2877   0.8707   0.0644  -0.1587  -0.1156   0.00    0.0
2158 456631.000   22.304758367  114.189963995     9.0903   2   5   0.3136   0.2788   0.8339   0.0662  -0.1348  -0.0508   0.00    0.0
2158 456630.000   22.304779608  114.189922488    10.5081   4   3   0.5195   0.2749   1.1920   0.1319  -0.1935  -0.6050   0.00    0.0
2158 456629.000   22.304813500  114.189890262     8.0863   4   3   0.8377   0.2746   1.8252   0.2288  -0.3266  -1.1332   0.00    0.0
2158 456628.000   22.304841506  114.189867139     5.6227   2   5   0.8987   0.2727   1.9581   0.2552  -0.3639  -1.2336   0.00    0.0
2158 456627.000   22.304833839  114.189855338     9.5429   2   6   0.2851   0.2598   0.7778   0.0786  -0.0800   0.0617   0.00    0.0
2158 456626.000   22.304836408  114.189855138     9.6821   2   6   0.2788   0.2554   0.7643   0.0808  -0.0803   0.0784   0.00    0.0
2158 456625.000   22.304837328  114.189856089    10.1761   2   6   0.2726   0.2515   0.7518   0.0824  -0.0775   0.0926   0.00    0.0
2158 456624.000   22.304838517  114.189857040    10.6279   2   6   0.2668   0.2479   0.7404   0.0836  -0.0738   0.1028   0.00    0.0
2158 456623.000   22.304839818  114.189857345    11.0133   2   5   0.2618   0.2460   0.7353   0.0830  -0.0514   0.1054   0.00    0.0
2158 456622.000   22.304840651  114.189857279    11.3835   2   6   0.2565   0.2424   0.7207   0.0856  -0.0585   0.1171   0.00    0.0
2158 456621.000   22.304841845  114.189857615    11.7794   2   5   0.2522   0.2402   0.7160   0.0846  -0.0333   0.1180   0.00    0.0
2158 456620.000   22.304842590  114.189857503    12.1729   2   5   0.2478   0.2378   0.7071   0.0853  -0.0145   0.1229   0.00    0.0
2158 456619.000   22.304842692  114.189857804    12.5490   2   5   0.2445   0.2355   0.6988   0.0865   0.0247   0.1275   0.00    0.0
2158 456618.000   22.304842795  114.189857693    12.8091   2   5   0.2414   0.2336   0.6916   0.0878   0.0323   0.1308   0.00    0.0
2158 456617.000   22.304842582  114.189857142    13.0143   2   5   0.2384   0.2311   0.6841   0.0887   0.0333   0.1335   0.00    0.0
2158 456616.000   22.304843597  114.189856367    12.9253   2   5   0.2360   0.2288   0.6783   0.0892   0.0372   0.1340   0.00    0.0
2158 456615.000   22.304847740  114.189850857    12.9579   2   5   0.2333   0.2266   0.6715   0.0897   0.0394   0.1360   0.00    0.0
2158 456614.000   22.304857779  114.189838803    12.6675   2   5   0.2302   0.2242   0.6637   0.0900   0.0443   0.1396   0.00    0.0
2158 456613.000   22.304881121  114.189815280    11.9635   4   2   1.0472   0.6242   1.2016  -0.7088  -0.5150  -0.2268   0.00    0.0
2158 456612.000   22.304924523  114.189792206     5.0519   4   3   0.8409   0.2322   1.7648   0.2616  -0.3460  -1.1441   0.00    0.0
2158 456611.000   22.304955919  114.189754070     3.4049   4   3   0.9981   0.2362   2.0686   0.3116  -0.4203  -1.3753   0.00    0.0
2158 456610.000   22.304999391  114.189709306     0.0226   4   3   0.9984   0.2345   2.0675   0.3126  -0.4212  -1.3759   0.00    0.0
2158 456609.000   22.305030271  114.189656033    -0.1414   4   3   0.9960   0.2328   2.0627   0.3126  -0.4209  -1.3733   0.00    0.0
2158 456608.000   22.305041434  114.189587406     1.7851   4   2   1.1964   1.1357   2.4444   0.9097   1.1241  -1.0283   0.00    0.0
2158 456607.000   22.305076749  114.189526650     0.9575   4   2   1.1702   1.3413   2.7148   0.9798   1.4971  -0.7686   0.00    0.0
2158 456606.000   22.305110515  114.189456434     3.6230   4   0   1.4482   1.4567   3.4983   0.8205   1.0907   0.9412   0.00    0.0
2158 456605.000   22.305166693  114.189389109     8.7285   4   0   1.4150   1.4573   3.9925   0.7282   0.8745   1.1719   0.00    0.0
2158 456604.000   22.305173768  114.189341086    13.5659   4   3   1.0037   0.8779   2.7641  -0.5337  -1.3724  -0.7915   0.00    0.0
2158 456603.000   22.305165591  114.189314952     9.8483   4   2   1.0319   0.9931   2.8253  -0.7069  -1.5082  -0.0592   0.00    0.0
2158 456602.000   22.305234408  114.189267651     5.7259   4   2   1.4273   1.4607   3.5894   0.4941  -0.5694   1.0590   0.00    0.0
2158 456601.000   22.305289156  114.189214842    -0.5434   4   0   1.5336   1.5840   4.2265   0.7594   1.0104   1.5095   0.00    0.0
2158 456600.000   22.305307245  114.189155850    -3.4476   4   0   1.5834   1.5590   4.1992   0.6980   0.8734   1.5837   0.00    0.0
2158 456599.000   22.305335916  114.189094703    -0.6720   2   4   1.4285   1.4750   3.8107   0.5945  -0.3478   1.3777   0.00    0.0
2158 456598.000   22.305411970  114.189015828    11.5866   2   5   1.1102   1.1093   3.1092  -0.2837  -0.8595   1.3465   0.00    0.0
2158 456597.000   22.305447643  114.188949051    14.4148   2   4   1.0794   1.2235   3.1816  -0.6281  -0.5579   1.3279   0.00    0.0
2158 456596.000   22.305449135  114.188935735     8.5544   2   9   0.9604   0.9870   2.4182  -0.5353  -0.8051   1.1593   0.00    0.0
2158 456595.000   22.305453424  114.188918130     6.7773   2   5   1.1869   1.0083   2.2282  -0.7735  -0.7556   1.0838   0.00    0.0
2158 456594.000   22.305486646  114.188895876     6.2909   2   5   1.2680   1.2929   2.4472  -0.1212   0.3300   1.1590   0.00    0.0
2158 456593.000   22.305533590  114.188904454     5.2819   2   5   1.2794   1.3179   3.7206   0.6203   0.2303   1.8379   0.00    0.0
2158 456592.000   22.305605007  114.188901403    14.5955   2   7   0.8677   0.9200   2.5123   0.2752  -0.3261   1.1443   0.00    0.0
2158 456591.000   22.305647272  114.188935685    13.4890   2   6   0.7859   0.8100   2.3917   0.1435  -0.4329   1.0915   0.00    0.0
2158 456590.000   22.305693520  114.188979402    12.6836   4   3   0.7300   0.8508   2.5682  -0.1063  -0.8377   1.0624   0.00    0.0
2158 456589.000   22.305727260  114.189024907    11.8144   4   0   1.5131   1.5529   3.6320  -0.5450  -0.2847   1.7312   0.00    0.0
2158 456588.000   22.305798493  114.189066324    12.3169   4   0   1.9087   1.6766   5.0748   0.1981   1.1392   2.5973   0.00    0.0
2158 456587.000   22.305844476  114.189108183    13.0198   4   3   1.7998   1.4884   5.3624  -0.2737   0.4420   2.6885   0.00    0.0
2158 456586.000   22.305911170  114.189154097    13.7562   2   5   1.4566   1.4306   5.4081   0.5138   0.6741   2.5031   0.00    0.0
2158 456585.000   22.306004536  114.189180482    18.9591   2   5   1.3400   1.1429   3.2793  -0.6893  -0.5909   1.7237   0.00    0.0
2158 456584.000   22.306046255  114.189232245    19.1075   4   0   1.3366   1.4169   2.8326  -0.4436  -0.4804   1.4191   0.00    0.0
2158 456583.000   22.306083258  114.189274212    20.3081   4   3   1.2350   0.9791   3.1961  -0.7692  -0.6804   1.4054   0.00    0.0
2158 456582.000   22.306125011  114.189326756    20.3986   4   3   1.1056   1.3708   4.0410  -0.2354   0.8472   1.8159   0.00    0.0
2158 456581.000   22.306154231  114.189353511    21.4301   4   3   1.4045   1.0758   4.3846  -0.8358  -0.7701   2.0151   0.00    0.0
2158 456580.000   22.306183376  114.189373575    23.6298   4   3   1.1785   0.8791   4.3788  -0.6495  -0.9982   2.0296   0.00    0.0
2158 456579.000   22.306184574  114.189393063    16.4764   2   6   0.9514   0.7975   3.5588  -0.5642  -0.9821   1.6243   0.00    0.0
2158 456578.000   22.306187860  114.189396609    15.8136   2   8   0.7387   0.6427   2.4234  -0.3515  -0.4058   1.1162   0.00    0.0
2158 456577.000   22.306185665  114.189397267    14.5117   2   8   0.6499   0.5792   2.0384  -0.2885  -0.2570   0.9414   0.00    0.0
2158 456576.000   22.306183821  114.189396463    14.1472   2   8   0.5935   0.5345   1.8384  -0.2548  -0.2092   0.8480   0.00    0.0
2158 456575.000   22.306182516  114.189395319    13.9335   2   8   0.5496   0.4987   1.6879  -0.2294  -0.1749   0.7779   0.00    0.0
2158 456574.000   22.306181284  114.189395161    13.7532   2   7   0.5151   0.4697   1.5706  -0.2108  -0.1520   0.7236   0.00    0.0
2158 456573.000   22.306180257  114.189394864    13.3669   2   9   0.4863   0.4448   1.4706  -0.1955  -0.1261   0.6783   0.00    0.0
2158 456572.000   22.306180465  114.189395257    13.5869   2   8   0.4620   0.4238   1.3904  -0.1831  -0.1114   0.6413   0.00    0.0
2158 456571.000   22.306182208  114.189395634    14.2126   2   9   0.4495   0.4070   1.3535  -0.1698  -0.0645   0.6293   0.00    0.0
2158 456570.000   22.306183503  114.189396019    14.6729   2   9   0.4381   0.3921   1.3203  -0.1581   0.0471   0.6180   0.00    0.0
2158 456569.000   22.306184540  114.189396726    14.9811   2   9   0.4276   0.3787   1.2896  -0.1477   0.0844   0.6073   0.00    0.0
2158 456568.000   22.306185239  114.189397512    15.2720   2   9   0.4180   0.3667   1.2613  -0.1384   0.1051   0.5970   0.00    0.0
2158 456567.000   22.306185690  114.189398600    15.5010   2   9   0.4090   0.3558   1.2350  -0.1300   0.1193   0.5873   0.00    0.0
2158 456566.000   22.306185826  114.189399840    15.6207   2   9   0.4007   0.3458   1.2103  -0.1224   0.1290   0.5779   0.00    0.0
2158 456565.000   22.306185932  114.189401267    15.6610   2   9   0.3929   0.3367   1.1873  -0.1155   0.1364   0.5690   0.00    0.0
2158 456564.000   22.306186025  114.189402734    15.6599   2   9   0.3856   0.3282   1.1655  -0.1092   0.1421   0.5605   0.00    0.0
2158 456563.000   22.306185857  114.189404072    15.5827   2   8   0.3787   0.3204   1.1451  -0.1034   0.1464   0.5523   0.00    0.0
2158 456562.000   22.306185565  114.189405467    15.4062   2   8   0.3721   0.3132   1.1255  -0.0979   0.1496   0.5442   0.00    0.0
2158 456561.000   22.306185320  114.189406375    15.1960   2   9   0.3659   0.3063   1.1070  -0.0931   0.1523   0.5368   0.00    0.0
2158 456560.000   22.306185123  114.189407115    14.9438   2   8   0.3600   0.3000   1.0891  -0.0883   0.1538   0.5292   0.00    0.0
2158 456559.000   22.306185025  114.189407531    14.6957   2   8   0.3544   0.2941   1.0723  -0.0840   0.1553   0.5221   0.00    0.0
2158 456558.000   22.306185438  114.189408188    14.7466   2   9   0.3489   0.2882   1.0550  -0.0807   0.1553   0.5150   0.00    0.0
2158 456557.000   22.306185756  114.189408645    14.7023   2   8   0.3437   0.2829   1.0382  -0.0774   0.1542   0.5078   0.00    0.0
2158 456556.000   22.306186152  114.189408737    14.6788   2   7   0.3387   0.2780   1.0228  -0.0746   0.1527   0.5011   0.00    0.0
2158 456555.000   22.306186500  114.189408956    14.5320   2   7   0.3338   0.2731   1.0072  -0.0713   0.1528   0.4944   0.00    0.0
2158 456554.000   22.306186990  114.189408766    14.5038   2   7   0.3293   0.2685   0.9929  -0.0686   0.1522   0.4883   0.00    0.0
2158 456553.000   22.306187314  114.189408513    14.3029   2   8   0.3250   0.2641   0.9792  -0.0660   0.1518   0.4824   0.00    0.0
2158 456552.000   22.306187757  114.189408046    14.1117   2   8   0.3207   0.2599   0.9654  -0.0637   0.1508   0.4764   0.00    0.0
2158 456551.000   22.306188087  114.189407669    13.8793   2   7   0.3166   0.2561   0.9523  -0.0615   0.1494   0.4705   0.00    0.0
2158 456550.000   22.306188179  114.189407361    13.5814   2   7   0.3128   0.2523   0.9409  -0.0597   0.1479   0.4656   0.00    0.0
2158 456549.000   22.306188052  114.189406558    13.0324   2   7   0.3091   0.2487   0.9296  -0.0568   0.1485   0.4605   0.00    0.0
2158 456548.000   22.306187683  114.189405958    12.4552   2   8   0.3056   0.2452   0.9193  -0.0546   0.1486   0.4560   0.00    0.0
2158 456547.000   22.306187339  114.189405002    11.9880   2   9   0.3020   0.2416   0.9085  -0.0537   0.1479   0.4510   0.00    0.0
2158 456546.000   22.306186735  114.189404636    11.4111   2   7   0.2987   0.2391   0.8983  -0.0522   0.1459   0.4463   0.00    0.0
2158 456545.000   22.306186214  114.189404416    10.8832   2   8   0.2955   0.2359   0.8874  -0.0497   0.1482   0.4416   0.00    0.0
2158 456544.000   22.306185594  114.189404234    10.3456   2   8   0.2922   0.2330   0.8765  -0.0476   0.1492   0.4367   0.00    0.0
2158 456543.000   22.306185032  114.189403923     9.8515   2   8   0.2889   0.2301   0.8653  -0.0455   0.1502   0.4317   0.00    0.0
2158 456542.000   22.306184572  114.189403796     9.3862   2   8   0.2860   0.2274   0.8554  -0.0437   0.1506   0.4274   0.00    0.0
2158 456541.000   22.306183982  114.189403313     8.9687   2   8   0.2828   0.2244   0.8450  -0.0431   0.1510   0.4226   0.00    0.0
2158 456540.000   22.306183841  114.189403373     8.5873   2   8   0.2787   0.2222   0.8326  -0.0407   0.1508   0.4161   0.00    0.0
2158 456539.000   22.306183738  114.189402775     8.3182   2   9   0.2748   0.2193   0.8211  -0.0401   0.1512   0.4100   0.00    0.0
2158 456538.000   22.306184053  114.189402426     8.3136   2   8   0.2710   0.2174   0.8099  -0.0389   0.1493   0.4041   0.00    0.0
2158 456537.000   22.306184273  114.189401846     8.3609   2   8   0.2676   0.2152   0.8000  -0.0382   0.1478   0.3989   0.00    0.0
2158 456536.000   22.306184616  114.189401343     8.3990   2   8   0.2644   0.2132   0.7911  -0.0378   0.1461   0.3943   0.00    0.0
2158 456535.000   22.306184705  114.189400444     8.4136   2   9   0.2611   0.2107   0.7820  -0.0387   0.1446   0.3896   0.00    0.0
2158 456534.000   22.306185637  114.189399337     8.6405   2   8   0.2575   0.2088   0.7713  -0.0357   0.1440   0.3837   0.00    0.0
2158 456533.000   22.306186468  114.189397917     8.8748   2   9   0.2542   0.2062   0.7625  -0.0352   0.1434   0.3790   0.00    0.0
2158 456532.000   22.306187171  114.189396797     9.0376   2   9   0.2508   0.2040   0.7531  -0.0340   0.1425   0.3738   0.00    0.0
2158 456531.000   22.306187869  114.189395966     9.2257   2   8   0.2477   0.2023   0.7441  -0.0314   0.1415   0.3689   0.00    0.0
2158 456530.000   22.306188276  114.189395071     9.3294   2   8   0.2446   0.2004   0.7354  -0.0288   0.1417   0.3642   0.00    0.0
2158 456529.000   22.306189048  114.189394551     9.5945   2   8   0.2436   0.2011   0.7391   0.0158   0.1556   0.3653   0.00    0.0
2158 456528.000   22.306189083  114.189393520     9.6448   2   9   0.2405   0.1976   0.7286  -0.0094   0.1497   0.3602   0.00    0.0
2158 456527.000   22.306188989  114.189393057     9.6424   2   9   0.2376   0.1951   0.7196  -0.0103   0.1470   0.3556   0.00    0.0
2158 456526.000   22.306188993  114.189392607     9.7091   2   9   0.2349   0.1930   0.7116  -0.0097   0.1452   0.3514   0.00    0.0
2158 456525.000   22.306188632  114.189391898     9.6867   2   9   0.2324   0.1910   0.7043  -0.0086   0.1436   0.3477   0.00    0.0
2158 456524.000   22.306188752  114.189391013     9.8267   2   9   0.2298   0.1887   0.6968  -0.0011   0.1422   0.3437   0.00    0.0
2158 456523.000   22.306188745  114.189390217     9.8403   2   9   0.2274   0.1870   0.6892   0.0132   0.1412   0.3398   0.00    0.0
2158 456522.000   22.306189154  114.189389414    10.0587   2   8   0.2267   0.1878   0.6909   0.0348   0.1538   0.3406   0.00    0.0
2158 456521.000   22.306188818  114.189387484     9.7899   2   6   0.3209   0.4056   1.1573   0.2896   0.6000   0.5724   0.00    0.0
2158 456520.000   22.306188663  114.189381154     7.8013   2   5   0.5624   0.8290   2.2149   0.6471   1.3145   1.0957   0.00    0.0
2158 456519.000   22.306204434  114.189396504     8.9711   2   4   0.6144   0.5051   3.3432   0.5211   1.2516   1.4096   0.00    0.0
2158 456518.000   22.306234044  114.189414433    14.8571   2   4   0.7439   1.1441   3.9042   0.7792   1.3316   1.6069   0.00    0.0
2158 456517.000   22.306283803  114.189433660    20.3636   4   2   1.1827   1.1585   4.2086  -0.3699   1.2715   1.9410   0.00    0.0
2158 456516.000   22.306340278  114.189459508    23.0950   4   0   1.5795   1.2310   4.3592   0.5630   1.3506   2.1954   0.00    0.0
2158 456515.000   22.306355317  114.189479941    19.1392   4   2   1.6025   1.2519   4.4143   0.6276   1.3970   2.2337   0.00    0.0
2158 456514.000   22.306379085  114.189478004    14.5019   2   4   1.3254   1.2479   4.4288   0.6097   1.4017   2.1710   0.00    0.0
2158 456513.000   22.306396302  114.189504261     5.9454   2   4   1.2307   0.9415   4.4552   0.6122   1.3897   2.1487   0.00    0.0
2158 456512.000   22.306427973  114.189524998     2.6046   2   4   1.5368   1.1918   4.3869   0.5949   1.3572   2.1745   0.00    0.0
2158 456511.000   22.306470751  114.189535468     0.8871   4   0   1.6347   1.2856   4.5587   0.6714   1.5050   2.2944   0.00    0.0
2158 456510.000   22.306494178  114.189555131    -2.1665   2   4   1.0852   1.2097   4.1938   0.7761   1.4057   1.8838   0.00    0.0
2158 456509.000   22.306525146  114.189587204    -0.0886   4   2   1.5772   0.8783   3.9522   0.2734   0.4472   2.0086   0.00    0.0
2158 456508.000   22.306540549  114.189620982     1.6734   4   2   1.1315   0.8118   3.3311   0.1990  -0.4749   1.3774   0.00    0.0
2158 456507.000   22.306550434  114.189659650     4.5508   2   5   1.5397   1.2050   3.3413  -0.4983   0.7780   1.4903   0.00    0.0
2158 456506.000   22.306537609  114.189693239     4.0928   2   5   1.1018   0.7986   2.4910  -0.2743   0.5904   1.1905   0.00    0.0
2158 456505.000   22.306528535  114.189724594     5.6943   2   4   1.3043   0.7507   2.1852  -0.5252   0.7163   0.8955   0.00    0.0
2158 456504.000   22.306519489  114.189750500     7.3429   2   6   1.4484   0.7377   1.9630  -0.7227   0.6443   0.7290   0.00    0.0
2158 456503.000   22.306499289  114.189781113     9.0360   2   8   1.0133   0.6087   1.8261  -0.4270   0.5600   0.7963   0.00    0.0
2158 456502.000   22.306479330  114.189804530    10.9425   2   6   0.9760   0.6082   1.6233  -0.4951   0.4470   0.9696   0.00    0.0
2158 456501.000   22.306479362  114.189813799    11.8174   2   7   0.6100   0.5075   1.5447  -0.1841   0.4202   0.9231   0.00    0.0
2158 456500.000   22.306481551  114.189813316    12.5802   2   9   0.5894   0.4804   1.4946  -0.1700   0.4013   0.8927   0.00    0.0
2158 456499.000   22.306483919  114.189811849    13.1618   2   9   0.5638   0.4573   1.4326  -0.1595   0.3833   0.8538   0.00    0.0
2158 456498.000   22.306484621  114.189813033    13.5293   2   9   0.5424   0.4382   1.3779  -0.1560   0.3620   0.8202   0.00    0.0
2158 456497.000   22.306487071  114.189810937    14.1051   2   9   0.5224   0.4214   1.3288  -0.1494   0.3480   0.7894   0.00    0.0
2158 456496.000   22.306489180  114.189808851    14.5785   2   9   0.5045   0.4065   1.2847  -0.1437   0.3354   0.7616   0.00    0.0
2158 456495.000   22.306490669  114.189807732    14.9969   2   9   0.4882   0.3921   1.2443  -0.1385   0.3227   0.7364   0.00    0.0
2158 456494.000   22.306491716  114.189806704    15.3329   2   9   0.4734   0.3792   1.2076  -0.1338   0.3111   0.7134   0.00    0.0
2158 456493.000   22.306492379  114.189805750    15.5702   2   8   0.4603   0.3676   1.1765  -0.1305   0.2994   0.6935   0.00    0.0
2158 456492.000   22.306492617  114.189805109    15.6962   2   7   0.4473   0.3568   1.1428  -0.1258   0.2910   0.6728   0.00    0.0
2158 456491.000   22.306492895  114.189804473    15.8753   2   9   0.4356   0.3470   1.1142  -0.1223   0.2822   0.6547   0.00    0.0
2158 456490.000   22.306493418  114.189803850    16.1136   2   9   0.4247   0.3379   1.0874  -0.1192   0.2740   0.6378   0.00    0.0
2158 456489.000   22.306494481  114.189802286    16.4148   2   9   0.4139   0.3286   1.0617  -0.1139   0.2682   0.6213   0.00    0.0
2158 456488.000   22.306495146  114.189801072    16.6503   2   9   0.4039   0.3200   1.0377  -0.1092   0.2627   0.6059   0.00    0.0
2158 456487.000   22.306495847  114.189799641    16.9061   2   9   0.3944   0.3120   1.0152  -0.1050   0.2574   0.5914   0.00    0.0
2158 456486.000   22.306496312  114.189798545    17.0951   2   9   0.3873   0.3049   1.0001  -0.1036   0.2495   0.5811   0.00    0.0
2158 456485.000   22.306502422  114.189792607    18.6203   2   9   0.4669   0.4279   1.1372  -0.3047  -0.3347   0.6925   0.00    0.0
2158 456484.000   22.306500543  114.189794827    18.1914   2   9   0.4141   0.3527   1.0484  -0.2098  -0.1349   0.6211   0.00    0.0
2158 456483.000   22.306499159  114.189796487    18.1766   2   9   0.4142   0.3560   1.0432  -0.2199  -0.1717   0.6201   0.00    0.0
2158 456482.000   22.306495571  114.189801484    17.8238   2   9   0.3934   0.3265   1.0068  -0.1818  -0.0444   0.5919   0.00    0.0
2158 456481.000   22.306488945  114.189809505    17.4113   2   7   0.3877   0.3320   1.0267  -0.1713  -0.1589   0.5787   0.00    0.0
2158 456480.000   22.306514916  114.189788841    22.9881   2   6   0.4356   0.3630   1.0347  -0.2504  -0.2376   0.6082   0.00    0.0
2158 456479.000   22.306502981  114.189795712    26.9328   4   2   1.1878   0.7303   1.5380  -0.7708  -0.7557   0.6764   0.00    0.0
2158 456478.000   22.306490671  114.189866429    29.5752   4   0   1.5842   2.2248   3.2893   0.7704  -1.5411   1.3138   0.00    0.0
2158 456477.000   22.306431119  114.189991502    21.1637   4   2   1.7595   2.2399   4.9394   1.1304  -0.8897   2.1110   0.00    0.0
2158 456476.000   22.306389547  114.190000459    17.3124   2   4   2.1124   2.2307   5.9781   1.3206   0.1049   2.8534   0.00    0.0
2158 456475.000   22.306326471  114.190031150    16.3052   4   2   2.3420   2.3226   6.4585   1.5191   0.8601   3.1903   0.00    0.0
2158 456474.000   22.306276836  114.190092088    22.4064   4   0   2.3820   2.3367   6.5940   1.5393   0.9043   3.2692   0.00    0.0
2158 456473.000   22.306233864  114.190010353    42.9456   4   2   2.1005   3.0789   6.2920   1.6896  -1.8064   2.6530   0.00    0.0
2158 456472.000   22.306219119  114.190066565    57.4272   4   0   1.6273   2.1726   6.1122  -0.2172  -2.7081   2.1747   0.00    0.0
2158 456471.000   22.306163968  114.190107809    63.0886   4   0   1.7101   2.7280   5.9394   0.9854  -2.7833   2.0233   0.00    0.0
2158 456470.000   22.306103110  114.190168349    62.5258   4   0   1.5190   2.4876   5.7978  -0.7790  -3.1676   1.8007   0.00    0.0
2158 456469.000   22.306070988  114.190206751    54.4073   4   0   1.8949   3.5935   5.9718   1.5072  -2.5967   2.1332   0.00    0.0
2158 456468.000   22.305988541  114.190210301    41.9404   4   0   2.3523   4.5333   6.4720   2.4759   0.3602   2.8280   0.00    0.0
2158 456467.000   22.305919844  114.190293069    33.4466   4   2   2.4275   4.5956   6.6983   2.5697   1.2899   3.0115   0.00    0.0
2158 456466.000   22.305925847  114.190490005    24.6554   2   4   1.7684   2.2269   4.6693   0.9680   0.8674   2.2139   0.00    0.0
2158 456465.000   22.305915046  114.190628460    16.2881   2   4   1.3092   1.5732   3.9586   0.8966   1.6564   1.7969   0.00    0.0
2158 456464.000   22.305863652  114.190674665    13.8083   2   4   1.1627   1.6831   3.6863   0.9743   1.7637   1.5395   0.00    0.0
2158 456463.000   22.305789895  114.190630854     8.6453   4   2   0.9957   1.4265   3.1231   0.7835   1.2163   0.9757   0.00    0.0
2158 456462.000   22.305756075  114.190650023     5.3716   2   5   0.8600   1.1996   2.7550   0.6442   0.6358   0.5796   0.00    0.0
2158 456461.000   22.305723503  114.190657324     5.8451   2   7   0.6594   0.8030   1.7547   0.2976   0.4905   0.7872   0.00    0.0
2158 456460.000   22.305706148  114.190660589     5.1402   2  10   0.5955   0.6753   1.5862   0.1948   0.3147   0.7030   0.00    0.0
2158 456459.000   22.305700890  114.190659964     6.2473   2  10   0.5494   0.5961   1.4572   0.1446   0.2526   0.6460   0.00    0.0
2158 456458.000   22.305697868  114.190660277     5.6681   2  10   0.5124   0.5444   1.3630   0.1045   0.1743   0.6010   0.00    0.0
2158 456457.000   22.305694530  114.190656443     6.4976   2  10   0.4827   0.5056   1.2801   0.0848   0.1243   0.5626   0.00    0.0
2158 456456.000   22.305684393  114.190661152     6.0813   2   9   0.4616   0.4823   1.2464   0.0934   0.1218   0.5465   0.00    0.0
2158 456455.000   22.305668212  114.190666646     5.8680   2   4   0.4468   0.4623   1.2230   0.0942   0.1098   0.5390   0.00    0.0
2158 456454.000   22.305644511  114.190682058     5.4486   4   3   0.5690   0.6019   1.5136  -0.3291  -0.5659   0.7852   0.00    0.0
2158 456453.000   22.305615151  114.190697386     4.6157   4   2   1.2062   1.6273   2.2551   0.8939   0.1659   1.4912   0.00    0.0
2158 456452.000   22.305585556  114.190692069     5.7817   2   4   0.4327   0.5270   1.1489   0.2523   0.2490   0.5178   0.00    0.0
2158 456451.000   22.305555933  114.190701260     5.5320   2   7   0.4216   0.5190   1.1232   0.2596   0.2688   0.5053   0.00    0.0
2158 456450.000   22.305564384  114.190780023     6.2775   2   7   0.4499   0.7479   1.5034   0.4082   0.7887   0.6601   0.00    0.0
2158 456449.000   22.305547041  114.190790650     6.9600   2   7   0.4042   0.5454   1.1913   0.2798   0.3991   0.5215   0.00    0.0
2158 456448.000   22.305535953  114.190793702     7.2177   2   6   0.3961   0.5329   1.1694   0.2820   0.3536   0.4865   0.00    0.0
2158 456447.000   22.305525160  114.190801688     7.8097   2   5   0.3855   0.5209   1.1510   0.2782   0.3528   0.4717   0.00    0.0
2158 456446.000   22.305499733  114.190817130     7.4209   2   5   0.3788   0.5127   1.1311   0.2786   0.3565   0.4636   0.00    0.0
2158 456445.000   22.305465503  114.190843879     6.6981   2   4   0.4795   0.6013   1.5772   0.4203  -0.4874  -0.3658   0.00    0.0
2158 456444.000   22.305434321  114.190891768     3.8525   2   4   0.7041   0.8182   2.4594   0.6856  -1.1545  -1.0674   0.00    0.0
2158 456443.000   22.305390851  114.190927886     7.5926   2   4   0.7055   0.7990   2.4281   0.6799  -1.1291  -1.0665   0.00    0.0
2158 456442.000   22.305366173  114.190988214     4.9470   2   4   0.7968   0.8995   2.7736   0.7873  -1.3574  -1.2835   0.00    0.0
