% program   : RTKPOST demo5 b34k
% inp file  : C:\Users\owner\Downloads\AAE6102_Laboratory-main\GNSS Data\UrbanNav - Medium\20210521.medium-urban.whampoa.ublox.f9p.obs
% inp file  : C:\Users\owner\Downloads\2025-Apr-14_112045\2025-Apr-14_112045\r3_1s_1h_hksc141g.2021\hksc141g.21o
% inp file  : C:\Users\owner\Downloads\2025-Apr-14_112045\2025-Apr-14_112045\r3_1s_1h_hksc141g.2021\hksc141g.21g
% obs start : 2021/05/21 06:29:02.0 GPST (week2158 455342.0s)
% obs end   : 2021/05/21 06:54:39.0 GPST (week2158 456879.0s)
% pos mode  : Kinematic
% freqs     : L1+L2/E5b
% solution  : Combined-No Phase Reset
% elev mask : 15.0 deg
% dynamics  : on
% tidecorr  : off
% ionos opt : Broadcast
% tropo opt : Saastamoinen
% ephemeris : Broadcast
% navi sys  : GPS GLONASS Galileo
% amb res   : Fix and Hold
% amb glo   : Fix and Hold
% val thres : 3.0
% antenna1  :                       ( 0.0000  0.0000  0.0000)
% antenna2  :                       ( 0.0000  0.0000  0.0000)
% ref pos   : 22.322172082  114.141187963    20.2386
%
% (lat/lon/height=WGS84/ellipsoidal,Q=1:fix,2:float,3:sbas,4:dgps,5:single,6:ppp,ns=# of satellites)
%  GPST                  latitude(deg) longitude(deg)  height(m)   Q  ns   sdn(m)   sde(m)   sdu(m)  sdne(m)  sdeu(m)  sdun(m) age(s)  ratio
2021/05/21 06:29:02.004   22.301555926  114.190290266     4.7410   4   3   0.4031   0.7455   1.8859   0.3933   0.8870   0.3851   0.00    0.0
2021/05/21 06:29:03.004   22.301556060  114.190290511     4.7577   2   4   0.3989   0.6428   1.6554   0.3646   0.6683   0.3101   0.00    0.0
2021/05/21 06:29:04.004   22.301556050  114.190290474     4.7076   2   4   0.3987   0.6409   1.6523   0.3638   0.6651   0.3084   0.00    0.0
2021/05/21 06:29:05.004   22.301556058  114.190290360     4.6799   2   4   0.3983   0.6354   1.6435   0.3618   0.6547   0.3038   0.00    0.0
2021/05/21 06:29:06.004   22.301556127  114.190290822     4.6134   2   4   0.3983   0.6353   1.6433   0.3617   0.6550   0.3036   0.00    0.0
2021/05/21 06:29:07.004   22.301556339  114.190291634     4.5984   2   4   0.3984   0.6386   1.6485   0.3626   0.6619   0.3061   0.00    0.0
2021/05/21 06:29:08.004   22.301556766  114.190288495     4.7064   2   4   0.3996   0.6626   1.6849   0.3704   0.7074   0.3240   0.00    0.0
2021/05/21 06:29:09.004   22.301556581  114.190276179     3.3723   4   3   0.4099   0.9652   2.4754   0.4486   1.3319   0.5206   0.00    0.0
2021/05/21 06:29:10.004   22.301556854  114.190264884     3.0920   4   3   0.4245   1.2038   2.9975   0.5296   1.7293   0.6761   0.00    0.0
2021/05/21 06:29:11.004   22.301560240  114.190251101     2.8125   4   3   0.4432   1.4617   3.5700   0.6215   2.1444   0.8391   0.00    0.0
2021/05/21 06:29:12.004   22.301568952  114.190240487     2.7116   4   3   0.4461   1.4908   3.6205   0.6335   2.1855   0.8578   0.00    0.0
2021/05/21 06:29:13.004   22.301581770  114.190240291     4.2805   4   3   0.4284   1.2167   2.9515   0.5423   1.7232   0.6885   0.00    0.0
2021/05/21 06:29:14.004   22.301594834  114.190235710     5.1319   4   3   0.4096   0.8334   1.9964   0.4264   1.0202   0.4447   0.00    0.0
2021/05/21 06:29:15.004   22.301608312  114.190225699     4.6633   2   4   0.3990   0.6547   1.6740   0.3668   0.6961   0.3170   0.00    0.0
2021/05/21 06:29:16.004   22.301623773  114.190216345     4.4812   2   4   0.3994   0.6792   1.7365   0.3719   0.7548   0.3330   0.00    0.0
2021/05/21 06:29:17.004   22.301645728  114.190204609     4.1117   4   3   0.4004   0.7055   1.8491   0.3767   0.8264   0.3416   0.00    0.0
2021/05/21 06:29:18.004   22.301673990  114.190187895     3.3426   4   3   0.4258   1.2179   3.0215   0.5334   1.7462   0.6751   0.00    0.0
2021/05/21 06:29:19.004   22.301709092  114.190176371     4.2900   4   3   0.4481   1.5105   3.6598   0.6387   2.2107   0.8580   0.00    0.0
2021/05/21 06:29:20.004   22.301747826  114.190161104     5.2695   4   3   0.4644   1.6027   3.8133   0.6837   2.3249   0.9055   0.00    0.0
2021/05/21 06:29:21.004   22.301792171  114.190147521     6.2161   4   3   0.4481   1.5891   3.8278   0.6619   2.3479   0.9216   0.00    0.0
2021/05/21 06:29:22.004   22.301839807  114.190127560     6.8874   4   3   0.4472   1.5858   3.8293   0.6591   2.3457   0.9176   0.00    0.0
2021/05/21 06:29:23.004   22.301890079  114.190100286     6.3299   4   3   0.4464   1.5851   3.8356   0.6570   2.3474   0.9152   0.00    0.0
2021/05/21 06:29:24.004   22.301943111  114.190072924     6.0617   4   3   0.4452   1.5769   3.8186   0.6528   2.3351   0.9083   0.00    0.0
2021/05/21 06:29:25.004   22.301994342  114.190036320     3.6465   4   3   0.3902   0.6453   1.8068   0.3425   0.7802   0.3170   0.00    0.0
2021/05/21 06:29:26.004   22.302045794  114.190010857     3.4328   4   3   0.4269   1.2793   3.1083   0.5543   1.8416   0.7274   0.00    0.0
2021/05/21 06:29:27.004   22.302098845  114.189996135     4.1139   4   2   0.7078   1.8252   4.1275   0.9673   1.9735  -0.2679   0.00    0.0
2021/05/21 06:29:28.004   22.302146738  114.189976422     5.9336   4   2   0.8104   1.9212   4.5505   1.0702   1.8127  -0.8507   0.00    0.0
2021/05/21 06:29:29.004   22.302187194  114.189941502     7.9532   4   2   0.8143   1.9061   4.5297   1.0682   1.7564  -0.8929   0.00    0.0
2021/05/21 06:29:30.004   22.302225219  114.189894970     4.7868   4   3   0.8124   1.6395   1.9224   1.0943  -0.9515  -0.7489   0.00    0.0
2021/05/21 06:29:31.004   22.302256567  114.189857914     6.0472   4   2   0.8099   1.8156   3.2154   1.1019   1.0906  -0.6721   0.00    0.0
2021/05/21 06:29:32.004   22.302279080  114.189823725     7.7956   4   2   0.7521   1.7684   4.3307   0.9662   1.7963  -0.7639   0.00    0.0
2021/05/21 06:29:33.004   22.302291946  114.189788337     7.7490   4   3   0.5600   1.4038   4.5466   0.5968   2.0640  -0.6229   0.00    0.0
2021/05/21 06:29:34.004   22.302288734  114.189737264     7.7331   4   3   0.6495   1.5080   4.4407   0.7508   1.8962  -0.7453   0.00    0.0
2021/05/21 06:29:35.004   22.302286379  114.189711789     6.3208   4   3   0.4364   1.1291   3.9199   0.3983   1.8735  -0.2275   0.00    0.0
2021/05/21 06:29:36.004   22.302267425  114.189667981     4.6467   2   4   0.4291   1.0169   3.3892   0.4161   1.6139   0.2333   0.00    0.0
2021/05/21 06:29:37.004   22.302246082  114.189627214     2.9034   2   4   0.4276   1.0099   3.2943   0.4304   1.5815   0.3278   0.00    0.0
2021/05/21 06:29:38.004   22.302223367  114.189592931     3.8082   2   4   0.4265   0.9610   3.0665   0.4292   1.4592   0.3272   0.00    0.0
2021/05/21 06:29:39.004   22.302201437  114.189559201     4.3443   2   4   0.4266   0.9583   3.0563   0.4289   1.4528   0.3241   0.00    0.0
2021/05/21 06:29:40.004   22.302180471  114.189526394     4.2825   2   4   0.4257   0.9569   3.0407   0.4283   1.4474   0.3260   0.00    0.0
2021/05/21 06:29:41.004   22.302160615  114.189499089     5.4532   2   4   0.4256   0.9538   3.0285   0.4285   1.4402   0.3273   0.00    0.0
2021/05/21 06:29:42.004   22.302142655  114.189479038     8.1484   2   4   0.4258   0.9349   2.9476   0.4264   1.3936   0.3147   0.00    0.0
2021/05/21 06:29:43.004   22.302124134  114.189459374    10.7843   2   4   0.4260   0.9162   2.8882   0.4208   1.3519   0.2800   0.00    0.0
2021/05/21 06:29:44.004   22.302105339  114.189443744    14.3800   4   3   0.4270   0.9191   2.8619   0.4220   1.3439   0.2709   0.00    0.0
2021/05/21 06:29:45.004   22.302088207  114.189428144    16.7241   4   2   0.7312   1.7620   3.0309   1.0272   1.4468   0.2833   0.00    0.0
2021/05/21 06:29:46.004   22.302062765  114.189377483    16.0475   4   2   0.4695   1.4839   3.8764   0.6291   2.1796   0.7145   0.00    0.0
2021/05/21 06:29:47.004   22.302040684  114.189298576     5.3658   4   2   0.7666   2.0978   4.8273   1.0748   2.4093  -0.1584   0.00    0.0
2021/05/21 06:29:48.004   22.302031938  114.189245347    -0.7038   4   3   0.4292   1.4710   5.6112   0.2798   2.7107  -0.5710   0.00    0.0
2021/05/21 06:29:49.004   22.302025511  114.189180693    -4.1073   4   0   1.4924   2.1432   6.1990   1.0737   2.7596   1.3182   0.00    0.0
2021/05/21 06:29:50.004   22.302032453  114.189135127    -6.6006   4   0   1.6454   2.2623   6.4241   1.2183   2.8572   1.6278   0.00    0.0
2021/05/21 06:29:51.004   22.302054403  114.189087292    -6.5223   4   0   1.6469   2.2683   6.4740   1.2221   2.8889   1.6492   0.00    0.0
2021/05/21 06:29:52.004   22.302056291  114.188991251   -14.3126   4   0   1.6671   2.5487   7.3601   1.3095   3.5212   1.8171   0.00    0.0
2021/05/21 06:29:53.004   22.302061981  114.188934141   -13.7596   4   0   1.9858   2.6159   7.5144   1.4850   3.6109   1.8749   0.00    0.0
2021/05/21 06:29:54.004   22.302103217  114.188940789     2.8904   4   0   2.0066   2.1650   6.0055   1.3866   2.5138   1.5769   0.00    0.0
2021/05/21 06:29:55.004   22.302162367  114.188904718     2.1456   4   0   2.6543   2.1988   5.7420   1.6876   2.3647   1.4210   0.00    0.0
2021/05/21 06:29:56.004   22.302213543  114.188877745    -2.9609   4   0   2.3836   2.0453   5.5077   1.3886   2.5324   1.8245   0.00    0.0
2021/05/21 06:29:57.004   22.302170519  114.188803040   -11.2295   4   0   1.5579   1.8466   5.0903   0.9575   2.2017   1.6064   0.00    0.0
2021/05/21 06:29:58.004   22.302182955  114.188771096   -14.0553   4   0   1.5234   1.8112   4.9424   0.9135   2.1258   1.5811   0.00    0.0
2021/05/21 06:29:59.004   22.302193498  114.188752739   -12.4990   4   0   1.5302   1.7982   4.8367   0.9103   2.0545   1.5163   0.00    0.0
2021/05/21 06:30:00.004   22.302206510  114.188745676    -6.1135   4   0   1.4144   1.7843   4.5523   0.8802   1.9621   1.2457   0.00    0.0
2021/05/21 06:30:01.004   22.302207295  114.188724968     2.3786   4   3   0.7024   1.7392   3.7724   0.9362   1.7589  -0.4304   0.00    0.0
2021/05/21 06:30:02.004   22.302204008  114.188723350     4.7230   4   3   0.4064   1.5256   3.6041   0.5947   2.2778   0.9113   0.00    0.0
2021/05/21 06:30:03.004   22.302194080  114.188720673     6.5561   4   3   0.3946   1.3301   3.1893   0.5336   1.9819   0.8199   0.00    0.0
2021/05/21 06:30:04.004   22.302183590  114.188721752     7.9255   4   3   0.3696   0.9212   2.3310   0.3909   1.3575   0.6114   0.00    0.0
2021/05/21 06:30:05.004   22.302178348  114.188716003     6.8125   2   4   0.3571   0.6292   1.7475   0.2987   0.8990   0.4773   0.00    0.0
2021/05/21 06:30:06.004   22.302178355  114.188715475     6.6819   2   4   0.3569   0.6280   1.7299   0.2979   0.8911   0.4745   0.00    0.0
2021/05/21 06:30:07.004   22.302177976  114.188711842     5.7956   2   4   0.3514   0.4571   1.4159   0.2497   0.6061   0.4048   0.00    0.0
2021/05/21 06:30:08.004   22.302177969  114.188712126     5.7600   2   4   0.3513   0.4554   1.4131   0.2493   0.6039   0.4042   0.00    0.0
2021/05/21 06:30:09.004   22.302177944  114.188711860     5.7198   2   4   0.3512   0.4547   1.4099   0.2489   0.6019   0.4034   0.00    0.0
2021/05/21 06:30:10.004   22.302177884  114.188711737     5.6879   2   4   0.3511   0.4543   1.4075   0.2486   0.6005   0.4028   0.00    0.0
2021/05/21 06:30:11.004   22.302177673  114.188711445     5.7281   2   4   0.3508   0.4538   1.4047   0.2480   0.5998   0.4028   0.00    0.0
2021/05/21 06:30:12.004   22.302177562  114.188711220     5.7567   2   4   0.3509   0.4554   1.4092   0.2486   0.6035   0.4039   0.00    0.0
2021/05/21 06:30:13.004   22.302177358  114.188711016     5.7933   2   4   0.3508   0.4551   1.4069   0.2483   0.6023   0.4034   0.00    0.0
2021/05/21 06:30:14.004   22.302177769  114.188711329     5.6077   2   4   0.3507   0.4530   1.3986   0.2475   0.5959   0.4005   0.00    0.0
2021/05/21 06:30:15.004   22.302177818  114.188711480     5.6541   2   4   0.3506   0.4526   1.3964   0.2472   0.5947   0.3999   0.00    0.0
2021/05/21 06:30:16.004   22.302177866  114.188711628     5.7373   2   4   0.3505   0.4523   1.3942   0.2469   0.5935   0.3994   0.00    0.0
2021/05/21 06:30:17.004   22.302177835  114.188711557     5.7068   2   4   0.3504   0.4520   1.3921   0.2466   0.5924   0.3988   0.00    0.0
2021/05/21 06:30:18.004   22.302177872  114.188711649     5.7608   2   4   0.3503   0.4517   1.3899   0.2463   0.5913   0.3983   0.00    0.0
2021/05/21 06:30:19.004   22.302177861  114.188711767     5.7933   2   4   0.3502   0.4514   1.3878   0.2460   0.5902   0.3977   0.00    0.0
2021/05/21 06:30:20.004   22.302177850  114.188711551     5.7390   2   4   0.3500   0.4509   1.3847   0.2457   0.5889   0.3968   0.00    0.0
2021/05/21 06:30:21.004   22.302177858  114.188711576     5.7466   2   4   0.3500   0.4507   1.3835   0.2455   0.5882   0.3965   0.00    0.0
2021/05/21 06:30:22.004   22.302177884  114.188711588     5.7457   2   4   0.3499   0.4504   1.3815   0.2453   0.5872   0.3960   0.00    0.0
2021/05/21 06:30:23.004   22.302177839  114.188711626     5.7727   2   4   0.3498   0.4501   1.3795   0.2450   0.5862   0.3955   0.00    0.0
2021/05/21 06:30:24.004   22.302177835  114.188711545     5.7216   2   4   0.3496   0.4497   1.3766   0.2446   0.5847   0.3946   0.00    0.0
2021/05/21 06:30:25.004   22.302177856  114.188711827     5.8305   2   4   0.3495   0.4495   1.3747   0.2444   0.5837   0.3941   0.00    0.0
2021/05/21 06:30:26.004   22.302177774  114.188711457     5.7010   2   4   0.3494   0.4492   1.3727   0.2441   0.5827   0.3936   0.00    0.0
2021/05/21 06:30:27.004   22.302177762  114.188711391     5.6870   2   4   0.3494   0.4491   1.3718   0.2439   0.5822   0.3934   0.00    0.0
2021/05/21 06:30:28.004   22.302177811  114.188711480     5.7227   2   4   0.3493   0.4489   1.3702   0.2437   0.5814   0.3930   0.00    0.0
2021/05/21 06:30:29.004   22.302177699  114.188711105     5.5818   2   4   0.3492   0.4488   1.3693   0.2435   0.5810   0.3925   0.00    0.0
2021/05/21 06:30:30.004   22.302177869  114.188711515     5.7647   2   4   0.3496   0.4537   1.4028   0.2459   0.5982   0.3997   0.00    0.0
2021/05/21 06:30:31.004   22.302177666  114.188710847     5.4434   2   4   0.3489   0.4463   1.3514   0.2418   0.5709   0.3888   0.00    0.0
2021/05/21 06:30:32.004   22.302177603  114.188710646     5.3550   2   4   0.3488   0.4461   1.3497   0.2415   0.5701   0.3883   0.00    0.0
2021/05/21 06:30:33.004   22.302177562  114.188710931     5.4497   2   4   0.3487   0.4459   1.3480   0.2413   0.5693   0.3878   0.00    0.0
2021/05/21 06:30:34.004   22.302177556  114.188710644     5.3641   2   4   0.3486   0.4457   1.3464   0.2411   0.5684   0.3874   0.00    0.0
2021/05/21 06:30:35.004   22.302177574  114.188710801     5.4108   2   4   0.3485   0.4455   1.3448   0.2408   0.5676   0.3870   0.00    0.0
2021/05/21 06:30:36.004   22.302177494  114.188710776     5.4078   2   4   0.3484   0.4453   1.3432   0.2406   0.5669   0.3865   0.00    0.0
2021/05/21 06:30:37.004   22.302177511  114.188710630     5.3635   2   4   0.3483   0.4451   1.3416   0.2404   0.5661   0.3861   0.00    0.0
2021/05/21 06:30:38.004   22.302177510  114.188710615     5.3414   2   4   0.3483   0.4449   1.3401   0.2401   0.5653   0.3856   0.00    0.0
2021/05/21 06:30:39.004   22.302177581  114.188710724     5.2698   2   5   0.3480   0.4445   1.3369   0.2396   0.5655   0.3862   0.00    0.0
2021/05/21 06:30:40.004   22.302177405  114.188710428     5.2428   2   4   0.3481   0.4445   1.3365   0.2395   0.5644   0.3849   0.00    0.0
2021/05/21 06:30:41.004   22.302177348  114.188710217     5.1651   2   4   0.3480   0.4446   1.3348   0.2392   0.5634   0.3845   0.00    0.0
2021/05/21 06:30:42.004   22.302176396  114.188710216     5.2262   2   4   0.3481   0.4451   1.3385   0.2393   0.5642   0.3854   0.00    0.0
2021/05/21 06:30:43.004   22.302166120  114.188708560     5.3579   2   4   0.3487   0.4496   1.3636   0.2411   0.5752   0.3918   0.00    0.0
2021/05/21 06:30:44.004   22.302141643  114.188698905     4.8591   4   0   1.3788   1.5066   1.7459   0.6678   0.6914   0.4809   0.00    0.0
2021/05/21 06:30:45.004   22.302101861  114.188681938     3.0772   4   3   0.3901   1.6593   3.1015   0.3018   1.2434   0.7896   0.00    0.0
2021/05/21 06:30:46.004   22.302048938  114.188648237    -0.3920   4   0   1.4884   1.7901   4.3621   0.8913   1.7567   1.2327   0.00    0.0
2021/05/21 06:30:47.004   22.301990136  114.188615709    -3.5087   4   0   1.5658   1.8551   4.9580   0.9822   2.0264   1.4276   0.00    0.0
2021/05/21 06:30:48.004   22.301924197  114.188569225    -8.9215   4   0   1.5713   2.1009   5.7665   1.0515   2.6385   1.5777   0.00    0.0
2021/05/21 06:30:49.004   22.301864563  114.188534903    -3.8638   4   0   1.5713   1.8700   5.1294   0.9948   2.0981   1.4752   0.00    0.0
2021/05/21 06:30:50.004   22.301804178  114.188490651     0.0510   4   0   1.5706   1.8541   5.0498   0.9867   2.0420   1.4554   0.00    0.0
2021/05/21 06:30:51.004   22.301764904  114.188445243     6.2351   4   0   1.5699   1.8533   5.0344   0.9851   2.0367   1.4496   0.00    0.0
2021/05/21 06:30:52.004   22.301722618  114.188421432    15.1716   4   0   1.5703   1.8544   5.0479   0.9862   2.0426   1.4530   0.00    0.0
2021/05/21 06:30:53.004   22.301683987  114.188394936    20.7616   4   0   1.5716   1.8588   5.0865   0.9892   2.0558   1.4658   0.00    0.0
2021/05/21 06:30:54.004   22.301649869  114.188338586    21.2352   4   0   1.5727   1.8773   5.2177   0.9993   2.1294   1.4974   0.00    0.0
2021/05/21 06:30:55.004   22.301592643  114.188235242     7.5619   4   2   1.5433   2.1769   6.1259   1.0806   2.8167   1.5974   0.00    0.0
2021/05/21 06:30:56.004   22.301542027  114.188192326    -0.7931   4   0   1.6106   2.8218   6.4060   1.0384   2.9026   1.6669   0.00    0.0
2021/05/21 06:30:57.004   22.301474073  114.188154351   -13.9045   4   0   1.5942   2.5541   6.4335   1.0324   3.0537   1.7304   0.00    0.0
2021/05/21 06:30:58.004   22.301442228  114.188048396   -28.2161   4   0   1.6003   2.7569   6.4502   0.9639   3.0153   1.7436   0.00    0.0
2021/05/21 06:30:59.004   22.301433989  114.187899850   -37.5062   4   0   1.6110   2.5560   6.5002   1.1003   2.9060   1.7007   0.00    0.0
2021/05/21 06:31:00.004   22.301432402  114.187887001   -39.3146   4   0   1.6119   2.5846   6.5279   1.1043   2.8728   1.6790   0.00    0.0
2021/05/21 06:31:01.004   22.301438990  114.187983534   -36.7257   4   0   1.6333   3.0400   6.5236   1.1437   2.7209   1.5986   0.00    0.0
2021/05/21 06:31:02.004   22.301442544  114.187893299   -28.0882   4   0   1.7221   2.8477   6.2845   1.0256   2.7384   1.5788   0.00    0.0
2021/05/21 06:31:03.004   22.301453433  114.187854823   -25.4205   4   0   1.8740   2.5913   5.4833   1.2238   1.8510   1.5657   0.00    0.0
2021/05/21 06:31:04.004   22.301471607  114.187883335   -14.6540   4   0   1.8919   2.8926   6.0364   1.2568   2.5874   1.5678   0.00    0.0
2021/05/21 06:31:05.004   22.301460428  114.187647705    -3.0804   4   0   1.8930   3.2392   5.4254   1.3485   1.1564   1.4809   0.00    0.0
2021/05/21 06:31:06.004   22.301465430  114.187605102    10.7416   4   0   1.8955   3.3770   5.4895   1.3957   0.8869   1.4701   0.00    0.0
2021/05/21 06:31:07.004   22.301452170  114.187578021    15.7067   4   0   2.2599   4.5266   8.7768   0.9795   4.0496   2.3627   0.00    0.0
2021/05/21 06:31:08.004   22.301479480  114.187572644    27.9239   4   0   2.1532   3.9883   8.0366  -0.2799   3.9445   2.4924   0.00    0.0
2021/05/21 06:31:09.004   22.301522150  114.187594174    45.5836   4   2   1.3958   2.0169   5.3487   0.3967   2.3673   1.9249   0.00    0.0
2021/05/21 06:31:10.004   22.301549533  114.187620394    60.2860   4   2   1.3724   1.9427   5.0674   0.1895   2.1984   1.7885   0.00    0.0
2021/05/21 06:31:11.004   22.301600244  114.187621394    75.2122   4   2   1.6248   2.0221   5.2688  -0.5803   2.2135   2.0057   0.00    0.0
2021/05/21 06:31:12.004   22.301618906  114.187628962    83.8369   4   2   1.6369   2.0569   5.3722  -0.5362   2.2405   2.0767   0.00    0.0
2021/05/21 06:31:13.004   22.301631238  114.187617151    84.7979   4   2   1.7621   2.3002   5.3714  -0.8797   2.1494   2.1952   0.00    0.0
2021/05/21 06:31:14.004   22.301636273  114.187569196    77.8351   4   2   1.9258   2.6683   5.3062  -1.4173   1.9465   2.2898   0.00    0.0
2021/05/21 06:31:15.004   22.301629552  114.187534692    68.3923   4   2   1.9332   2.7100   5.2076  -1.5083   1.9192   2.2786   0.00    0.0
2021/05/21 06:31:16.004   22.301626287  114.187573415    58.9232   4   0   2.0324   2.8089   5.3293  -1.1225   1.6980   2.0244   0.00    0.0
2021/05/21 06:31:17.004   22.301583517  114.187764664    46.3593   4   0   2.0125   2.5723   5.7780   0.8246   1.8040   1.7239   0.00    0.0
2021/05/21 06:31:18.004   22.301648243  114.187618109    52.4179   4   0   2.9776   4.5351   8.7282  -1.0745   3.3733   2.9708   0.00    0.0
2021/05/21 06:31:19.004   22.301638384  114.187591237    52.1102   4   0   3.0134   5.5280   9.5550  -0.4233   2.8678   3.1003   0.00    0.0
2021/05/21 06:31:20.004   22.301474496  114.187777849    33.2072   4   0   2.1163   4.1873   6.8677  -0.7255   1.8746   1.9948   0.00    0.0
2021/05/21 06:31:21.004   22.301479078  114.187809129    30.7764   4   0   2.1138   3.7250   6.7184  -0.8264   2.5004   2.0239   0.00    0.0
2021/05/21 06:31:22.004   22.301462016  114.187832797    28.7983   4   0   2.1258   4.0328   6.7569  -0.6181   2.2135   1.9474   0.00    0.0
2021/05/21 06:31:23.004   22.301286975  114.187953413    18.2960   4   0   3.9085   4.6058   9.3306   0.4348   4.2619   1.8033   0.00    0.0
2021/05/21 06:31:24.004   22.301465750  114.187968642    23.1392   4   0   3.8252   3.7216   9.6540   1.8792   4.6119   3.0824   0.00    0.0
2021/05/21 06:31:25.004   22.301680637  114.188025712    36.7125   4   0   2.1176   3.3010   7.8387   1.4576   3.4285   2.3078   0.00    0.0
2021/05/21 06:31:26.004   22.301746117  114.188104248    46.8726   4   0   2.0225   3.7991  10.1214   1.7856   5.5536   2.9562   0.00    0.0
2021/05/21 06:31:27.004   22.301761874  114.188145187    46.5468   4   0   2.1032   3.3608   7.0008   0.0877   3.1490   2.2999   0.00    0.0
2021/05/21 06:31:28.004   22.301676940  114.188169245    43.5447   4   0   1.8122   3.1665   6.5741   0.4360   3.1145   2.0044   0.00    0.0
2021/05/21 06:31:29.004   22.301665351  114.188208445    44.3878   4   0   1.8069   3.0473   6.4526   0.4976   3.2009   1.9740   0.00    0.0
2021/05/21 06:31:30.004   22.301669707  114.188262294    47.1947   4   0   1.8082   3.1640   6.4498   0.6162   3.1607   1.9586   0.00    0.0
2021/05/21 06:31:31.004   22.301668496  114.188347691    49.5196   4   0   1.6147   3.1754   6.4060   0.7090   3.1730   1.8063   0.00    0.0
2021/05/21 06:31:32.004   22.301692536  114.188434815    53.3017   4   0   1.4618   3.0164   6.2927   0.8474   3.3288   1.5831   0.00    0.0
2021/05/21 06:31:33.004   22.301720906  114.188480961    60.5502   4   2   1.0206   2.9155   6.1671   1.2375   3.5089   1.0508   0.00    0.0
2021/05/21 06:31:34.004   22.301736507  114.188521167    65.5719   4   2   1.0101   2.9180   6.2240   1.2611   3.5141   1.1058   0.00    0.0
2021/05/21 06:31:35.004   22.301742880  114.188534988    66.5931   4   2   1.0846   3.0664   6.3693   1.4033   3.4506   0.9610   0.00    0.0
2021/05/21 06:31:36.004   22.301748888  114.188557508    68.9608   4   2   1.0896   3.0952   6.4866   1.4134   3.5066   0.9571   0.00    0.0
2021/05/21 06:31:37.004   22.301758730  114.188574888    72.8405   4   2   1.1548   3.1713   6.5967   1.3728   3.5484   0.9975   0.00    0.0
2021/05/21 06:31:38.004   22.301750738  114.188565655    74.9561   4   2   1.2807   3.5880   6.6965   1.7441   3.3546   0.6778   0.00    0.0
2021/05/21 06:31:39.004   22.301755375  114.188585601    77.4784   4   2   1.2982   3.6789   6.8473   1.7931   3.4257   0.6217   0.00    0.0
2021/05/21 06:31:40.004   22.301758093  114.188597848    78.9823   4   2   1.4446   6.0435  12.3286   2.5049   7.8117   2.6448   0.00    0.0
2021/05/21 06:31:41.004   22.301759795  114.188601243    78.6274   4   2   1.5552   7.8093  16.5105   3.0285  10.7572   3.6909   0.00    0.0
2021/05/21 06:31:42.004   22.301760146  114.188595684    76.6029   4   2   1.6863   9.2834  19.9816   3.4875  13.0971   4.4475   0.00    0.0
2021/05/21 06:31:43.004   22.301746807  114.188573541    80.9326   4   2   1.9048  13.6608  30.7550   4.7411  20.3355   6.9267   0.00    0.0
2021/05/21 06:31:44.004   22.301773828  114.188538573    78.9928   4   3   1.5080  12.6799  28.8437   4.2805  19.0712   6.4202   0.00    0.0
2021/05/21 06:31:45.004   22.301774666  114.188546501    80.8168   4   3   1.0871   8.7676  19.8665   2.9578  13.1212   4.4005   0.00    0.0
2021/05/21 06:31:46.004   22.301772436  114.188531533    78.3034   4   3   1.0758   8.7138  19.7984   2.9312  13.0605   4.3691   0.00    0.0
2021/05/21 06:31:47.004   22.301731969  114.188245232    23.4480   4   3   1.6032  13.2158  30.3982   4.4229  19.9451   6.5577   0.00    0.0
2021/05/21 06:31:48.004   22.301703508  114.187988245   -36.6443   4   2   1.8209  14.5656  33.2535   4.9293  21.8710   7.2138   0.00    0.0
2021/05/21 06:31:49.004   22.301703897  114.187881292   -72.1722   4   3   1.5800  13.5637  30.8358   4.5427  20.4039   6.8198   0.00    0.0
2021/05/21 06:31:50.004   22.301736379  114.188176476    -6.8923   4   2   1.6041   9.1623  19.9471   3.4237  13.0608   4.2383   0.00    0.0
2021/05/21 06:31:51.004   22.301734633  114.188170015    -6.8578   4   3   1.0786   8.8115  19.9129   2.9535  13.1728   4.3928   0.00    0.0
2021/05/21 06:31:52.004   22.301746058  114.188279261    18.8002   4   3   1.4814  12.7073  28.8372   4.2454  19.0920   6.3630   0.00    0.0
2021/05/21 06:31:53.004   22.301737833  114.188168433   -10.0425   4   2   1.7239  13.5659  30.5585   4.6296  20.2187   6.7216   0.00    0.0
2021/05/21 06:31:54.004   22.301741729  114.188237654     9.2936   4   3   1.0694   8.7545  19.8145   2.9260  13.0953   4.3507   0.00    0.0
2021/05/21 06:31:55.004   22.301738068  114.188201044     0.7336   4   3   0.9138   7.1880  16.2528   2.4052  10.7167   3.5540   0.00    0.0
2021/05/21 06:31:56.004   22.301737359  114.188196664    -0.3214   4   3   0.7415   5.3249  12.0134   1.7907   7.8736   2.6050   0.00    0.0
2021/05/21 06:31:57.004   22.301739984  114.188221180     5.3560   4   3   0.5560   2.8902   6.4173   1.0064   4.0713   1.3431   0.00    0.0
2021/05/21 06:31:58.004   22.301744854  114.188270402    16.9180   4   3   0.5511   2.8246   6.2838   0.9837   3.9721   1.3067   0.00    0.0
2021/05/21 06:31:59.004   22.301749578  114.188318847    28.3375   4   3   0.5498   2.8110   6.2538   0.9780   3.9509   1.2970   0.00    0.0
2021/05/21 06:32:00.004   22.301753384  114.188354631    36.3898   4   3   0.5496   2.7780   6.1635   0.9699   3.8909   1.2776   0.00    0.0
2021/05/21 06:32:01.004   22.301756194  114.188378563    41.7152   4   3   0.5581   2.7735   6.0911   0.9824   3.8572   1.2805   0.00    0.0
2021/05/21 06:32:02.004   22.301758053  114.188398010    46.2526   4   3   0.5507   2.7516   6.0480   0.9696   3.8309   1.2733   0.00    0.0
2021/05/21 06:32:03.004   22.301757456  114.188409276    50.1673   4   3   0.5414   2.7405   6.0452   0.9573   3.8312   1.2761   0.00    0.0
2021/05/21 06:32:04.004   22.301731209  114.188352572    55.0931   4   2   0.8304   2.9534   6.1482   1.2716   3.6906   1.0043   0.00    0.0
2021/05/21 06:32:05.004   22.301705967  114.188299442    61.7431   4   3   0.8060   2.8517   6.2310   1.1875   3.7229   0.9613   0.00    0.0
2021/05/21 06:32:06.004   22.301768424  114.188350418    64.6656   4   0   1.4416   3.1164   6.5416   0.9391   3.4645   1.5115   0.00    0.0
2021/05/21 06:32:07.004   22.301809931  114.188424959    65.5445   4   0   1.1572   3.1955   6.5008   1.3586   3.5656   0.9522   0.00    0.0
2021/05/21 06:32:08.004   22.301855912  114.188485271    66.8350   4   0   1.6296   3.3933   6.9005   0.7947   3.1997   1.8495   0.00    0.0
2021/05/21 06:32:09.004   22.301894267  114.188539421    67.0085   4   0   1.6286   3.2359   6.6419   0.6850   3.2481   1.8183   0.00    0.0
2021/05/21 06:32:10.004   22.301941098  114.188593896    67.2740   4   0   1.6215   3.1784   6.4119   0.6396   3.1429   1.7548   0.00    0.0
2021/05/21 06:32:11.004   22.301992228  114.188649226    69.4256   4   0   1.6528   3.4730   6.9985   0.7981   3.2672   1.8617   0.00    0.0
2021/05/21 06:32:12.004   22.302060566  114.188756861    69.7418   4   0   1.6206   4.1550   8.5548   1.0761   4.8264   2.0984   0.00    0.0
2021/05/21 06:32:13.004   22.302114121  114.188763131    71.9575   4   0   1.6127   6.0217  12.9165   1.5367   8.2413   2.8254   0.00    0.0
2021/05/21 06:32:14.004   22.302175088  114.188742007    72.8947   4   0   1.4016   7.5429  17.4939   2.1314  11.2607   3.7092   0.00    0.0
2021/05/21 06:32:15.004   22.302231013  114.188773609    75.5410   4   2   1.2196   7.6930  19.0515   2.6367  11.9532   4.2060   0.00    0.0
2021/05/21 06:32:16.004   22.302280310  114.188766343    65.1476   4   3   1.1059   5.5042  15.6358   2.0646   9.0666   3.5110   0.00    0.0
2021/05/21 06:32:17.004   22.302318989  114.188688477    45.4300   4   2   1.0959   5.1759  15.0059   2.0019   8.6369   3.4252   0.00    0.0
2021/05/21 06:32:18.004   22.302348667  114.188584254    15.5189   4   3   1.0701   4.6657  13.9852   1.8635   7.9043   3.2304   0.00    0.0
2021/05/21 06:32:19.004   22.302387913  114.188638627    24.9774   4   3   1.0539   4.5141  13.2925   1.7847   7.5254   3.0785   0.00    0.0
2021/05/21 06:32:20.004   22.302408552  114.188608071    17.5827   4   3   1.0287   4.2029  12.4627   1.6356   7.0338   2.8090   0.00    0.0
2021/05/21 06:32:21.004   22.302422752  114.188605030    15.3238   4   0   1.3892   4.1762  12.7895   1.8386   7.0889   3.5374   0.00    0.0
2021/05/21 06:32:22.004   22.302429894  114.188596687    10.3955   4   0   1.6806   4.2125  14.2141   1.8955   7.3675   3.4518   0.00    0.0
2021/05/21 06:32:23.004   22.302435811  114.188589430     5.9822   4   0   1.7379   4.3286  15.1631   1.9113   7.6863   3.3535   0.00    0.0
2021/05/21 06:32:24.004   22.302436758  114.188579984     5.2049   4   0   1.7047   4.4882  15.5564   2.0028   8.0000   3.6828   0.00    0.0
2021/05/21 06:32:25.004   22.302440434  114.188609823    18.0142   4   0   1.5081   3.7915  12.4988   1.7654   6.6455   3.6360   0.00    0.0
2021/05/21 06:32:26.004   22.302441117  114.188619495    20.2121   4   2   1.5364   3.1850  11.4136   1.6370   5.8151   3.4874   0.00    0.0
2021/05/21 06:32:27.004   22.302439912  114.188614426    18.8546   4   3   0.8596   3.6363  13.0598   1.3848   6.7601   2.6485   0.00    0.0
2021/05/21 06:32:28.004   22.302441669  114.188612867    17.3359   4   0   1.5776   4.0887  14.9141   1.5659   7.4554   2.8100   0.00    0.0
2021/05/21 06:32:29.004   22.302444233  114.188617815    22.2064   4   2   1.5851   4.0230  15.9360   1.5198   7.8451   3.1975   0.00    0.0
2021/05/21 06:32:30.004   22.302456986  114.188648336    30.0593   4   0   1.7208   4.5368  16.6592   1.9235   8.3337   3.5104   0.00    0.0
2021/05/21 06:32:31.004   22.302467759  114.188675862    37.6885   4   0   1.7647   4.7366  16.9932   2.0490   8.5867   3.6556   0.00    0.0
2021/05/21 06:32:32.004   22.302473735  114.188694309    43.4306   4   0   1.7681   4.7706  17.1047   2.0639   8.6530   3.6870   0.00    0.0
2021/05/21 06:32:33.004   22.302480624  114.188710219    49.5225   4   0   1.7669   4.7678  17.1385   2.0600   8.6569   3.6810   0.00    0.0
2021/05/21 06:32:34.004   22.302482214  114.188715046    53.5601   4   0   1.7651   4.7599  17.1416   2.0533   8.6482   3.6690   0.00    0.0
2021/05/21 06:32:35.004   22.302482265  114.188715367    55.1548   4   0   1.7637   4.7560  17.1388   2.0493   8.6435   3.6620   0.00    0.0
2021/05/21 06:32:36.004   22.302483345  114.188712657    55.1185   4   0   1.7631   4.7552  17.1388   2.0476   8.6427   3.6591   0.00    0.0
2021/05/21 06:32:37.004   22.302473438  114.188693137    45.8990   4   0   1.7626   4.7543  17.1388   2.0461   8.6418   3.6566   0.00    0.0
2021/05/21 06:32:38.004   22.302456943  114.188664599    31.6386   4   0   1.7618   4.7514  17.1328   2.0437   8.6373   3.6523   0.00    0.0
2021/05/21 06:32:39.004   22.302448351  114.188650935    25.9020   4   0   1.7608   4.7459  17.1165   2.0401   8.6274   3.6456   0.00    0.0
2021/05/21 06:32:40.004   22.302442335  114.188629683    20.8246   4   0   1.7596   4.7380  17.0897   2.0355   8.6122   3.6366   0.00    0.0
2021/05/21 06:32:41.004   22.302443556  114.188620685    19.8929   4   0   1.7582   4.7284  17.0555   2.0301   8.5934   3.6259   0.00    0.0
2021/05/21 06:32:42.004   22.302440664  114.188607772    19.4063   4   0   1.7567   4.7180  17.0184   2.0244   8.5729   3.6146   0.00    0.0
2021/05/21 06:32:43.004   22.302440304  114.188611762    22.0589   4   0   1.7553   4.7071  16.9786   2.0186   8.5513   3.6029   0.00    0.0
2021/05/21 06:32:44.004   22.302453139  114.188613963    21.2273   4   0   1.7535   4.6937  16.9246   2.0117   8.5233   3.5886   0.00    0.0
2021/05/21 06:32:45.004   22.302462290  114.188600945    16.1147   4   0   1.7506   4.6695  16.8230   1.9998   8.4717   3.5628   0.00    0.0
2021/05/21 06:32:46.004   22.302491544  114.188599032    16.2197   4   0   1.7446   4.6126  16.6041   1.9732   8.3549   3.5074   0.00    0.0
2021/05/21 06:32:47.004   22.302522658  114.188579314    11.6661   4   0   1.7321   4.4821  16.1421   1.9173   8.0975   3.3966   0.00    0.0
2021/05/21 06:32:48.004   22.302569583  114.188554911     4.5226   4   0   1.7138   4.2535  15.2813   1.8306   7.6303   3.2171   0.00    0.0
2021/05/21 06:32:49.004   22.302615953  114.188522827    -1.6532   4   0   1.6958   3.9955  13.9478   1.7299   7.0077   2.9703   0.00    0.0
2021/05/21 06:32:50.004   22.302663429  114.188490610    -6.9766   4   0   1.5440   3.7352  11.6671   1.5514   6.2287   2.5604   0.00    0.0
2021/05/21 06:32:51.004   22.302708958  114.188450241   -12.3938   4   3   0.9306   3.4321   9.5221   1.2362   5.5258   1.9556   0.00    0.0
2021/05/21 06:32:52.004   22.302763464  114.188404778   -19.0280   4   3   0.8989   2.9711   8.1493   1.1130   4.6727   1.7477   0.00    0.0
2021/05/21 06:32:53.004   22.302824532  114.188384991   -17.9301   4   2   1.0022   1.8875   5.2386   0.9882   2.0772   0.2071   0.00    0.0
2021/05/21 06:32:54.004   22.302879955  114.188367148    -8.5177   4   3   1.0594   1.8152   4.5613   1.0388   1.6352  -0.3688   0.00    0.0
2021/05/21 06:32:55.004   22.302942212  114.188351479    -4.1871   2   4   0.8679   1.6440   4.1838   0.7516   2.0555   0.9683   0.00    0.0
2021/05/21 06:32:56.004   22.302993797  114.188316687     3.4356   4   2   1.0880   2.1195   5.4072   1.0414   2.5465   0.3918   0.00    0.0
2021/05/21 06:32:57.004   22.303042997  114.188289277    14.0153   4   2   1.0871   2.1152   5.7536   1.0304   2.5617  -0.7196   0.00    0.0
2021/05/21 06:32:58.004   22.303099103  114.188215999    11.5437   4   0   1.5018   1.8985   5.4258   1.0238   2.0366   1.0614   0.00    0.0
2021/05/21 06:32:59.004   22.303147052  114.188163312    10.6507   4   0   1.6070   1.9985   5.8666   1.0693   2.3265   1.4046   0.00    0.0
2021/05/21 06:33:00.004   22.303194697  114.188099371     9.7027   4   0   1.6088   2.0050   5.9014   1.0749   2.3498   1.4207   0.00    0.0
2021/05/21 06:33:01.004   22.303249298  114.188023416     2.0016   4   0   1.6089   1.9938   5.8479   1.0655   2.3131   1.3909   0.00    0.0
2021/05/21 06:33:02.004   22.303313349  114.187933245     0.4735   4   0   1.6092   1.8913   5.5095   1.0458   2.0150   1.3462   0.00    0.0
2021/05/21 06:33:03.004   22.303395001  114.187848707    -1.1731   4   0   1.6169   1.9254   5.7657   1.0656   2.1481   1.4071   0.00    0.0
2021/05/21 06:33:04.004   22.303480681  114.187773300     0.2340   4   0   1.6391   2.5307   8.0338   1.2135   3.7045   1.7593   0.00    0.0
2021/05/21 06:33:05.004   22.303563421  114.187697818    -2.4444   4   0   1.6480   2.5718   8.2069   1.2271   3.7977   1.7879   0.00    0.0
2021/05/21 06:33:06.004   22.303628160  114.187640892     9.1368   4   0   1.6523   2.2857   7.2007   1.1643   3.1100   1.6414   0.00    0.0
2021/05/21 06:33:07.004   22.303663381  114.187616550    29.2698   4   0   1.6700   2.6407   8.5586   1.2626   3.9594   1.8660   0.00    0.0
2021/05/21 06:33:08.004   22.303638234  114.187516475    19.7704   4   0   3.0483   3.1816  11.2515   1.9773   4.0337   2.5928   0.00    0.0
2021/05/21 06:33:10.004   22.303662780  114.187591477   134.9793   4   0   2.4584   5.0292  18.2349   2.3164   9.1324   3.7392   0.00    0.0
2021/05/21 06:33:12.004   22.303867955  114.187917415   343.9471   4   0   2.6003   5.1018  18.4835   2.3746   9.2791   3.7639   0.00    0.0
2021/05/21 06:33:13.004   22.304084710  114.188144181   448.7221   4   0   3.4744   6.9400  25.0244   3.1897  12.5289   5.0613   0.00    0.0
2021/05/21 06:33:25.004   22.304522069  114.187092661   194.5410   4   0   4.1874   5.5693  21.5626  -0.7035  10.0682  -5.0268   0.00    0.0
2021/05/21 06:33:27.004   22.304667893  114.186954000   146.1348   4   0   5.1230   3.3885   9.5046   2.9646   3.8339  -1.0902   0.00    0.0
2021/05/21 06:33:28.004   22.304690337  114.186925996   137.1579   4   0   5.1057   3.3825   9.4536   2.9541   3.8146  -1.1036   0.00    0.0
2021/05/21 06:33:29.004   22.304681126  114.186847013   113.3319   4   0   5.0712   3.3695   9.2194   2.9480   3.7474  -0.8106   0.00    0.0
2021/05/21 06:33:30.004   22.304624908  114.186737705    85.2289   4   0   4.8102   3.3177   8.5843   2.9037   3.5349   1.2459   0.00    0.0
2021/05/21 06:33:31.004   22.304502730  114.186604947    62.5107   4   2   2.7102   2.4868   5.7430   2.0159   2.2549   1.5048   0.00    0.0
2021/05/21 06:33:32.004   22.304458342  114.186539242    48.0626   4   2   2.2285   2.6706   6.1688   1.7386   2.0874  -1.1958   0.00    0.0
2021/05/21 06:33:33.004   22.304414790  114.186526584    47.7593   4   2   1.4218   2.0331   5.3574   1.2670   1.8501  -1.2291   0.00    0.0
2021/05/21 06:33:34.004   22.304409428  114.186478353    37.2243   4   2   1.4714   2.2187   6.4161   1.2379   2.5667  -1.3499   0.00    0.0
2021/05/21 06:33:35.004   22.304410628  114.186491318    41.3520   4   0   1.5094   2.0216   5.3423   1.3057   1.8627  -1.0723   0.00    0.0
2021/05/21 06:33:36.004   22.304413858  114.186483248    36.7173   4   2   1.5812   2.0079   5.1582   1.3300   1.8142  -0.9325   0.00    0.0
2021/05/21 06:33:37.004   22.304404968  114.186461143    32.5182   4   2   1.8096   2.0000   4.7641   1.4045   1.7215  -0.1824   0.00    0.0
2021/05/21 06:33:38.004   22.304421068  114.186466763    31.6125   4   2   1.2219   1.9286   3.8688   1.2487   1.2660  -0.8491   0.00    0.0
2021/05/21 06:33:39.004   22.304417822  114.186462042    31.8080   4   2   1.2166   1.8685   3.4127   1.2782   0.7645  -0.8143   0.00    0.0
2021/05/21 06:33:40.004   22.304411772  114.186447226    31.7581   4   3   1.2280   1.8368   3.5939   1.2664   0.6587  -0.9715   0.00    0.0
2021/05/21 06:33:41.004   22.304408620  114.186446377    33.5714   4   3   1.2284   1.8376   3.5678   1.2611   0.6596  -0.9844   0.00    0.0
2021/05/21 06:33:42.004   22.304405135  114.186437993    33.6841   4   2   1.2154   1.8660   3.3813   1.2692   0.7587  -0.8423   0.00    0.0
2021/05/21 06:33:43.004   22.304407757  114.186440467    32.4574   4   2   1.2085   1.9228   3.8076   1.2469   1.2380  -0.8754   0.00    0.0
2021/05/21 06:33:44.004   22.304413517  114.186437885    28.7913   4   2   1.2173   1.9533   4.4783   1.2168   1.5487  -1.0816   0.00    0.0
2021/05/21 06:33:45.004   22.304419053  114.186421512    23.0233   4   2   1.2070   1.9560   4.4946   1.2226   1.5667  -1.0205   0.00    0.0
2021/05/21 06:33:46.004   22.304429408  114.186412000    17.5923   4   2   1.1896   1.9270   3.7810   1.2672   1.2546  -0.6673   0.00    0.0
2021/05/21 06:33:47.004   22.304436329  114.186405061    14.3205   4   2   1.2161   1.8541   3.1739   1.2982   0.5805  -0.6356   0.00    0.0
2021/05/21 06:33:48.004   22.304437227  114.186401326    13.0720   4   3   1.8482   1.8386   3.5036   1.4352   0.6446   0.8033   0.00    0.0
2021/05/21 06:33:49.004   22.304440417  114.186414753    16.5405   4   3   1.2628   1.8285   3.5015   1.2564   0.6088  -1.0107   0.00    0.0
2021/05/21 06:33:50.004   22.304451450  114.186413486    15.0578   4   2   1.2373   1.8572   3.1885   1.2669   0.6909  -0.8196   0.00    0.0
2021/05/21 06:33:51.004   22.304464338  114.186385324    12.6548   4   2   1.2208   1.9039   3.1891   1.2718   1.0068  -0.6214   0.00    0.0
2021/05/21 06:33:52.004   22.304488998  114.186356411     8.8536   4   3   1.2225   1.8486   2.8287   1.2871   0.5332  -0.5534   0.00    0.0
2021/05/21 06:33:53.004   22.304519343  114.186327535     7.5455   4   3   1.2359   1.8085   2.7936   1.2817  -0.3742  -0.7122   0.00    0.0
2021/05/21 06:33:54.004   22.304549911  114.186293804     8.4064   4   2   2.1326   1.8212   2.8348   1.5310  -0.3913   1.1378   0.00    0.0
2021/05/21 06:33:55.004   22.304587223  114.186252418     9.4208   4   2   2.1969   1.8493   2.8944   1.5168   0.5375   0.9279   0.00    0.0
2021/05/21 06:33:56.004   22.304629731  114.186203598     9.0372   4   3   1.2306   1.8098   2.4750   1.2838  -0.4838  -0.6178   0.00    0.0
2021/05/21 06:33:57.004   22.304665763  114.186158291     9.1846   4   2   1.2326   1.7911   2.4966   1.2823  -0.6391  -0.6707   0.00    0.0
2021/05/21 06:33:58.004   22.304700718  114.186116377     9.7875   4   2   1.2369   1.8482   2.8870   1.2774   0.5129  -0.6570   0.00    0.0
2021/05/21 06:33:59.004   22.304732313  114.186072787     9.7013   4   0   2.1457   1.8410   2.6696   1.5005  -0.0911   0.8927   0.00    0.0
2021/05/21 06:34:00.004   22.304777132  114.186040620     9.3218   4   0   2.4916   1.9078   3.0248   1.5822   0.8241   0.9441   0.00    0.0
2021/05/21 06:34:01.004   22.304806566  114.185995907     8.1468   4   0   2.5092   2.0017   4.0966   1.6223   1.5328   1.1550   0.00    0.0
2021/05/21 06:34:02.004   22.304844309  114.185959931     6.8763   4   0   2.5202   2.0441   4.8688   1.6495   1.8558   1.3770   0.00    0.0
2021/05/21 06:34:03.004   22.304854074  114.185923603     5.9209   4   0   2.5311   2.0549   5.1617   1.6618   1.9500   1.4734   0.00    0.0
2021/05/21 06:34:04.004   22.304869863  114.185906982     5.4295   4   0   2.5224   2.0549   5.2252   1.6571   1.9632   1.4680   0.00    0.0
2021/05/21 06:34:05.004   22.304889709  114.185913248     5.8786   4   2   2.3340   2.0414   5.1860   1.5820   1.9192   1.1927   0.00    0.0
2021/05/21 06:34:06.004   22.304911122  114.185925238     8.0685   4   0   2.5215   2.0582   5.2619   1.6578   1.9751   1.4703   0.00    0.0
2021/05/21 06:34:07.004   22.304942036  114.185931820     9.8400   4   0   2.5337   2.0751   5.3189   1.6755   1.9867   1.4901   0.00    0.0
2021/05/21 06:34:08.004   22.304961536  114.185919019    12.2474   4   2   2.4017   2.2782   5.3354   1.7323   1.8797   1.1793   0.00    0.0
2021/05/21 06:34:09.004   22.304957921  114.185875452    16.7087   4   0   2.6327   2.6336   5.4845   1.9961   1.7979   1.3673   0.00    0.0
2021/05/21 06:34:10.004   22.304980158  114.185918766    21.5578   4   0   2.6635   2.6841   5.6684   2.0388   1.8389   1.3793   0.00    0.0
2021/05/21 06:34:11.004   22.305044854  114.185971939    24.4812   4   0   2.7241   2.7729   6.8821   1.9797   2.4229   0.2289   0.00    0.0
2021/05/21 06:34:12.004   22.305107804  114.186009463    20.3242   4   0   2.7607   2.8201   7.2477   1.9979   2.5597  -0.5009   0.00    0.0
2021/05/21 06:34:13.004   22.305155905  114.186048849    22.1466   4   0   2.7827   2.8419   7.3160   2.0064   2.5748  -0.5176   0.00    0.0
2021/05/21 06:34:14.004   22.305156090  114.186081858    28.9290   4   0   2.8068   2.8634   7.3571   2.0298   2.5855  -0.5158   0.00    0.0
2021/05/21 06:34:16.004   22.305109767  114.186093806    32.0157   4   0   2.9232   2.9955   8.0415   2.1333   2.8301  -0.5598   0.00    0.0
2021/05/21 06:34:18.004   22.305111244  114.186092529    34.9424   4   0   4.1117   4.2126  11.2362   2.9966   3.9678  -0.7541   0.00    0.0
2021/05/21 06:34:20.004   22.305359426  114.186404662    18.9449   4   0   3.8246   4.2992  15.6674   1.1749   7.1682  -3.5934   0.00    0.0
2021/05/21 06:34:21.004   22.305400625  114.186420247    26.1551   4   0   3.6274   3.2329  10.0387   2.2041   4.1549   1.4018   0.00    0.0
2021/05/21 06:34:22.004   22.305490013  114.186450843    20.8203   4   0   2.7560   2.4291   7.6137   1.7261   3.3731   1.9810   0.00    0.0
2021/05/21 06:34:23.004   22.305509414  114.186447426    24.8756   4   0   2.4209   2.2656   7.0210   1.4393   3.0408   1.5067   0.00    0.0
2021/05/21 06:34:24.004   22.305492265  114.186416851    39.9000   4   0   2.6174   2.3465   7.4793   1.5931   3.0853   1.0354   0.00    0.0
2021/05/21 06:34:25.004   22.305536311  114.186421003    52.6378   4   0   2.6483   2.3903   7.8449   1.6237   3.2351   1.0603   0.00    0.0
2021/05/21 06:34:26.004   22.305626278  114.186443897    61.4180   4   0   2.6474   2.3897   7.8431   1.6225   3.2354   1.0644   0.00    0.0
2021/05/21 06:34:27.004   22.305697290  114.186442692    65.0319   4   0   2.6211   2.3450   7.4932   1.5919   3.0830   0.9999   0.00    0.0
2021/05/21 06:34:28.004   22.305759290  114.186414145    70.0338   4   0   2.5877   2.2951   7.1231   1.5568   2.9225   0.9322   0.00    0.0
2021/05/21 06:34:29.004   22.305767770  114.186396398    74.4126   4   0   2.6610   2.3840   7.6699   1.6237   3.1630   1.0340   0.00    0.0
2021/05/21 06:34:30.004   22.305795857  114.186428732    72.7697   4   0   3.7398   4.0596  10.0397   2.6598   4.2006   1.4264   0.00    0.0
2021/05/21 06:34:31.004   22.305806918  114.186443397    67.8117   4   0   3.7716   4.1782   9.8436   2.7520   4.1333   1.4155   0.00    0.0
2021/05/21 06:34:32.004   22.305819834  114.186432210    64.9789   4   0   3.7726   4.1673   9.6996   2.7504   4.0721   1.3935   0.00    0.0
2021/05/21 06:34:33.004   22.305826702  114.186393097    59.0462   4   0   3.7731   4.1657   9.6066   2.7515   4.0310   1.3758   0.00    0.0
2021/05/21 06:34:40.004   22.305932872  114.185893593    -5.1258   4   0  13.4246  26.7119  14.1038  18.6451 -16.5380 -11.4729   0.00    0.0
2021/05/21 06:34:41.004   22.305948440  114.185833610    -5.1233   4   0  15.7390  31.5287  15.3742  22.0370 -19.9020 -13.8737   0.00    0.0
2021/05/21 06:34:44.004   22.306029540  114.185707739    -0.2504   4   0  13.4365  26.7277  14.0646  18.6594 -16.5008 -11.4498   0.00    0.0
2021/05/21 06:34:45.004   22.306049289  114.185630367    -4.1299   4   0  15.7537  31.5481  15.3208  22.0546 -19.8576 -13.8457   0.00    0.0
2021/05/21 06:35:05.004   22.306392895  114.185052762   -14.4856   4   0   3.0214   7.4406  11.9981   3.1606   4.5229   2.5657   0.00    0.0
2021/05/21 06:35:07.004   22.306354817  114.184973422     4.4405   4   0   2.0777   4.6610   8.1850   1.8596   2.2665   0.7910   0.00    0.0
2021/05/21 06:35:08.004   22.306338316  114.184986488     6.6752   4   0   2.0374   4.3382   7.2232   1.7077   1.9452   0.6682   0.00    0.0
2021/05/21 06:35:09.004   22.306327677  114.185017522    11.7723   4   0   2.0756   4.5957   7.8976   1.8271   2.1672   0.7479   0.00    0.0
2021/05/21 06:35:28.004   22.306347722  114.185129735    78.3721   4   0   2.3686   2.7628   8.6985   1.5020   3.0884   2.0191   0.00    0.0
2021/05/21 06:35:34.004   22.306435235  114.184528702     6.3284   4   2   2.2598   4.5305   3.7029   1.0724  -3.2830   1.3465   0.00    0.0
2021/05/21 06:35:35.004   22.306486742  114.184457441     7.5741   4   2   2.2089   4.1739   3.0598   1.0781  -3.2440   1.3826   0.00    0.0
2021/05/21 06:35:36.004   22.306519448  114.184381186    12.3523   4   0   2.1960   4.1903   3.0322   1.2267  -3.2283   1.2897   0.00    0.0
2021/05/21 06:35:37.004   22.306586468  114.184317184    19.1858   4   2   1.9780   3.8841   2.5985   1.7719  -2.8157   0.3341   0.00    0.0
2021/05/21 06:35:38.004   22.306615039  114.184385775    15.0850   4   2   1.9585   3.8341   2.5732   1.7564  -2.7797   0.3424   0.00    0.0
2021/05/21 06:35:39.004   22.306612425  114.184441442    10.6750   4   2   1.9343   3.6988   2.4590   1.7825  -2.6439  -0.0655   0.00    0.0
2021/05/21 06:35:40.004   22.306606429  114.184524746     4.4622   4   2   1.7833   3.3071   2.0527   1.9641  -2.1944  -0.8662   0.00    0.0
2021/05/21 06:35:41.004   22.306645621  114.184654768    -1.8910   4   2   1.7837   3.2139   1.7373   2.2757  -1.9222  -1.2663   0.00    0.0
2021/05/21 06:35:42.004   22.306646577  114.184653427    -1.8096   4   2   1.4717   2.4987   1.5498   1.7800  -1.4537  -0.9141   0.00    0.0
2021/05/21 06:35:43.004   22.306645781  114.184650124    -1.6519   4   2   1.4669   2.4084   1.5227   1.7343  -1.3798  -0.8564   0.00    0.0
2021/05/21 06:35:44.004   22.306648265  114.184637688    -0.6602   4   2   1.7023   2.4243   1.5526   1.7994  -1.3526  -0.6907   0.00    0.0
2021/05/21 06:35:45.004   22.306624381  114.184623789    -1.1685   4   2   1.2981   2.3994   1.4977   1.7013  -1.3929  -0.9576   0.00    0.0
2021/05/21 06:35:46.004   22.306625201  114.184622962    -1.0652   4   2   1.2898   2.3936   1.4963   1.6955  -1.3901  -0.9569   0.00    0.0
2021/05/21 06:35:47.004   22.306634100  114.184623418    -0.5605   4   2   2.0601   2.4217   1.6240   1.8647  -1.2995   0.3233   0.00    0.0
2021/05/21 06:35:48.004   22.306625305  114.184629307    -1.5119   4   2   1.9618   2.4189   1.6016   1.8450  -1.3098  -0.2440   0.00    0.0
2021/05/21 06:35:49.004   22.306632836  114.184639544    -1.7285   4   2   1.2887   2.3912   1.4935   1.6938  -1.3849  -0.9532   0.00    0.0
2021/05/21 06:35:50.004   22.306636577  114.184647580    -2.0391   4   2   1.2861   2.3877   1.4919   1.6909  -1.3816  -0.9509   0.00    0.0
2021/05/21 06:35:51.004   22.306629284  114.184631731    -1.4180   4   2   1.2853   2.3859   1.4906   1.6897  -1.3791  -0.9492   0.00    0.0
2021/05/21 06:35:52.004   22.306619328  114.184610055    -0.5747   4   2   1.2846   2.3844   1.4895   1.6887  -1.3769  -0.9476   0.00    0.0
2021/05/21 06:35:53.004   22.306611517  114.184592988     0.0949   4   2   1.2589   2.3276   1.4759   1.6490  -1.3385  -0.9200   0.00    0.0
2021/05/21 06:35:54.004   22.306633019  114.184639282    -1.7067   4   2   1.0087   1.7609   1.3586   1.2541  -0.9559  -0.6420   0.00    0.0
2021/05/21 06:35:55.004   22.306629361  114.184631308    -1.3980   4   2   0.9996   1.7393   1.3543   1.2393  -0.9400  -0.6304   0.00    0.0
2021/05/21 06:35:56.004   22.306618726  114.184608160    -0.5133   4   2   0.9999   1.7392   1.3538   1.2395  -0.9388  -0.6297   0.00    0.0
2021/05/21 06:35:57.004   22.306608782  114.184586684     0.3094   4   2   0.9993   1.7368   1.3529   1.2382  -0.9360  -0.6280   0.00    0.0
2021/05/21 06:35:58.004   22.306600970  114.184569694     0.9634   4   2   0.9991   1.7358   1.3523   1.2377  -0.9343  -0.6269   0.00    0.0
2021/05/21 06:35:59.004   22.306589267  114.184549862     1.5664   4   3   1.0580   1.7379   1.3596   1.2499  -0.9265  -0.5840   0.00    0.0
2021/05/21 06:36:00.004   22.306583277  114.184534274     2.2199   4   3   1.0248   1.7356   1.3575   1.2385  -0.9315  -0.6012   0.00    0.0
2021/05/21 06:36:01.004   22.306577379  114.184521257     2.7188   4   3   1.0255   1.7330   1.3565   1.2375  -0.9282  -0.5986   0.00    0.0
2021/05/21 06:36:02.004   22.306576441  114.184508901     3.4851   4   2   1.5443   1.6372   1.4903   1.1789  -0.8535   0.6927   0.00    0.0
2021/05/21 06:36:03.004   22.306562678  114.184485848     4.1634   4   2   1.8281   1.6329   1.5848   1.1800  -0.8465   1.0088   0.00    0.0
2021/05/21 06:36:04.004   22.306560816  114.184470662     5.0611   4   2   1.8492   1.6455   1.6022   1.1728  -0.8667   1.0367   0.00    0.0
2021/05/21 06:36:05.004   22.306558625  114.184448806     6.3852   4   2   1.8458   1.9557   1.7321   1.1920  -1.2033   1.0202   0.00    0.0
2021/05/21 06:36:06.004   22.306561093  114.184446539     6.6688   4   2   1.8492   1.9811   1.7482   1.1867  -1.2321   1.0290   0.00    0.0
2021/05/21 06:36:07.004   22.306564089  114.184451489     6.8556   4   2   1.8301   1.9922   1.8444   1.1950  -1.1475   0.9700   0.00    0.0
2021/05/21 06:36:08.004   22.306551932  114.184453232     5.7443   4   2   1.5374   1.9657   1.6636   1.2907  -1.1414   0.5657   0.00    0.0
2021/05/21 06:36:09.004   22.306545734  114.184453340     5.3479   4   3   1.0693   1.9607   1.4748   1.3539  -1.0962  -0.7144   0.00    0.0
2021/05/21 06:36:10.004   22.306545569  114.184452242     5.4076   4   3   1.0594   1.9590   1.4733   1.3475  -1.0946  -0.7123   0.00    0.0
2021/05/21 06:36:11.004   22.306553246  114.184468622     4.8031   4   3   1.0713   1.9605   1.4666   1.3561  -1.0835  -0.7089   0.00    0.0
2021/05/21 06:36:12.004   22.306565241  114.184478880     4.7729   4   2   1.5376   1.9663   1.6353   1.2873  -1.1320   0.5536   0.00    0.0
2021/05/21 06:36:13.004   22.306561605  114.184489204     3.8381   4   2   1.8004   1.9718   1.7644   1.2210  -1.1799   0.9646   0.00    0.0
2021/05/21 06:36:14.004   22.306552899  114.184490127     3.2445   4   2   1.5430   1.9659   1.6485   1.2855  -1.1351   0.5851   0.00    0.0
2021/05/21 06:36:15.004   22.306563148  114.184490161     3.9652   4   2   1.0610   1.9598   1.4591   1.3552  -1.0786  -0.7182   0.00    0.0
2021/05/21 06:36:16.004   22.306560908  114.184485473     4.1411   4   2   1.0533   1.9575   1.4605   1.3480  -1.0802  -0.7152   0.00    0.0
2021/05/21 06:36:17.004   22.306554182  114.184483014     3.8042   4   3   1.3742   1.9554   1.5639   1.3334  -1.0889  -0.1221   0.00    0.0
2021/05/21 06:36:18.004   22.306553827  114.184483446     3.7954   4   2   1.0616   1.9547   1.4695   1.3452  -1.0792  -0.6936   0.00    0.0
2021/05/21 06:36:19.004   22.306557278  114.184489599     3.6017   4   2   1.0588   1.9542   1.4670   1.3461  -1.0769  -0.6969   0.00    0.0
2021/05/21 06:36:20.004   22.306563660  114.184503465     3.0560   4   2   1.0554   1.9319   1.4606   1.3353  -1.0574  -0.6858   0.00    0.0
2021/05/21 06:36:21.004   22.306596442  114.184577716     0.2304   4   2   0.9524   1.6409   1.4066   1.1480  -0.8455  -0.5378   0.00    0.0
2021/05/21 06:36:22.004   22.306600372  114.184586072    -0.0996   4   2   0.9505   1.6294   1.4036   1.1424  -0.8344  -0.5314   0.00    0.0
2021/05/21 06:36:23.004   22.306598964  114.184582268     0.0533   4   2   0.9496   1.6294   1.4040   1.1412  -0.8341  -0.5293   0.00    0.0
2021/05/21 06:36:24.004   22.306599834  114.184583185     0.0364   4   2   0.9528   1.6286   1.4040   1.1418  -0.8305  -0.5238   0.00    0.0
2021/05/21 06:36:25.004   22.306600178  114.184582340     0.1267   4   2   1.3630   1.6304   1.4855   1.1772  -0.8058   0.4442   0.00    0.0
2021/05/21 06:36:26.004   22.306600735  114.184583077     0.1295   4   3   0.9415   1.6283   1.3992   1.1370  -0.8398  -0.5508   0.00    0.0
2021/05/21 06:36:27.004   22.306595714  114.184573439     0.3762   4   3   0.9509   1.6290   1.4010   1.1420  -0.8348  -0.5455   0.00    0.0
2021/05/21 06:36:28.004   22.306601132  114.184558265     1.8013   4   2   1.5065   1.6383   1.5486   1.1721  -0.7837   0.6744   0.00    0.0
2021/05/21 06:36:29.004   22.306615318  114.184549708     3.2113   4   2   1.8176   1.6301   1.6451   1.1778  -0.8029   1.0354   0.00    0.0
2021/05/21 06:36:30.004   22.306609742  114.184537865     3.6338   4   2   1.8389   1.6305   1.6584   1.1709  -0.8063   1.0639   0.00    0.0
2021/05/21 06:36:31.004   22.306598001  114.184534622     3.0945   4   2   1.8136   1.6311   1.6444   1.1781  -0.7967   1.0352   0.00    0.0
2021/05/21 06:36:32.004   22.306586140  114.184535638     2.2503   4   2   1.5510   1.6317   1.5542   1.1743  -0.7965   0.7570   0.00    0.0
2021/05/21 06:36:33.004   22.306578812  114.184536274     1.7341   4   2   0.9476   1.6305   1.3934   1.1436  -0.8201  -0.5209   0.00    0.0
2021/05/21 06:36:34.004   22.306579158  114.184536282     1.7485   4   2   0.9361   1.6302   1.3999   1.1371  -0.8328  -0.5281   0.00    0.0
2021/05/21 06:36:35.004   22.306577002  114.184532355     1.8966   4   2   0.9482   1.6316   1.4076   1.1427  -0.8415  -0.5326   0.00    0.0
2021/05/21 06:36:36.004   22.306576298  114.184525763     2.2641   4   3   0.9368   1.6354   1.4071   1.1427  -0.8220  -0.5373   0.00    0.0
2021/05/21 06:36:37.004   22.306590469  114.184540624     1.7873   4   2   0.8873   1.5941   1.8077   1.0637  -0.4538  -0.5398   0.00    0.0
2021/05/21 06:36:38.004   22.306602199  114.184527071     1.3991   4   2   0.8970   1.7064   3.1392   1.0122   1.1644  -0.8601   0.00    0.0
2021/05/21 06:36:39.004   22.306602509  114.184498849     1.6835   4   0   1.6963   1.8211   4.4350   1.0861   1.6175   0.6999   0.00    0.0
2021/05/21 06:36:40.004   22.306636843  114.184491844    -1.5874   4   0   1.7697   1.7836   5.0377   1.0174   1.9560   1.4631   0.00    0.0
2021/05/21 06:36:41.004   22.306658859  114.184464194    -2.7601   4   0   1.7755   1.7982   5.2529   1.0343   2.0482   1.5572   0.00    0.0
2021/05/21 06:36:42.004   22.306661772  114.184422967    -4.3962   4   0   1.7789   1.8049   5.3423   1.0356   2.0833   1.5649   0.00    0.0
2021/05/21 06:36:43.004   22.306667692  114.184379378    -5.4965   4   0   1.7823   1.8096   5.4135   1.0399   2.1083   1.5789   0.00    0.0
2021/05/21 06:36:44.004   22.306682566  114.184363581    -3.2733   4   0   1.7940   1.8303   5.5421   1.0556   2.1637   1.6000   0.00    0.0
2021/05/21 06:36:45.004   22.306690949  114.184361501    11.1812   4   0   1.9063   2.1280   6.5925   1.1962   2.7171   1.4072   0.00    0.0
2021/05/21 06:36:46.004   22.306714730  114.184346677    19.2268   4   0   1.9135   1.9119   5.7434   1.1898   2.0617   1.3588   0.00    0.0
2021/05/21 06:36:47.004   22.306734579  114.184384422    38.2112   4   0   1.9046   2.1067   6.4202   1.1755   2.6234   1.3206   0.00    0.0
2021/05/21 06:36:48.004   22.306777459  114.184409192    50.6863   4   0   1.9394   2.2144   7.1263   1.2329   2.9580   1.4661   0.00    0.0
2021/05/21 06:36:53.004   22.306987849  114.184763878   202.7455   4   0   3.1449   5.6650  23.5256   1.3448  10.5613   2.7046   0.00    0.0
2021/05/21 06:36:54.004   22.307100851  114.184461896    14.1412   4   0   2.3108   2.4168   8.2988   1.1233   3.2765   1.2106   0.00    0.0
2021/05/21 06:36:55.004   22.307165157  114.184438718     8.8875   4   0   2.1809   2.1806   6.9564   1.3125   2.8284   1.2096   0.00    0.0
2021/05/21 06:36:56.004   22.307209063  114.184494586    10.9130   4   0   2.1661   2.1798   6.9631   1.3046   2.8568   1.2113   0.00    0.0
2021/05/21 06:36:57.004   22.307189152  114.184524676    15.5914   4   2   1.9090   2.0948   6.9164   1.2105   2.9491   1.4078   0.00    0.0
2021/05/21 06:36:58.004   22.307274990  114.184588514    16.1476   4   0   2.1205   2.1619   6.9541   1.2794   2.8614   1.2432   0.00    0.0
2021/05/21 06:36:59.004   22.307303800  114.184621601    21.5088   4   0   2.1327   2.1604   6.9501   1.2772   2.8486   1.1832   0.00    0.0
2021/05/21 06:37:00.004   22.307465205  114.184672533    24.4384   4   0   2.4986   2.1780   6.9821   1.4169   2.8034   0.6212   0.00    0.0
2021/05/21 06:37:01.004   22.307405486  114.184691204    33.1014   4   0   2.1575   2.1570   6.9575   1.2775   2.8357   1.0843   0.00    0.0
2021/05/21 06:37:02.004   22.307529016  114.184710135    36.0127   4   0   2.5019   2.1774   6.9695   1.4208   2.7993   0.6621   0.00    0.0
2021/05/21 06:37:03.004   22.307564613  114.184710203    33.5891   4   0   2.5482   2.1756   6.9951   1.4271   2.7845   0.2024   0.00    0.0
2021/05/21 06:37:04.004   22.307575025  114.184698533    32.9676   4   0   2.5461   2.1754   7.0272   1.4218   2.7913  -0.1717   0.00    0.0
2021/05/21 06:37:05.004   22.307560643  114.184678925    27.9673   4   0   2.5825   2.0589   5.8088   1.6503   2.1045   1.5526   0.00    0.0
2021/05/21 06:37:06.004   22.307542122  114.184641991    29.8551   4   0   2.5079   2.0007   5.4041   1.5818   1.9388   1.4331   0.00    0.0
