% program   : RTKPOST demo5 b34k
% inp file  : E:\AAE6102_Laboratory-main\AAE6102_Laboratory-main\GNSS Data\UrbanNav - Medium\20210521.medium-urban.whampoa.ublox.f9p.obs
% inp file  : E:\AAE6102_Laboratory-main\AAE6102_Laboratory-main\GNSS Data\UrbanNav - Medium\hksc141g.21o
% inp file  : E:\AAE6102_Laboratory-main\AAE6102_Laboratory-main\GNSS Data\UrbanNav - Medium\hksc141g.21*
% obs start : 2021/05/21 06:29:02.0 GPST (week2158 455342.0s)
% obs end   : 2021/05/21 06:54:39.0 GPST (week2158 456879.0s)
% pos mode  : Kinematic
% freqs     : L1+L2/E5b
% solution  : Combined-No Phase Reset
% elev mask : 15.0 deg
% dynamics  : on
% tidecorr  : off
% ionos opt : Broadcast
% tropo opt : Saastamoinen
% ephemeris : Broadcast
% navi sys  : GPS GLONASS Galileo
% amb res   : Fix and Hold
% amb glo   : Fix and Hold
% val thres : 3.0
% antenna1  :                       ( 0.0000  0.0000  0.0000)
% antenna2  :                       ( 0.0000  0.0000  0.0000)
% ref pos   : 22.322172082  114.141187963    20.2386
%
% (lat/lon/height=WGS84/ellipsoidal,Q=1:fix,2:float,3:sbas,4:dgps,5:single,6:ppp,ns=# of satellites)
%  GPST          latitude(deg) longitude(deg)  height(m)   Q  ns   sdn(m)   sde(m)   sdu(m)  sdne(m)  sdeu(m)  sdun(m) age(s)  ratio
2158 455342.000   22.301560882  114.190300829     5.9849   2  11   0.1322   0.1610   0.2639   0.0517  -0.0455   0.1057   0.00    0.0
2158 455343.000   22.301560789  114.190300761     5.9814   2  14   0.1326   0.1612   0.2639   0.0526  -0.0460   0.1055   0.00    0.0
2158 455344.000   22.301560898  114.190300661     6.0104   2  12   0.1332   0.1615   0.2643   0.0536  -0.0469   0.1052   0.00    0.0
2158 455345.000   22.301560995  114.190300579     6.0297   2  13   0.1334   0.1617   0.2643   0.0542  -0.0474   0.1048   0.00    0.0
2158 455346.000   22.301560858  114.190300492     6.0293   2  12   0.1338   0.1619   0.2643   0.0550  -0.0478   0.1047   0.00    0.0
2158 455347.000   22.301560870  114.190300285     6.0250   2  12   0.1341   0.1621   0.2644   0.0556  -0.0481   0.1044   0.00    0.0
2158 455348.000   22.301561204  114.190297018     6.0249   2  12   0.1344   0.1623   0.2646   0.0562  -0.0486   0.1042   0.00    0.0
2158 455349.000   22.301561561  114.190289922     6.0179   2  11   0.1346   0.1625   0.2648   0.0568  -0.0488   0.1042   0.00    0.0
2158 455350.000   22.301562006  114.190279555     5.9892   2   9   0.1350   0.1627   0.2648   0.0576  -0.0492   0.1038   0.00    0.0
2158 455351.000   22.301565486  114.190266935     5.9845   2  11   0.1352   0.1629   0.2649   0.0581  -0.0494   0.1037   0.00    0.0
2158 455352.000   22.301574295  114.190256770     6.0250   2  11   0.1355   0.1631   0.2650   0.0587  -0.0500   0.1035   0.00    0.0
2158 455353.000   22.301586085  114.190249677     5.9860   2  13   0.1357   0.1632   0.2649   0.0593  -0.0503   0.1030   0.00    0.0
2158 455354.000   22.301598738  114.190242215     6.0110   2  13   0.1360   0.1634   0.2651   0.0599  -0.0506   0.1028   0.00    0.0
2158 455355.000   22.301612421  114.190234277     6.0172   2  15   0.1361   0.1635   0.2650   0.0602  -0.0517   0.1023   0.00    0.0
2158 455356.000   22.301627983  114.190225605     6.0345   2  14   0.1363   0.1636   0.2651   0.0607  -0.0519   0.1021   0.00    0.0
2158 455357.000   22.301649720  114.190214295     6.0705   2  12   0.1365   0.1638   0.2652   0.0612  -0.0519   0.1019   0.00    0.0
2158 455358.000   22.301678141  114.190200480     6.0741   2  12   0.1367   0.1639   0.2652   0.0615  -0.0523   0.1017   0.00    0.0
2158 455359.000   22.301712331  114.190184531     6.0838   2  12   0.1367   0.1640   0.2654   0.0618  -0.0526   0.1015   0.00    0.0
2158 455360.000   22.301750855  114.190166345     6.1466   2  12   0.1368   0.1641   0.2656   0.0619  -0.0531   0.1014   0.00    0.0
2158 455361.000   22.301793737  114.190146285     6.1742   2  12   0.1369   0.1641   0.2654   0.0622  -0.0530   0.1011   0.00    0.0
2158 455362.000   22.301840883  114.190123617     6.1809   2  12   0.1369   0.1642   0.2656   0.0624  -0.0534   0.1010   0.00    0.0
2158 455363.000   22.301891517  114.190098562     6.2148   2  11   0.1369   0.1643   0.2657   0.0626  -0.0537   0.1008   0.00    0.0
2158 455364.000   22.301944623  114.190072130     6.2161   2  11   0.1369   0.1644   0.2658   0.0626  -0.0538   0.1007   0.00    0.0
2158 455365.000   22.301997264  114.190045801     6.1985   2  12   0.1369   0.1643   0.2659   0.0627  -0.0534   0.1007   0.00    0.0
2158 455366.000   22.302048869  114.190021209     6.1445   2  11   0.1369   0.1646   0.2660   0.0629  -0.0538   0.1005   0.00    0.0
2158 455367.000   22.302098744  114.189996047     6.1711   2  10   0.1369   0.1646   0.2662   0.0630  -0.0539   0.1004   0.00    0.0
2158 455368.000   22.302146935  114.189971628     6.1379   2   9   0.1369   0.1648   0.2664   0.0633  -0.0543   0.1003   0.00    0.0
2158 455369.000   22.302192620  114.189944644     6.0841   2   8   0.1370   0.1657   0.2667   0.0642  -0.0561   0.0999   0.00    0.0
2158 455370.000   22.302231984  114.189909934     6.0559   2   8   0.1468   0.2002   0.2680   0.1003  -0.0780   0.0926   0.00    0.0
2158 455371.000   22.302264340  114.189872283     6.0140   2   7   0.1369   0.1659   0.2668   0.0641  -0.0562   0.1000   0.00    1.0
2158 455372.000   22.302284923  114.189828460     5.9617   2   8   0.1367   0.1656   0.2667   0.0636  -0.0562   0.1000   0.00    1.1
2158 455373.000   22.302294132  114.189783213     6.0194   2   9   0.1366   0.1654   0.2665   0.0634  -0.0561   0.0999   0.00    1.0
2158 455374.000   22.302293165  114.189739132     6.0129   2   9   0.1365   0.1653   0.2664   0.0632  -0.0558   0.1000   0.00    1.0
2158 455375.000   22.302282699  114.189697137     6.0327   2  10   0.1363   0.1654   0.2656   0.0632  -0.0550   0.0999   0.00    1.0
2158 455376.000   22.302264190  114.189658706     6.0779   2  10   0.1361   0.1650   0.2654   0.0629  -0.0537   0.1001   0.00    1.2
2158 455377.000   22.302242544  114.189622130     6.1086   2  11   0.1359   0.1648   0.2654   0.0627  -0.0526   0.1003   0.00    1.1
2158 455378.000   22.302219940  114.189585676     6.1594   2  12   0.1355   0.1646   0.2652   0.0620  -0.0521   0.1004   0.00    1.1
2158 455379.000   22.302197870  114.189550476     6.2003   2  12   0.1351   0.1644   0.2652   0.0616  -0.0517   0.1005   0.00    1.0
2158 455380.000   22.302176821  114.189518013     6.2607   2  12   0.1349   0.1642   0.2653   0.0611  -0.0512   0.1008   0.00    1.2
2158 455381.000   22.302157061  114.189487936     6.2914   2  11   0.1347   0.1638   0.2655   0.0603  -0.0504   0.1014   0.00    1.0
2158 455382.000   22.302138434  114.189460080     6.3021   2  12   0.1344   0.1637   0.2654   0.0597  -0.0499   0.1016   0.00    1.5
2158 455383.000   22.302119823  114.189433552     6.3453   2  12   0.1340   0.1634   0.2654   0.0591  -0.0494   0.1019   0.00    1.6
2158 455384.000   22.302099958  114.189405495     6.3803   2  11   0.1337   0.1633   0.2656   0.0585  -0.0489   0.1022   0.00    1.7
2158 455385.000   22.302078691  114.189373546     6.4620   2  10   0.1334   0.1638   0.2660   0.0583  -0.0508   0.1022   0.00    1.6
2158 455386.000   22.302057669  114.189338011     6.4611   2   9   0.1333   0.1656   0.2666   0.0596  -0.0536   0.1018   0.00    1.9
2158 455387.000   22.302037562  114.189292700     6.5479   2   7   0.1687   0.2757   0.2728   0.1623  -0.1229   0.0685   0.00    1.9
2158 455388.000   22.302024635  114.189244951     6.5665   2   7   0.1331   0.1628   0.2675   0.0570  -0.0461   0.1036   0.00    1.0
2158 455389.000   22.302017984  114.189188878     6.6714   2   5   0.1765   0.2983   0.2758   0.1788  -0.1301   0.0678   0.00    2.1
2158 455390.000   22.302026969  114.189145049     6.4161   2   4   0.1410   0.1280   0.2663   0.0558   0.0608   0.1130   0.00    0.0
2158 455391.000   22.302045302  114.189102824     6.0179   2   4   0.3248   0.5799   0.3509   0.3588  -0.2608   0.1451   0.00    0.0
2158 455392.000   22.302066448  114.189039835     6.2520   4   2   0.6146   0.1408   0.6990  -0.1836  -0.1874   0.6325   0.00    0.0
2158 455393.000   22.302097769  114.188987967     6.5394   4   0   0.7094   0.1455   0.7983  -0.2158  -0.2209   0.7321   0.00    0.0
2158 455394.000   22.302134876  114.188938241     7.4608   4   0   0.3755   0.1689   0.4882  -0.1822  -0.1937   0.3946   0.00    0.0
2158 455395.000   22.302163124  114.188892129     7.4790   4   0   0.1789   0.1311   0.3272  -0.0586  -0.0583   0.1915   0.00    0.0
2158 455396.000   22.302186050  114.188851775     7.3397   4   0   0.1799   0.1309   0.3279  -0.0580  -0.0586   0.1927   0.00    0.0
2158 455397.000   22.302202207  114.188818102     7.2676   4   0   0.1573   0.1296   0.3209  -0.0281  -0.0255   0.1743   0.00    0.0
2158 455398.000   22.302212276  114.188793229     7.2027   4   0   0.1578   0.1296   0.3218  -0.0280  -0.0253   0.1753   0.00    0.0
2158 455399.000   22.302218433  114.188776562     7.2131   4   0   0.1635   0.2315   0.3618  -0.0955  -0.1791   0.1944   0.00    0.0
2158 455400.000   22.302222555  114.188760446     7.1566   4   0   0.1636   0.2355   0.3634  -0.0977  -0.1833   0.1950   0.00    0.0
2158 455401.000   22.302224689  114.188741605     7.4522   2   5   0.1565   0.1297   0.3184  -0.0375  -0.0358   0.1708   0.00    0.0
2158 455402.000   22.302218385  114.188726326     7.4828   2   9   0.1589   0.1296   0.3180  -0.0388  -0.0412   0.1732   0.00    0.0
2158 455403.000   22.302207505  114.188716274     7.4216   2  10   0.1580   0.1299   0.3169  -0.0372  -0.0417   0.1719   0.00    0.0
2158 455404.000   22.302196211  114.188711206     7.4612   2  12   0.1582   0.1298   0.3164  -0.0359  -0.0405   0.1716   0.00    0.0
2158 455405.000   22.302191549  114.188710329     7.4572   2  11   0.1589   0.1298   0.3166  -0.0352  -0.0402   0.1720   0.00    0.0
2158 455406.000   22.302191597  114.188710366     7.4725   2  13   0.1593   0.1297   0.3164  -0.0341  -0.0394   0.1721   0.00    0.0
2158 455407.000   22.302191478  114.188710245     7.4398   2  13   0.1596   0.1294   0.3151  -0.0319  -0.0360   0.1714   0.00    0.0
2158 455408.000   22.302191535  114.188710174     7.4940   2  12   0.1610   0.1294   0.3170  -0.0316  -0.0360   0.1732   0.00    0.0
2158 455409.000   22.302191596  114.188710174     7.5214   2  13   0.1622   0.1295   0.3188  -0.0315  -0.0365   0.1749   0.00    0.0
2158 455410.000   22.302191771  114.188710179     7.5745   2  13   0.1637   0.1295   0.3212  -0.0313  -0.0369   0.1770   0.00    0.0
2158 455411.000   22.302191893  114.188710083     7.6382   2  14   0.1651   0.1295   0.3235  -0.0312  -0.0372   0.1791   0.00    0.0
2158 455412.000   22.302192151  114.188710062     7.7236   2  13   0.1665   0.1296   0.3257  -0.0309  -0.0373   0.1811   0.00    0.0
2158 455413.000   22.302192142  114.188710028     7.7538   2  12   0.1676   0.1296   0.3272  -0.0307  -0.0374   0.1825   0.00    0.0
2158 455414.000   22.302192195  114.188710071     7.7620   2  12   0.1686   0.1297   0.3286  -0.0305  -0.0377   0.1838   0.00    0.0
2158 455415.000   22.302192158  114.188710074     7.7779   2  13   0.1695   0.1297   0.3298  -0.0304  -0.0380   0.1850   0.00    0.0
2158 455416.000   22.302192105  114.188710045     7.7810   2  14   0.1704   0.1297   0.3313  -0.0303  -0.0382   0.1864   0.00    0.0
2158 455417.000   22.302192030  114.188709986     7.7991   2  14   0.1713   0.1297   0.3327  -0.0302  -0.0385   0.1877   0.00    0.0
2158 455418.000   22.302192084  114.188709968     7.8343   2  13   0.1721   0.1297   0.3341  -0.0302  -0.0387   0.1888   0.00    0.0
2158 455419.000   22.302192028  114.188709978     7.8458   2  13   0.1728   0.1297   0.3351  -0.0301  -0.0388   0.1898   0.00    0.0
2158 455420.000   22.302192155  114.188709966     7.8685   2  14   0.1732   0.1297   0.3357  -0.0301  -0.0389   0.1904   0.00    0.0
2158 455421.000   22.302192381  114.188709956     7.9032   2  13   0.1737   0.1297   0.3365  -0.0301  -0.0390   0.1910   0.00    0.0
2158 455422.000   22.302192168  114.188709912     7.8296   2  14   0.1741   0.1297   0.3373  -0.0298  -0.0386   0.1918   0.00    0.0
2158 455423.000   22.302191888  114.188709728     7.7605   2  14   0.1745   0.1297   0.3381  -0.0296  -0.0382   0.1925   0.00    0.0
2158 455424.000   22.302191499  114.188709594     7.6625   2  13   0.1747   0.1297   0.3388  -0.0293  -0.0376   0.1930   0.00    1.6
2158 455425.000   22.302191576  114.188709625     7.6681   2  14   0.1747   0.1297   0.3388  -0.0294  -0.0376   0.1929   0.00    1.5
2158 455426.000   22.302191475  114.188709665     7.6566   2  14   0.1745   0.1297   0.3386  -0.0295  -0.0374   0.1927   0.00    1.1
2158 455427.000   22.302191398  114.188709720     7.6674   2  14   0.1743   0.1296   0.3383  -0.0297  -0.0372   0.1924   0.00    1.5
2158 455428.000   22.302191347  114.188709723     7.6433   2  14   0.1739   0.1296   0.3378  -0.0298  -0.0369   0.1919   0.00    1.0
2158 455429.000   22.302191361  114.188709733     7.6511   2  13   0.1734   0.1296   0.3373  -0.0300  -0.0366   0.1913   0.00    1.0
2158 455430.000   22.302191297  114.188709809     7.6392   2  13   0.1728   0.1296   0.3365  -0.0302  -0.0363   0.1905   0.00    1.0
2158 455431.000   22.302191170  114.188709741     7.6266   2  13   0.1721   0.1295   0.3356  -0.0306  -0.0364   0.1896   0.00    1.0
2158 455432.000   22.302190912  114.188709713     7.5937   2  13   0.1713   0.1295   0.3345  -0.0308  -0.0361   0.1885   0.00    1.5
2158 455433.000   22.302190048  114.188709554     7.4276   2  13   0.1705   0.1295   0.3336  -0.0308  -0.0353   0.1876   0.00    1.1
2158 455434.000   22.302189327  114.188709337     7.2910   2  13   0.1696   0.1295   0.3325  -0.0307  -0.0344   0.1865   0.00    1.1
2158 455435.000   22.302188838  114.188709199     7.1504   2  12   0.1687   0.1294   0.3318  -0.0309  -0.0340   0.1856   0.00    1.0
2158 455436.000   22.302188267  114.188709048     7.0062   2  13   0.1677   0.1294   0.3302  -0.0308  -0.0325   0.1842   0.00    1.1
2158 455437.000   22.302187709  114.188708884     6.8713   2  13   0.1665   0.1293   0.3286  -0.0308  -0.0314   0.1827   0.00    1.1
2158 455438.000   22.302187403  114.188708782     6.7727   2  13   0.1653   0.1293   0.3269  -0.0309  -0.0303   0.1811   0.00    1.1
2158 455439.000   22.302186904  114.188708620     6.6159   2  14   0.1640   0.1292   0.3251  -0.0310  -0.0290   0.1794   0.00    1.1
2158 455440.000   22.302186632  114.188708476     6.4896   2  13   0.1626   0.1291   0.3232  -0.0310  -0.0279   0.1776   0.00    1.1
2158 455441.000   22.302186119  114.188708349     6.3647   2  13   0.1612   0.1291   0.3212  -0.0312  -0.0266   0.1758   0.00    1.4
2158 455442.000   22.302184909  114.188708104     6.2632   2  13   0.1597   0.1290   0.3189  -0.0313  -0.0251   0.1738   0.00    1.1
2158 455443.000   22.302174211  114.188706283     6.1651   2  12   0.1587   0.1290   0.3182  -0.0317  -0.0251   0.1728   0.00    1.2
2158 455444.000   22.302149485  114.188698005     6.1141   2   7   0.1584   0.1292   0.3187  -0.0319  -0.0254   0.1730   0.00    1.3
2158 455445.000   22.302111035  114.188681660     5.9905   2  10   0.1578   0.1292   0.3185  -0.0311  -0.0233   0.1725   0.00    1.1
2158 455446.000   22.302062691  114.188656027     5.9328   2   7   0.1575   0.1295   0.3197  -0.0311  -0.0193   0.1729   0.00    1.2
2158 455447.000   22.302006356  114.188623671     6.5356   4   3   0.2376   0.2230   0.6245   0.1763   0.3112   0.3537   0.00    0.0
2158 455448.000   22.301957105  114.188599774    10.7319   4   2   0.3301   0.3796   0.9461   0.2981   0.5218   0.5362   0.00    0.0
2158 455449.000   22.301883979  114.188533323     6.4204   4   2   0.1586   0.1323   0.3332  -0.0285  -0.0286   0.1775   0.00    0.0
2158 455450.000   22.301826458  114.188479564     6.1663   2   5   0.1587   0.1316   0.3335  -0.0303  -0.0341   0.1777   0.00    1.0
2158 455451.000   22.301771520  114.188421094     5.7344   2   6   0.1613   0.1298   0.3244  -0.0368  -0.0293   0.1784   0.00    1.3
2158 455452.000   22.301722841  114.188358866     5.9804   2   4   0.1612   0.1326   0.3368  -0.0370  -0.0419   0.1814   0.00    1.1
2158 455453.000   22.301701549  114.188336798     7.7289   4   0   0.3890   0.6372   0.7727   0.4449  -0.0057   0.3735   0.00    0.0
2158 455454.000   22.301657184  114.188274687    12.4291   4   2   0.4296   0.6398   1.3214   0.2359   0.3207   0.7337   0.00    0.0
2158 455455.000   22.301622090  114.188207213    10.8496   4   2   0.5681   0.7688   1.7506   0.5380  -0.0817   0.8335   0.00    0.0
2158 455456.000   22.301576960  114.188121149    12.7748   2   4   0.6014   0.8051   1.9995   0.5379  -0.3572   0.9254   0.00    0.0
2158 455457.000   22.301523303  114.188026623    11.4839   2   5   0.4913   0.7442   1.8502   0.4193  -0.6407   0.7639   0.00    0.0
2158 455458.000   22.301477741  114.187956991     6.2039   2   4   0.4206   0.6984   0.4371   0.5145   0.3487   0.3326   0.00    0.0
2158 455459.000   22.301441327  114.187878764     7.5265   4   3   0.3792   0.6264   1.3575   0.4537  -0.1566   0.3218   0.00    0.0
2158 455460.000   22.301416956  114.187825438     7.2419   4   2   0.2625   0.4692   1.2460   0.3044  -0.6153  -0.3519   0.00    0.0
2158 455461.000   22.301393364  114.187792102     3.6705   4   0   0.7365   0.5303   1.4568  -0.0996  -0.5972   0.4583   0.00    0.0
2158 455462.000   22.301385702  114.187743101     2.4847   4   2   0.8127   0.8268   1.5515  -0.3737  -0.1998   0.4755   0.00    0.0
2158 455463.000   22.301375531  114.187739454     1.8264   4   2   0.7845   0.6630   1.4232  -0.2813  -0.5118   0.5347   0.00    0.0
2158 455464.000   22.301357122  114.187735904     2.9262   4   3   0.7091   0.6642   1.4462  -0.5695  -0.7226   0.5414   0.00    0.0
2158 455465.000   22.301371323  114.187710674     5.3269   2   5   0.7205   0.6261   1.4567  -0.5778  -0.6983   0.5596   0.00    0.0
2158 455466.000   22.301363989  114.187709761     7.2444   2   4   0.6900   0.6060   1.4756  -0.5553  -0.6894   0.5773   0.00    0.0
2158 455467.000   22.301307914  114.187743375    10.8257   2   4   0.6029   0.5681   1.4724  -0.4932  -0.7181   0.6574   0.00    0.0
2158 455468.000   22.301283946  114.187763746     5.1973   2   4   0.6067   0.5156   1.2262  -0.4648  -0.5415   0.5146   0.00    0.0
2158 455469.000   22.301291024  114.187763767     2.4584   2   8   0.5896   0.5001   1.0917  -0.4499  -0.4838   0.4910   0.00    0.0
2158 455470.000   22.301312665  114.187744199     4.6185   2   7   0.6119   0.5241   1.0663  -0.4776  -0.4868   0.4995   0.00    0.0
2158 455471.000   22.301290363  114.187770171     2.5031   2   6   0.5712   0.4666   1.0332  -0.4188  -0.4268   0.4467   0.00    0.0
2158 455472.000   22.301309917  114.187751936     2.3766   2   7   0.6084   0.5110   1.0429  -0.4677  -0.4536   0.4720   0.00    0.0
2158 455473.000   22.301312187  114.187751350     1.6779   2   6   0.5970   0.4910   1.0443  -0.4485  -0.4382   0.4574   0.00    0.0
2158 455474.000   22.301319835  114.187742618     0.5987   2   4   0.5929   0.4742   1.1125  -0.4260  -0.4079   0.4192   0.00    0.0
2158 455475.000   22.301316647  114.187739453     0.4462   2   6   0.7768   0.7253   1.1654  -0.6824  -0.6561   0.6555   0.00    0.0
2158 455476.000   22.301336671  114.187712486     3.0107   4   2   1.0977   0.8822   1.5469  -0.6155  -0.5239   0.7593   0.00    0.0
2158 455477.000   22.301355336  114.187705826     1.5692   4   2   1.1171   0.7119   1.9114  -0.4122   0.1203   0.5684   0.00    0.0
2158 455478.000   22.301334802  114.187687045     5.0039   4   2   1.1502   0.8800   1.9196  -0.6180  -0.3405   0.8094   0.00    0.0
2158 455479.000   22.301320985  114.187715504     5.1678   4   0   1.1412   0.9015   1.8637  -0.6411  -0.6101   0.9648   0.00    0.0
2158 455480.000   22.301350199  114.187712804     5.9039   4   2   0.9616   0.4325   1.6767  -0.2329  -0.5535   0.8378   0.00    0.0
2158 455481.000   22.301449583  114.187749773     7.0718   4   3   0.2774   0.3632   1.0452   0.2733   0.5730   0.5016   0.00    0.0
2158 455482.000   22.301461145  114.187788133     6.4614   4   3   0.2275   0.2995   0.7356   0.2054   0.4187   0.3655   0.00    0.0
2158 455483.000   22.301476184  114.187836512     6.0395   4   3   0.2406   0.3230   0.7943   0.2277   0.4615   0.3964   0.00    0.0
2158 455484.000   22.301496088  114.187892481     6.5285   4   3   0.2283   0.2972   0.7395   0.2057   0.4200   0.3677   0.00    0.0
2158 455485.000   22.301522530  114.187950888     7.2881   2   5   0.2257   0.2914   0.7259   0.2009   0.4101   0.3611   0.00    0.0
2158 455486.000   22.301549535  114.188006809     7.0386   2   5   0.2289   0.2900   0.7279   0.2027   0.4095   0.3654   0.00    0.0
2158 455487.000   22.301578494  114.188060762     6.9786   2   6   0.2850   0.3939   0.9227   0.2935   0.5639   0.4791   0.00    0.0
2158 455488.000   22.301612853  114.188117052     8.5550   2   4   0.3132   0.4316   1.0447   0.3304   0.6366   0.5416   0.00    0.0
2158 455489.000   22.301662079  114.188163610    11.8120   4   0   0.1679   0.6766   1.1602   0.2261   0.8572   0.3359   0.00    0.0
2158 455490.000   22.301692543  114.188216963    13.7266   4   0   0.1608   0.5649   0.9873   0.1849   0.7129   0.2909   0.00    0.0
2158 455491.000   22.301718991  114.188267785    15.6618   2   5   0.1391   0.1676   0.3804  -0.0459   0.1354   0.1425   0.00    0.0
2158 455492.000   22.301748097  114.188293367    15.8504   2   5   0.1454   0.1731   0.3814  -0.0599   0.1364   0.1446   0.00    0.0
2158 455493.000   22.301761468  114.188321393    15.7572   2   8   0.1376   0.1668   0.3749  -0.0481   0.1320   0.1384   0.00    0.0
2158 455494.000   22.301772467  114.188335237    15.7869   2   9   0.1375   0.1663   0.3739  -0.0484   0.1306   0.1382   0.00    0.0
2158 455495.000   22.301777929  114.188340688    15.7251   2   8   0.1376   0.1662   0.3739  -0.0483   0.1304   0.1383   0.00    0.0
2158 455496.000   22.301778510  114.188341538    15.7087   2   8   0.1377   0.1663   0.3739  -0.0487   0.1304   0.1383   0.00    0.0
2158 455497.000   22.301778575  114.188341937    15.8036   2   8   0.1378   0.1662   0.3739  -0.0485   0.1301   0.1386   0.00    0.0
2158 455498.000   22.301778536  114.188341856    15.7818   2   8   0.1378   0.1662   0.3738  -0.0485   0.1300   0.1386   0.00    0.0
2158 455499.000   22.301778501  114.188341860    15.7614   2   9   0.1379   0.1661   0.3738  -0.0487   0.1298   0.1387   0.00    0.0
2158 455500.000   22.301778391  114.188341936    15.7260   2   9   0.1381   0.1663   0.3744  -0.0488   0.1301   0.1391   0.00    0.0
2158 455501.000   22.301778323  114.188341887    15.6969   2   9   0.1381   0.1663   0.3742  -0.0488   0.1302   0.1390   0.00    0.0
2158 455502.000   22.301778356  114.188341961    15.7040   2  10   0.1381   0.1661   0.3730  -0.0497   0.1290   0.1383   0.00    0.0
2158 455503.000   22.301778388  114.188342190    15.7575   2   9   0.1387   0.1665   0.3750  -0.0489   0.1304   0.1399   0.00    0.0
2158 455504.000   22.301778265  114.188342267    15.7373   2  10   0.1382   0.1662   0.3728  -0.0503   0.1288   0.1381   0.00    0.0
2158 455505.000   22.301778139  114.188342269    15.7208   2  10   0.1383   0.1663   0.3727  -0.0505   0.1288   0.1381   0.00    0.0
2158 455506.000   22.301778046  114.188342233    15.7150   2   9   0.1384   0.1663   0.3727  -0.0506   0.1289   0.1382   0.00    0.0
2158 455507.000   22.301778056  114.188342382    15.7111   2   9   0.1384   0.1663   0.3727  -0.0506   0.1288   0.1382   0.00    0.0
2158 455508.000   22.301778034  114.188342596    15.7205   2   8   0.1386   0.1666   0.3736  -0.0505   0.1294   0.1388   0.00    0.0
2158 455509.000   22.301778037  114.188342557    15.7262   2   9   0.1385   0.1666   0.3733  -0.0506   0.1292   0.1386   0.00    0.0
2158 455510.000   22.301777992  114.188342555    15.7149   2   8   0.1386   0.1666   0.3735  -0.0504   0.1295   0.1387   0.00    0.0
2158 455511.000   22.301777964  114.188342582    15.7197   2   9   0.1386   0.1666   0.3733  -0.0506   0.1293   0.1386   0.00    0.0
2158 455512.000   22.301777923  114.188342577    15.7107   2   9   0.1385   0.1666   0.3732  -0.0505   0.1294   0.1385   0.00    0.0
2158 455513.000   22.301777870  114.188342496    15.6936   2   8   0.1386   0.1666   0.3734  -0.0503   0.1296   0.1388   0.00    0.0
2158 455514.000   22.301777915  114.188342601    15.7226   2   9   0.1385   0.1665   0.3731  -0.0504   0.1294   0.1386   0.00    0.0
2158 455515.000   22.301777880  114.188342705    15.7379   2   9   0.1385   0.1665   0.3731  -0.0503   0.1295   0.1386   0.00    0.0
2158 455516.000   22.301777880  114.188342748    15.7566   2   9   0.1385   0.1665   0.3732  -0.0502   0.1295   0.1386   0.00    0.0
2158 455517.000   22.301778018  114.188342780    15.7932   2  10   0.1382   0.1664   0.3727  -0.0502   0.1293   0.1382   0.00    0.0
2158 455518.000   22.301777989  114.188342984    15.8067   2  10   0.1384   0.1664   0.3731  -0.0496   0.1297   0.1388   0.00    0.0
2158 455519.000   22.301778018  114.188342946    15.8312   2   9   0.1383   0.1663   0.3732  -0.0493   0.1298   0.1389   0.00    0.0
2158 455520.000   22.301778113  114.188343205    15.9033   2  10   0.1382   0.1662   0.3731  -0.0491   0.1298   0.1389   0.00    0.0
2158 455521.000   22.301778134  114.188343020    15.8791   2  10   0.1381   0.1662   0.3731  -0.0488   0.1299   0.1389   0.00    0.0
2158 455522.000   22.301778231  114.188343051    15.8914   2  10   0.1381   0.1661   0.3730  -0.0485   0.1300   0.1389   0.00    0.0
2158 455523.000   22.301778336  114.188343119    15.8943   2  10   0.1380   0.1660   0.3730  -0.0481   0.1301   0.1389   0.00    0.0
2158 455524.000   22.301780468  114.188346359    16.0377   2   9   0.1380   0.1677   0.3743  -0.0472   0.1331   0.1393   0.00    0.0
2158 455525.000   22.301787536  114.188361865    17.0941   2   9   0.1379   0.1786   0.3804  -0.0463   0.1482   0.1396   0.00    1.2
2158 455526.000   22.301802948  114.188357108    14.6784   2   6   0.1399   0.1417   0.3682  -0.0424   0.0979   0.1462   0.00    0.0
2158 455527.000   22.301825144  114.188380106    14.4648   2   7   0.1376   0.1407   0.3595  -0.0469   0.0916   0.1389   0.00    1.1
2158 455528.000   22.301860703  114.188420208    17.6095   2   5   0.1421   0.1518   0.3953  -0.0197   0.1323   0.1580   0.00    1.1
2158 455529.000   22.301896556  114.188450169    17.3497   2   5   0.1438   0.1538   0.4028   0.0083   0.1392   0.1627   0.00    1.4
2158 455530.000   22.301937860  114.188486045    18.6814   2   5   0.1699   0.1596   0.4196   0.0448   0.1492   0.1483   0.00    1.1
2158 455531.000   22.301986039  114.188512745    17.1689   4   3   0.1717   0.1557   0.4100   0.0455   0.1380   0.1484   0.00    0.0
2158 455532.000   22.302040108  114.188527171    12.6445   4   2   0.1403   0.1359   0.3543  -0.0355   0.0756   0.1533   0.00    0.0
2158 455533.000   22.302096402  114.188553295    12.4444   4   3   0.1400   0.1354   0.3518  -0.0373   0.0720   0.1520   0.00    0.0
2158 455534.000   22.302156400  114.188576826    13.2628   4   2   0.1426   0.1365   0.3652  -0.0306   0.0826   0.1606   0.00    0.0
2158 455535.000   22.302208989  114.188593235    12.1946   2   6   0.1390   0.1355   0.3510  -0.0379   0.0723   0.1503   0.00    1.0
2158 455536.000   22.302260739  114.188607216    12.1308   2   5   0.1388   0.1353   0.3503  -0.0385   0.0711   0.1497   0.00    1.7
2158 455537.000   22.302308405  114.188618258    12.1645   2   4   0.1388   0.1353   0.3496  -0.0389   0.0704   0.1493   0.00    1.3
2158 455538.000   22.302352155  114.188627238    12.1861   4   3   0.1387   0.1349   0.3483  -0.0395   0.0684   0.1487   0.00    0.0
2158 455539.000   22.302387307  114.188633413    12.1278   2   5   0.1395   0.1352   0.3487  -0.0380   0.0695   0.1494   0.00    1.2
2158 455540.000   22.302411862  114.188637237    12.1794   4   3   0.1398   0.1353   0.3491  -0.0374   0.0701   0.1499   0.00    0.0
2158 455541.000   22.302426226  114.188639091    12.0074   4   0   0.1416   0.1358   0.3598  -0.0376   0.0701   0.1566   0.00    0.0
2158 455542.000   22.302434057  114.188639892    11.9290   4   0   0.1405   0.1356   0.3529  -0.0360   0.0732   0.1526   0.00    0.0
2158 455543.000   22.302437588  114.188640420    12.0213   4   0   0.1398   0.1351   0.3513  -0.0389   0.0705   0.1506   0.00    0.0
2158 455544.000   22.302436678  114.188639071    11.5634   4   0   0.1880   0.1361   0.6531  -0.0185   0.0995   0.3031   0.00    0.0
2158 455545.000   22.302437860  114.188640581    12.1121   4   0   0.1395   0.1349   0.3504  -0.0395   0.0692   0.1500   0.00    0.0
2158 455546.000   22.302437358  114.188640468    11.9444   4   2   0.1412   0.1351   0.3602  -0.0364   0.0751   0.1560   0.00    0.0
2158 455547.000   22.302437829  114.188640312    12.0651   4   3   0.1389   0.1349   0.3490  -0.0392   0.0694   0.1488   0.00    0.0
2158 455548.000   22.302437832  114.188640397    12.0913   4   0   0.1393   0.1348   0.3493  -0.0394   0.0686   0.1494   0.00    0.0
2158 455549.000   22.302437855  114.188640484    12.0958   4   2   0.1392   0.1346   0.3489  -0.0398   0.0679   0.1492   0.00    0.0
2158 455550.000   22.302437787  114.188640654    12.1035   4   0   0.1390   0.1345   0.3485  -0.0403   0.0671   0.1488   0.00    0.0
2158 455551.000   22.302437792  114.188640706    12.0952   4   0   0.1391   0.1345   0.3485  -0.0402   0.0672   0.1488   0.00    0.0
2158 455552.000   22.302437884  114.188640700    12.1741   4   0   0.1390   0.1345   0.3483  -0.0404   0.0668   0.1487   0.00    0.0
2158 455553.000   22.302437701  114.188640770    12.1499   4   0   0.1391   0.1345   0.3484  -0.0403   0.0669   0.1487   0.00    0.0
2158 455554.000   22.302437714  114.188640719    12.1301   4   0   0.1391   0.1345   0.3484  -0.0403   0.0669   0.1487   0.00    0.0
2158 455555.000   22.302437680  114.188640849    12.1317   4   0   0.1391   0.1345   0.3484  -0.0402   0.0668   0.1488   0.00    0.0
2158 455556.000   22.302437681  114.188640971    12.1544   4   0   0.1395   0.1348   0.3492  -0.0403   0.0674   0.1494   0.00    0.0
2158 455557.000   22.302437855  114.188641011    12.2032   4   0   0.1395   0.1347   0.3492  -0.0401   0.0673   0.1494   0.00    0.0
2158 455558.000   22.302437426  114.188640798    12.0637   4   0   0.1391   0.1346   0.3494  -0.0402   0.0678   0.1490   0.00    0.0
2158 455559.000   22.302437532  114.188640954    12.1374   4   0   0.1391   0.1345   0.3486  -0.0402   0.0671   0.1489   0.00    0.0
2158 455560.000   22.302437563  114.188641126    12.1220   4   0   0.1405   0.1348   0.3560  -0.0387   0.0709   0.1534   0.00    0.0
2158 455561.000   22.302437830  114.188641195    12.1773   4   0   0.1405   0.1348   0.3561  -0.0386   0.0711   0.1534   0.00    0.0
2158 455562.000   22.302437977  114.188641212    12.1297   4   0   0.1395   0.1347   0.3495  -0.0400   0.0675   0.1497   0.00    0.0
2158 455563.000   22.302441890  114.188641411    12.1929   4   0   0.1395   0.1346   0.3494  -0.0402   0.0671   0.1496   0.00    0.0
2158 455564.004   22.302451370  114.188642452    12.1898   4   0   0.1390   0.1345   0.3487  -0.0399   0.0670   0.1492   0.00    0.0
2158 455565.000   22.302470779  114.188643360    12.2019   4   0   0.1389   0.1345   0.3489  -0.0399   0.0673   0.1493   0.00    0.0
2158 455566.000   22.302499070  114.188642255    12.1843   4   0   0.1387   0.1346   0.3497  -0.0401   0.0671   0.1494   0.00    0.0
2158 455567.000   22.302535475  114.188638530    12.1016   4   0   0.1410   0.1352   0.3618  -0.0361   0.0750   0.1570   0.00    0.0
2158 455568.000   22.302579473  114.188630604    12.1091   4   0   0.1385   0.1347   0.3499  -0.0401   0.0671   0.1494   0.00    0.0
2158 455569.000   22.302623937  114.188600798    12.8210   4   0   0.2732   0.6285   0.4557   0.3774  -0.4054  -0.2002   0.00    0.0
2158 455570.000   22.302682354  114.188599811    11.8647   4   0   0.1379   0.1344   0.3485  -0.0404   0.0658   0.1486   0.00    0.0
2158 455571.000   22.302737381  114.188579407    11.7150   2   9   0.1379   0.1418   0.3687  -0.0421  -0.0316   0.1505   0.00    1.1
2158 455572.000   22.302794882  114.188514317    13.1373   2   8   0.1398   0.5024   0.3918  -0.0879  -0.2650   0.1608   0.00    0.0
2158 455573.000   22.302845238  114.188491174    12.7341   2   5   0.1922   0.4789   0.3862   0.2153  -0.2403   0.1017   0.00    0.0
2158 455574.000   22.302905794  114.188459620    12.5587   2   8   0.2126   0.4689   0.3841   0.2274  -0.2323   0.0964   0.00    0.0
2158 455575.000   22.302969098  114.188430820    12.0293   2  11   0.1391   0.3169   0.3734  -0.0562  -0.1463   0.1556   0.00    1.2
2158 455576.000   22.303020007  114.188371438    12.2630   2   7   0.2107   0.4795   0.3896   0.2320  -0.2407   0.0927   0.00    0.0
2158 455577.000   22.303057789  114.188283532    12.1659   2   6   0.3799   0.8189   0.3983   0.5140  -0.3453  -0.1450   0.00    0.0
2158 455578.000   22.303098304  114.188194484     8.6563   4   0   0.8383   1.0572   0.9905   0.4249  -0.3393   0.3468   0.00    0.0
2158 455579.000   22.303154667  114.188179461     1.9418   4   0   0.7949   0.9726   1.3789   0.4168  -0.6662   0.6072   0.00    0.0
2158 455580.000   22.303220418  114.188131823     0.2788   2   5   0.6127   0.9010   1.4458   0.4681  -0.6205   0.4221   0.00    0.0
2158 455581.000   22.303264751  114.187999861     6.4344   2   5   0.6274   0.8971   1.3902   0.4947  -0.5823   0.3786   0.00    0.0
2158 455582.000   22.303315437  114.187906495     6.7010   2   6   0.5767   0.9849   1.2957   0.5202  -0.7337   0.2312   0.00    0.0
2158 455583.000   22.303371580  114.187822926     6.7633   2   5   0.6120   1.0078   1.3416   0.5468  -0.6911   0.3013   0.00    0.0
2158 455584.000   22.303440174  114.187746010     7.0060   4   2   0.8398   1.1329   1.5341   0.4513  -0.7992   0.5447   0.00    0.0
2158 455585.000   22.303510207  114.187685928     4.7637   4   2   0.7568   1.0723   1.5761   0.6483  -0.7343   0.5450   0.00    0.0
2158 455586.000   22.303583988  114.187605496     5.6725   4   0   0.9739   1.1333   1.8416   0.4545  -0.9446   0.9391   0.00    0.0
2158 455587.000   22.303621417  114.187534504     4.1992   4   0   1.0788   1.2997   2.4223   0.5965  -0.6703   1.1017   0.00    0.0
2158 455588.000   22.303647648  114.187512580     4.0278   4   0   1.4470   1.4718   3.3255   0.7702  -0.7790   1.5239   0.00    0.0
2158 455589.004   22.303657225  114.187509098    -1.4227   4   0   1.7975   2.3212   4.3676   1.2201  -1.0197   1.9037   0.00    0.0
2158 455590.000   22.303636203  114.187213548    -5.8578   4   0   1.6167   2.1249   3.7916   1.2565   1.0504   1.9402   0.00    0.0
2158 455591.000   22.303806343  114.187119537    18.3497   4   0   1.3701   1.3668   3.2042   0.7903   0.5986   1.6213   0.00    0.0
2158 455592.000   22.303869843  114.186907161    36.6843   4   2   1.2906   1.4489   3.1643   0.8407   0.9424   1.6080   0.00    0.0
2158 455593.000   22.303929344  114.186760437    58.9612   2   4   1.2244   1.2383   3.0424   0.5846   0.6792   1.5351   0.00    0.0
2158 455594.000   22.303954171  114.186648662    52.0517   4   0   1.4131   1.3591   3.1291   0.8308   1.0414   1.7241   0.00    0.0
2158 455595.000   22.304017747  114.186615886    45.5796   4   0   1.1631   1.0599   2.2562   0.0717  -0.5956   1.2066   0.00    0.0
2158 455596.000   22.304128391  114.186798483    16.8239   4   0   1.2085   1.3937   1.5316   0.4769  -1.1835   1.0241   0.00    0.0
2158 455597.000   22.304153338  114.186755350    14.7535   4   2   1.1920   1.4657   1.5571   0.5208  -1.2383   0.9964   0.00    0.0
2158 455598.000   22.304129504  114.186718860     9.3069   4   3   0.7333   1.1291   1.2901  -0.1940  -1.0378   0.7211   0.00    0.0
2158 455599.000   22.304160319  114.186697993     8.0381   2   5   0.4868   1.2127   0.9448   0.7074  -0.9053  -0.4197   0.00    0.0
2158 455600.000   22.304185445  114.186659431     8.2110   2   4   0.3647   0.7130   1.5624   0.2960  -0.8064   0.4839   0.00    0.0
2158 455601.000   22.304207246  114.186631386     8.4754   2   4   0.4593   1.0926   0.8918   0.6420  -0.8065  -0.3462   0.00    0.0
2158 455602.000   22.304248780  114.186605155    11.1907   4   3   0.8426   0.6509   1.0391   0.2023  -0.5639   0.7608   0.00    0.0
2158 455603.000   22.304243545  114.186591321     8.4997   2   7   0.3381   0.6562   0.7584   0.3729  -0.4913   0.1654   0.00    0.0
2158 455604.000   22.304266191  114.186577592     8.5159   2   5   0.3410   0.6793   0.7648   0.3855  -0.5089   0.1442   0.00    0.0
2158 455605.000   22.304285073  114.186544949     9.3896   2   4   0.3604   0.7141   0.7477   0.4211  -0.5024   0.1244   0.00    0.0
2158 455606.000   22.304297097  114.186497128    10.7348   2   6   0.2704   0.3382   0.6840   0.1656  -0.2501   0.2956   0.00    0.0
2158 455607.000   22.304315884  114.186475694    11.1449   2   7   0.2618   0.2833   0.6757   0.1233  -0.2103   0.3055   0.00    0.0
2158 455608.000   22.304335253  114.186455875    11.3569   2   7   0.2630   0.2896   0.6756   0.1298  -0.2125   0.3043   0.00    0.0
2158 455609.000   22.304353274  114.186439008    11.5338   2   7   0.2667   0.3071   0.6759   0.1468  -0.2190   0.3017   0.00    0.0
2158 455610.000   22.304366398  114.186423752    11.6403   2   7   0.2557   0.2625   0.6741   0.0971  -0.1988   0.3081   0.00    0.0
2158 455611.000   22.304376650  114.186411627    11.8044   2   9   0.2558   0.2632   0.6746   0.0979  -0.2002   0.3077   0.00    0.0
2158 455612.000   22.304384705  114.186401997    11.9014   2   9   0.2562   0.2651   0.6749   0.1000  -0.2014   0.3072   0.00    0.0
2158 455613.000   22.304391323  114.186395730    11.8383   2   9   0.2563   0.2640   0.6736   0.1007  -0.1997   0.3064   0.00    0.0
2158 455614.000   22.304396165  114.186390293    11.8124   2   9   0.2566   0.2641   0.6737   0.1014  -0.1997   0.3061   0.00    0.0
2158 455615.000   22.304398541  114.186387821    11.8494   2   9   0.2568   0.2642   0.6737   0.1022  -0.1999   0.3058   0.00    0.0
2158 455616.000   22.304399092  114.186386882    11.8574   2   9   0.2571   0.2644   0.6738   0.1028  -0.2000   0.3056   0.00    0.0
2158 455617.000   22.304399221  114.186386639    11.9094   2   9   0.2572   0.2645   0.6740   0.1033  -0.2001   0.3055   0.00    0.0
2158 455618.000   22.304399076  114.186386457    11.9430   2   9   0.2573   0.2646   0.6738   0.1037  -0.2001   0.3051   0.00    0.0
2158 455619.000   22.304399032  114.186386330    11.9553   2   8   0.2574   0.2648   0.6740   0.1041  -0.2003   0.3049   0.00    0.0
2158 455620.000   22.304398938  114.186386093    11.9852   2  11   0.2574   0.2645   0.6737   0.1042  -0.1999   0.3048   0.00    0.0
2158 455621.000   22.304398910  114.186386087    12.0004   2  10   0.2574   0.2646   0.6739   0.1043  -0.2000   0.3047   0.00    0.0
2158 455622.000   22.304398899  114.186385951    11.9868   2   9   0.2573   0.2645   0.6739   0.1043  -0.1998   0.3047   0.00    0.0
2158 455623.000   22.304399132  114.186386114    11.9606   2  10   0.2572   0.2641   0.6735   0.1042  -0.1990   0.3046   0.00    0.0
2158 455624.000   22.304400330  114.186385139    11.9202   2   9   0.2571   0.2639   0.6735   0.1038  -0.1986   0.3048   0.00    0.0
2158 455625.000   22.304403134  114.186382173    11.9206   2   8   0.2569   0.2638   0.6737   0.1034  -0.1986   0.3049   0.00    0.0
2158 455626.000   22.304408413  114.186377230    11.9298   2   8   0.2567   0.2635   0.6737   0.1029  -0.1981   0.3050   0.00    0.0
2158 455627.000   22.304412599  114.186372484    11.9868   2   9   0.2558   0.2629   0.6709   0.1017  -0.1979   0.3036   0.00    0.0
2158 455628.000   22.304414017  114.186371240    11.9249   2  11   0.2553   0.2625   0.6710   0.1007  -0.1976   0.3039   0.00    0.0
2158 455629.000   22.304416371  114.186369105    11.8768   2  11   0.2550   0.2622   0.6707   0.0999  -0.1970   0.3040   0.00    0.0
2158 455630.000   22.304423022  114.186362433    11.8130   2  10   0.2544   0.2622   0.6698   0.0991  -0.1969   0.3035   0.00    0.0
2158 455631.000   22.304437212  114.186347103    11.7802   2   8   0.2543   0.2631   0.6712   0.0993  -0.1975   0.3041   0.00    0.0
2158 455632.000   22.304459044  114.186323157    11.9408   2  10   0.2539   0.2633   0.6706   0.0989  -0.1966   0.3044   0.00    0.0
2158 455633.000   22.304487117  114.186292662    11.9637   2   9   0.2541   0.2645   0.6741   0.0991  -0.1978   0.3060   0.00    0.0
2158 455634.000   22.304522131  114.186258506    11.8835   2   8   0.2563   0.2760   0.6729   0.1121  -0.1928   0.3072   0.00    0.0
2158 455635.000   22.304559480  114.186213221    12.1966   2   7   0.2828   0.4388   0.6956   0.2307  -0.3086   0.2734   0.00    0.0
2158 455636.000   22.304598567  114.186168811    12.0624   2   9   0.2557   0.2732   0.6724   0.1097  -0.1893   0.3079   0.00    0.0
2158 455637.000   22.304635420  114.186124134    12.0873   2   8   0.2557   0.2751   0.6724   0.1111  -0.1878   0.3083   0.00    0.0
2158 455638.000   22.304670945  114.186082281    12.1660   2   8   0.2569   0.2797   0.6730   0.1166  -0.1849   0.3095   0.00    0.0
2158 455639.000   22.304702135  114.186038561    12.2211   2   6   0.2547   0.2754   0.6735   0.1089  -0.1866   0.3096   0.00    0.0
2158 455640.000   22.304736660  114.186001125    12.2382   2   7   0.2554   0.2793   0.6737   0.1133  -0.1849   0.3101   0.00    0.0
2158 455641.000   22.304768707  114.185961139    12.3077   2   5   0.2553   0.2816   0.6758   0.1147  -0.1893   0.3090   0.00    0.0
2158 455642.000   22.304807872  114.185934577    12.3759   2   5   0.2550   0.2803   0.6742   0.1134  -0.1882   0.3086   0.00    0.0
2158 455643.000   22.304848697  114.185918331    12.3776   2   5   0.2555   0.2820   0.6749   0.1155  -0.1864   0.3094   0.00    0.0
2158 455644.000   22.304890609  114.185923096    12.2229   2   6   0.2548   0.2818   0.6770   0.1133  -0.1901   0.3091   0.00    0.0
2158 455645.000   22.304927956  114.185944919    11.8034   2   8   0.2515   0.2653   0.6839   0.0942  -0.1849   0.3121   0.00    0.0
2158 455646.000   22.304948782  114.185947677    10.7825   2   5   0.4291   0.6446   0.7916   0.4609   0.4625   0.4936   0.00    0.0
2158 455647.000   22.304968594  114.186001739     8.9361   4   2   0.8076   0.8508   1.3875  -0.3230   0.5369   0.9073   0.00    0.0
2158 455648.000   22.304994395  114.186057414     8.5617   2   4   0.9789   0.8367   2.1555  -0.3403   0.6081   1.3057   0.00    0.0
2158 455649.000   22.305004175  114.186142074     7.1456   4   2   1.1370   0.9311   2.6023  -0.5417   0.3484   1.5773   0.00    0.0
2158 455650.000   22.305033250  114.186155779    14.0699   4   0   1.2575   1.0624   2.7937   0.2030  -0.4875   1.4826   0.00    0.0
2158 455651.000   22.305067733  114.186169951    18.9903   4   0   1.2714   1.1141   2.8673   0.1765  -0.5057   1.4634   0.00    0.0
2158 455652.000   22.305095864  114.186182199    22.9301   4   0   1.2385   1.0581   2.8430   0.1969  -0.3209   1.4431   0.00    0.0
2158 455653.000   22.305151437  114.186229446    27.0251   4   0   1.2413   1.0587   2.8534   0.2023  -0.3165   1.4491   0.00    0.0
2158 455654.000   22.305185581  114.186291478    22.3839   4   0   1.2548   1.1050   2.9175  -0.1127  -0.5215   1.4880   0.00    0.0
2158 455655.000   22.305220911  114.186356502    21.2938   4   0   1.2703   1.1054   3.0731  -0.4312  -0.7045   1.6110   0.00    0.0
2158 455656.000   22.305248320  114.186445142    11.7895   4   0   1.2819   1.1625   3.0265  -0.2911  -0.7090   1.5571   0.00    0.0
2158 455657.000   22.305226628  114.186475270    -0.4369   4   0   1.4908   1.2015   3.3218  -0.5567  -0.9595   1.8633   0.00    0.0
2158 455658.000   22.305223014  114.186484236    -6.0945   4   0   1.3280   1.1715   3.0565  -0.3642  -0.7509   1.6094   0.00    0.0
2158 455659.000   22.305292340  114.186484126    -6.5081   4   0   1.2441   1.0562   2.8797   0.0457   0.3181   1.4404   0.00    0.0
2158 455660.000   22.305407051  114.186393933     6.0853   4   2   1.1736   0.9971   2.7834   0.3386   0.5831   1.3473   0.00    0.0
2158 455661.000   22.305449626  114.186332110     9.8655   2   5   0.9768   1.0118   2.8292   0.5435   0.4803   1.1999   0.00    0.0
2158 455662.000   22.305452545  114.186280774    13.5967   4   2   1.0192   1.2205   3.0623   0.7138  -0.7792   1.1011   0.00    0.0
2158 455663.000   22.305462252  114.186253375    16.2688   4   2   1.0583   1.3034   3.1459   0.8035  -0.9237   0.9250   0.00    0.0
2158 455664.000   22.305489313  114.186239650    13.8760   4   2   1.2652   1.3257   3.1209   0.6986  -0.9878   1.1427   0.00    0.0
2158 455665.000   22.305515228  114.186234807     5.8853   4   2   1.3052   1.2603   3.0735   0.6785  -0.8175   1.1957   0.00    0.0
2158 455666.000   22.305580199  114.186239270     0.6982   4   0   1.3888   1.3113   3.1099   0.7897  -0.8963   1.1321   0.00    0.0
2158 455667.000   22.305621518  114.186207947    -1.7979   4   0   1.3890   1.3117   3.1111   0.7898  -0.8997   1.1278   0.00    0.0
2158 455668.000   22.305655775  114.186145579    -3.2428   4   2   1.3839   1.2889   3.0989   0.7626  -0.9527   1.0983   0.00    0.0
2158 455669.000   22.305657497  114.186096263     2.2202   4   0   1.3941   1.4176   3.2756   0.8083  -1.1037   1.1170   0.00    0.0
2158 455670.000   22.305682145  114.186058949     9.8345   4   2   1.5288   2.0582   3.6618   1.3032  -1.2589   1.1415   0.00    0.0
2158 455671.000   22.305720248  114.186072525    23.5157   4   2   1.2827   2.0560   3.4825   1.4637  -1.0787   0.6639   0.00    0.0
2158 455672.000   22.305799386  114.186049923    34.7208   4   2   1.2788   2.1129   3.7702   1.3324  -1.4453   1.1213   0.00    0.0
2158 455673.000   22.305811420  114.186058359    40.7589   2   4   1.0269   1.6703   3.2622   1.0899  -1.4409   0.2447   0.00    0.0
2158 455674.000   22.305874031  114.185993134    56.2542   4   0   1.3610   2.0930   4.0875   0.9188  -2.2697   1.0051   0.00    0.0
2158 455675.000   22.305898068  114.186025279    50.2131   4   0   1.3979   2.1478   4.2891   0.9163  -2.4058   1.0063   0.00    0.0
2158 455676.000   22.305937663  114.186058390    37.2408   4   0   1.3946   2.1665   4.3577   0.9104  -2.4562   1.0283   0.00    0.0
2158 455677.000   22.306098258  114.186333217    -2.9614   4   0   1.5633   2.5985   4.8720   1.3545  -3.0203  -0.6595   0.00    0.0
2158 455678.000   22.306202038  114.186487213   -31.7026   4   0   1.8010   2.7344   5.0870   1.5623  -3.2246  -1.2898   0.00    0.0
2158 455679.000   22.306275589  114.186556829   -48.6580   4   0   1.8264   2.7466   5.0910   1.5974  -3.2244  -1.3607   0.00    0.0
2158 455680.000   22.306228729  114.186466325   -49.8560   4   0   1.8320   3.1968   4.7161   1.9759  -3.0063  -1.0385   0.00    0.0
2158 455681.000   22.306227971  114.186397518   -33.4886   4   2   1.6739   3.0742   4.0025   2.0043  -2.5450  -0.8445   0.00    0.0
2158 455682.000   22.306253397  114.186384808   -23.7774   4   2   1.7060   3.0965   4.1815   1.9571  -2.6249  -0.5298   0.00    0.0
2158 455683.000   22.306279429  114.186373755   -15.4083   4   2   1.8126   3.1351   4.2477   1.8734  -2.7011   0.6154   0.00    0.0
2158 455684.000   22.306307813  114.186286423    -4.0541   4   0   1.7974   3.0655   4.1379   1.8231  -2.6105   0.7931   0.00    0.0
2158 455685.000   22.306268700  114.186060051    18.2012   4   0   1.5569   2.4636   3.9198   1.2804  -2.0528   1.4341   0.00    0.0
2158 455686.000   22.306301073  114.185986862    34.8224   4   0   1.6799   2.4767   4.3914   1.1374  -2.2129   1.8329   0.00    0.0
2158 455687.000   22.306326488  114.185947286    43.8637   4   0   1.6903   2.4826   4.5379   1.1181  -2.2443   1.8856   0.00    0.0
2158 455688.000   22.306337118  114.185917719    49.5423   4   0   1.6841   2.4796   4.5308   1.1157  -2.2444   1.8742   0.00    0.0
2158 455689.000   22.306353812  114.185870700    55.8594   4   0   1.6400   2.4217   4.3242   1.1033  -2.1630   1.7617   0.00    0.0
2158 455690.000   22.306331858  114.185740540    56.2853   4   0   1.3799   1.8766   3.7156   0.5290  -1.9112   1.4703   0.00    0.0
2158 455691.000   22.306247070  114.185467491    54.0982   4   0   1.3564   1.7208   2.8576   0.5835  -1.4207   1.3136   0.00    0.0
2158 455692.000   22.306174056  114.185237172    51.3268   2   4   1.3263   1.3261   2.5564  -0.3473  -1.5139   1.3366   0.00    0.0
2158 455693.000   22.306189324  114.185179447    57.9844   4   0   1.4620   1.5466   2.9021  -0.6423  -1.8139   1.6194   0.00    0.0
2158 455694.000   22.306199517  114.185127821    62.1386   4   2   1.3603   1.8687   2.8321   0.3848  -1.9701   1.2931   0.00    0.0
2158 455695.000   22.306217681  114.185097480    64.2606   4   0   1.4435   1.8937   2.9218   0.2083  -2.0109   1.4120   0.00    0.0
2158 455696.000   22.306173527  114.185112834    53.8327   4   2   1.2165   1.6600   2.3330   0.8240  -1.5774   0.7684   0.00    0.0
2158 455697.000   22.306122846  114.185085967    49.0054   2   4   0.8690   1.5774   1.8343   1.1572  -1.2265  -0.8567   0.00    0.0
2158 455698.000   22.306152668  114.185055722    40.3814   2   4   1.1585   2.0906   1.9874   1.5459  -1.0323  -0.6870   0.00    0.0
2158 455699.000   22.306270238  114.185080013    48.9107   4   3   1.5517   1.8132   2.1250   1.2314  -1.0757   1.1717   0.00    0.0
2158 455700.000   22.306252613  114.185061094    43.6299   2   4   1.0529   1.8934   1.9790   1.4006  -0.3130   0.2489   0.00    0.0
2158 455701.000   22.306267646  114.185008675    46.0742   2   4   1.0867   1.9461   2.1627   1.4432   0.6501   0.6006   0.00    0.0
2158 455702.000   22.306301403  114.185004137    46.9613   4   2   1.1041   1.9761   2.0596   1.4662   0.6608   0.6015   0.00    0.0
2158 455703.000   22.306334639  114.185014328    39.5669   4   2   0.8635   1.5579   2.2659   1.1459  -0.8980  -0.5643   0.00    0.0
2158 455704.000   22.306325781  114.184961719    21.1349   4   2   0.8649   1.5674   1.6907   1.1507  -1.0913  -0.7508   0.00    0.0
2158 455705.000   22.306332514  114.184952389    13.7064   2   4   0.9377   1.7074   1.1089   1.2529  -1.3000  -0.9282   0.00    0.0
2158 455706.000   22.306338244  114.184950654    13.9744   2   4   0.8283   1.5040   1.0238   1.1021  -1.1601  -0.8213   0.00    0.0
2158 455707.000   22.306339124  114.184947449    13.9907   2   4   0.6363   1.1467   0.8412   0.8358  -0.8814  -0.6038   0.00    0.0
2158 455708.000   22.306352972  114.184974562    12.5816   2   5   0.3462   0.5913   0.6143   0.4172  -0.4618  -0.2413   0.00    0.0
2158 455709.000   22.306352302  114.184973644    12.5600   2   5   0.3391   0.5783   0.6116   0.4067  -0.4540  -0.2328   0.00    0.0
2158 455710.000   22.306352427  114.184974100    12.5763   2   5   0.3364   0.5724   0.6093   0.4024  -0.4491  -0.2276   0.00    0.0
2158 455711.000   22.306352324  114.184973572    12.5530   2   5   0.3373   0.5743   0.6106   0.4038  -0.4513  -0.2300   0.00    0.0
2158 455712.000   22.306351360  114.184971712    12.7276   2   5   0.3444   0.5896   0.6203   0.4152  -0.4675  -0.2465   0.00    0.0
2158 455713.000   22.306339138  114.184946690    14.4734   2   5   0.4032   0.7104   0.6695   0.5055  -0.5643  -0.3371   0.00    0.0
2158 455714.000   22.306377809  114.185022644     9.8157   2   5   0.1794   0.1850   0.4947   0.0875  -0.0849   0.2257   0.00    0.0
2158 455715.000   22.306376742  114.185021176     9.7542   2   5   0.1785   0.1842   0.4942   0.0859  -0.0871   0.2248   0.00    0.0
2158 455716.000   22.306376713  114.185021386     9.6904   2   5   0.1786   0.1842   0.4944   0.0859  -0.0872   0.2249   0.00    0.0
2158 455717.000   22.306376801  114.185021180     9.7414   2   5   0.1786   0.1843   0.4943   0.0861  -0.0871   0.2248   0.00    0.0
2158 455718.000   22.306376754  114.185021283     9.7326   2   5   0.1787   0.1846   0.4945   0.0864  -0.0879   0.2245   0.00    0.0
2158 455719.000   22.306376762  114.185021403     9.7078   2   5   0.1787   0.1846   0.4943   0.0866  -0.0874   0.2245   0.00    0.0
2158 455720.000   22.306377222  114.185021903     9.5640   2   6   0.1755   0.1776   0.4811   0.0763  -0.0436   0.2328   0.00    0.0
2158 455721.000   22.306377290  114.185021939     9.5819   2   6   0.1755   0.1783   0.4821   0.0766  -0.0487   0.2326   0.00    0.0
2158 455722.000   22.306375662  114.185018692    10.3010   2   5   0.1805   0.1929   0.5083   0.0948  -0.1191   0.2175   0.00    0.0
2158 455723.000   22.306376973  114.185020474     9.6546   2   5   0.1911   0.2367   0.4828   0.1330  -0.0611   0.2313   0.00    0.0
2158 455724.000   22.306379308  114.185017633     9.6714   2   6   0.1755   0.1801   0.4853   0.0775  -0.0602   0.2322   0.00    0.0
2158 455725.000   22.306370707  114.184973295    17.6434   2   5   0.2118   0.3142   0.7533   0.1914  -0.3898  -0.1214   0.00    0.0
2158 455726.000   22.306346978  114.184931466    20.8805   2   4   0.8628   0.3905   1.0910   0.2305  -0.5391   0.6091   0.00    0.0
2158 455727.000   22.306418392  114.184950426     9.9849   2   5   0.1853   0.2142   0.4981   0.1145  -0.1492   0.2065   0.00    0.0
2158 455728.000   22.306436197  114.184891062    14.6600   4   3   0.2383   0.3668   0.9206   0.2397  -0.5027  -0.2712   0.00    0.0
2158 455729.000   22.306470730  114.184872542     9.9143   2   5   0.1753   0.1929   0.4806   0.0859  -0.0926   0.2249   0.00    0.0
2158 455730.000   22.306504469  114.184839533    10.5364   4   2   0.1872   0.2101   0.4843   0.1122  -0.0751   0.2317   0.00    0.0
2158 455731.000   22.306529519  114.184797851    10.6994   2   4   0.1851   0.2001   0.4843   0.1036  -0.0592   0.2344   0.00    0.0
2158 455732.000   22.306552957  114.184759975    10.8996   2   4   0.1833   0.1971   0.4823   0.0998  -0.0599   0.2332   0.00    0.0
2158 455733.000   22.306573436  114.184724672    11.2031   2   5   0.1828   0.1953   0.4819   0.0982  -0.0575   0.2333   0.00    0.0
2158 455734.000   22.306591638  114.184698105    11.1456   2   7   0.1821   0.1944   0.4819   0.0965  -0.0591   0.2330   0.00    0.0
2158 455735.000   22.306605944  114.184674293    11.2295   2   7   0.1793   0.1892   0.4795   0.0900  -0.0645   0.2305   0.00    0.0
2158 455736.000   22.306617918  114.184659331    11.0037   2   7   0.1797   0.1895   0.4805   0.0904  -0.0609   0.2312   0.00    0.0
2158 455737.000   22.306625148  114.184642100    11.1755   2   6   0.1810   0.1921   0.4811   0.0938  -0.0652   0.2308   0.00    0.0
2158 455738.000   22.306632438  114.184635080    11.0554   2   7   0.1803   0.1883   0.4806   0.0902  -0.0575   0.2320   0.00    0.0
2158 455739.000   22.306634832  114.184625505    11.2286   2   7   0.1802   0.1864   0.4802   0.0890  -0.0512   0.2326   0.00    0.0
2158 455740.000   22.306636078  114.184622298    11.1462   2   7   0.1803   0.1848   0.4800   0.0880  -0.0450   0.2334   0.00    0.0
2158 455741.000   22.306637362  114.184625983    10.8673   2   7   0.1750   0.1500   0.4750   0.0537   0.0762   0.2407   0.00    0.0
2158 455742.000   22.306636635  114.184625775    10.7330   2   7   0.1757   0.1501   0.4756   0.0549   0.0771   0.2411   0.00    0.0
2158 455743.000   22.306636213  114.184625531    10.7158   2   9   0.1762   0.1502   0.4758   0.0557   0.0772   0.2413   0.00    0.0
2158 455744.000   22.306636045  114.184625412    10.7868   2   7   0.1765   0.1502   0.4757   0.0563   0.0765   0.2412   0.00    0.0
2158 455745.000   22.306635776  114.184625407    10.7649   2   9   0.1767   0.1502   0.4755   0.0570   0.0771   0.2410   0.00    0.0
2158 455746.000   22.306635553  114.184625205    10.7657   2   8   0.1774   0.1506   0.4757   0.0582   0.0776   0.2413   0.00    0.0
2158 455747.000   22.306635286  114.184625256    10.7580   2   9   0.1780   0.1508   0.4761   0.0595   0.0785   0.2416   0.00    0.0
2158 455748.000   22.306634999  114.184625007    10.7454   2  10   0.1782   0.1508   0.4762   0.0596   0.0783   0.2416   0.00    0.0
2158 455749.000   22.306634643  114.184624857    10.7322   2   8   0.1785   0.1509   0.4763   0.0601   0.0784   0.2416   0.00    0.0
2158 455750.000   22.306634348  114.184624695    10.7309   2   9   0.1789   0.1511   0.4765   0.0608   0.0787   0.2418   0.00    0.0
2158 455751.000   22.306634087  114.184624472    10.7274   2   8   0.1792   0.1512   0.4766   0.0615   0.0789   0.2419   0.00    0.0
2158 455752.000   22.306633848  114.184624240    10.7067   2   9   0.1794   0.1513   0.4767   0.0618   0.0790   0.2418   0.00    0.0
2158 455753.000   22.306633438  114.184623745    10.6398   2   9   0.1798   0.1516   0.4773   0.0629   0.0802   0.2422   0.00    0.0
2158 455754.000   22.306633187  114.184623803    10.6277   2   8   0.1800   0.1515   0.4770   0.0631   0.0799   0.2420   0.00    0.0
2158 455755.000   22.306632917  114.184623552    10.6310   2   8   0.1802   0.1516   0.4771   0.0636   0.0801   0.2420   0.00    0.0
2158 455756.000   22.306632688  114.184623343    10.6260   2   9   0.1804   0.1517   0.4773   0.0640   0.0802   0.2421   0.00    0.0
2158 455757.000   22.306632433  114.184623079    10.6284   2   9   0.1806   0.1518   0.4774   0.0644   0.0804   0.2421   0.00    0.0
2158 455758.000   22.306632211  114.184622811    10.6277   2   9   0.1807   0.1519   0.4776   0.0648   0.0806   0.2422   0.00    0.0
2158 455759.000   22.306631962  114.184622644    10.6278   2  10   0.1809   0.1520   0.4778   0.0653   0.0809   0.2422   0.00    0.0
2158 455760.000   22.306631851  114.184622482    10.6277   2  10   0.1810   0.1521   0.4779   0.0656   0.0811   0.2422   0.00    0.0
2158 455761.000   22.306631740  114.184622367    10.6609   2  11   0.1810   0.1522   0.4780   0.0658   0.0811   0.2422   0.00    0.0
2158 455762.000   22.306631689  114.184622379    10.6860   2   8   0.1810   0.1523   0.4781   0.0661   0.0814   0.2421   0.00    0.0
2158 455763.000   22.306631740  114.184622294    10.7373   2   8   0.1808   0.1522   0.4780   0.0657   0.0808   0.2418   0.00    0.0
2158 455764.000   22.306631683  114.184622159    10.7634   2   8   0.1809   0.1522   0.4781   0.0660   0.0812   0.2419   0.00    0.0
2158 455765.000   22.306631335  114.184622149    10.7104   2   8   0.1810   0.1523   0.4784   0.0658   0.0809   0.2420   0.00    0.0
2158 455766.000   22.306631480  114.184622200    10.7460   2   8   0.1809   0.1525   0.4785   0.0661   0.0814   0.2420   0.00    0.0
2158 455767.000   22.306631827  114.184622497    10.8413   2   8   0.1808   0.1525   0.4789   0.0661   0.0818   0.2421   0.00    0.0
2158 455768.000   22.306631465  114.184622276    10.7784   2   9   0.1805   0.1522   0.4783   0.0656   0.0807   0.2416   0.00    0.0
2158 455769.000   22.306631452  114.184622272    10.7760   2   9   0.1805   0.1523   0.4782   0.0658   0.0812   0.2416   0.00    0.0
2158 455770.000   22.306631740  114.184622691    10.8579   2   9   0.1807   0.1527   0.4786   0.0663   0.0825   0.2418   0.00    0.0
2158 455771.000   22.306631971  114.184622824    10.8586   2   9   0.1805   0.1525   0.4786   0.0662   0.0824   0.2418   0.00    0.0
2158 455772.000   22.306631981  114.184622985    10.8644   2   9   0.1804   0.1526   0.4787   0.0661   0.0826   0.2417   0.00    0.0
2158 455773.000   22.306631914  114.184622987    10.8212   2   8   0.1804   0.1525   0.4788   0.0661   0.0829   0.2418   0.00    0.0
2158 455774.000   22.306631794  114.184623023    10.8075   2   8   0.1804   0.1526   0.4789   0.0663   0.0833   0.2418   0.00    0.0
2158 455775.000   22.306631692  114.184622879    10.7045   2   8   0.1800   0.1523   0.4780   0.0654   0.0826   0.2413   0.00    0.0
2158 455776.000   22.306631720  114.184622967    10.6492   2   8   0.1797   0.1521   0.4780   0.0648   0.0826   0.2413   0.00    0.0
2158 455777.000   22.306631909  114.184623061    10.6584   2   9   0.1794   0.1519   0.4783   0.0645   0.0826   0.2413   0.00    0.0
2158 455778.000   22.306632104  114.184623301    10.6917   2   8   0.1793   0.1520   0.4782   0.0643   0.0826   0.2412   0.00    0.0
2158 455779.000   22.306632416  114.184623420    10.7188   2   8   0.1791   0.1518   0.4781   0.0639   0.0825   0.2411   0.00    0.0
