% program   : RTKPOST demo5 b34k
% inp file  : C:\Users\owner\Downloads\AAE6102_Laboratory-main\GNSS Data\UrbanNav - Medium\20210521.medium-urban.whampoa.ublox.f9p.obs
% inp file  : C:\Users\owner\Downloads\2025-Apr-14_112045\2025-Apr-14_112045\r3_1s_1h_hksc141g.2021\hksc141g.21o
% inp file  : C:\Users\owner\Downloads\2025-Apr-14_112045\2025-Apr-14_112045\r3_1s_1h_hksc141g.2021\hksc141g.21g
% obs start : 2021/05/21 06:29:02.0 GPST (week2158 455342.0s)
% obs end   : 2021/05/21 06:54:39.0 GPST (week2158 456879.0s)
% pos mode  : Kinematic
% freqs     : L1+L2/E5b
% solution  : Forward
% elev mask : 15.0 deg
% dynamics  : on
% tidecorr  : off
% ionos opt : Broadcast
% tropo opt : Saastamoinen
% ephemeris : Broadcast
% navi sys  : GPS GLONASS Galileo
% amb res   : Fix and Hold
% amb glo   : Fix and Hold
% val thres : 3.0
% antenna1  :                       ( 0.0000  0.0000  0.0000)
% antenna2  :                       ( 0.0000  0.0000  0.0000)
% ref pos   : 22.322172082  114.141187963    20.2386
%
% (lat/lon/height=WGS84/ellipsoidal,Q=1:fix,2:float,3:sbas,4:dgps,5:single,6:ppp,ns=# of satellites)
%  GPST                  latitude(deg) longitude(deg)  height(m)   Q  ns   sdn(m)   sde(m)   sdu(m)  sdne(m)  sdeu(m)  sdun(m) age(s)  ratio
2021/05/21 06:29:02.004   22.301558573  114.190278411     7.8483   4   3   2.1813   2.9573   8.6940   1.6074   3.3760   2.2689   0.00    0.0
2021/05/21 06:29:03.004   22.301558959  114.190277190     7.5845   2   4   1.6419   2.3708   6.4891   1.2489   2.7985   1.6892   0.00    0.0
2021/05/21 06:29:04.004   22.301558943  114.190276686     7.0538   2   4   1.3683   1.8192   5.2060   1.0089   2.0925   1.3573   0.00    0.0
2021/05/21 06:29:05.004   22.301559077  114.190276852     6.7803   2   4   1.1962   1.4820   4.3870   0.8574   1.6335   1.1445   0.00    0.0
2021/05/21 06:29:06.004   22.301558868  114.190278428     6.1400   2   4   1.0779   1.3323   3.9624   0.7739   1.4819   1.0340   0.00    0.0
2021/05/21 06:29:07.004   22.301558531  114.190282586     5.3586   2   4   0.9889   1.2204   3.6412   0.7107   1.3658   0.9503   0.00    0.0
2021/05/21 06:29:08.004   22.301558609  114.190281560     4.8816   2   4   0.9188   1.1326   3.3873   0.6608   1.2734   0.8841   0.00    0.0
2021/05/21 06:29:09.004   22.301558873  114.190275454     4.6655   4   3   0.8637   1.1266   3.2988   0.6377   1.3284   0.8605   0.00    0.0
2021/05/21 06:29:10.004   22.301559044  114.190265437     4.3880   4   3   0.8306   1.4575   3.8887   0.7196   1.9735   1.0111   0.00    0.0
2021/05/21 06:29:11.004   22.301562205  114.190252256     4.0199   4   3   0.8176   1.9491   4.8877   0.8719   2.8119   1.2671   0.00    0.0
2021/05/21 06:29:12.004   22.301570356  114.190238973     3.2255   4   3   0.8005   2.1866   5.3796   0.9471   3.2067   1.3925   0.00    0.0
2021/05/21 06:29:13.004   22.301582448  114.190235301     3.8651   4   3   0.7763   2.2341   5.4616   0.9570   3.2928   1.4123   0.00    0.0
2021/05/21 06:29:14.004   22.301594880  114.190226109     3.5554   4   3   0.7521   2.2320   5.4359   0.9498   3.2978   1.4044   0.00    0.0
2021/05/21 06:29:15.004   22.301609100  114.190220497     4.0321   2   4   0.6584   0.8751   2.5509   0.4907   1.0532   0.6643   0.00    0.0
2021/05/21 06:29:16.004   22.301624667  114.190212174     4.0591   2   4   0.6352   0.8020   2.3900   0.4628   0.9349   0.6229   0.00    0.0
2021/05/21 06:29:17.004   22.301646458  114.190201038     4.0178   4   3   0.6179   0.8660   2.4710   0.4720   1.0743   0.6426   0.00    0.0
2021/05/21 06:29:18.004   22.301674940  114.190186803     3.9897   4   3   0.6259   1.4415   3.6259   0.6478   2.0668   0.9361   0.00    0.0
2021/05/21 06:29:19.004   22.301709790  114.190173831     4.5176   4   3   0.6475   2.0157   4.8749   0.8469   2.9862   1.2544   0.00    0.0
2021/05/21 06:29:20.004   22.301748968  114.190159742     5.3941   4   3   0.6489   2.2079   5.2971   0.9140   3.2912   1.3612   0.00    0.0
2021/05/21 06:29:21.004   22.301792635  114.190145393     6.5816   4   3   0.6382   2.2245   5.3265   0.9170   3.3209   1.3676   0.00    0.0
2021/05/21 06:29:22.004   22.301840609  114.190128077     7.6992   4   3   0.6262   2.2152   5.2974   0.9106   3.3094   1.3589   0.00    0.0
2021/05/21 06:29:23.004   22.301891134  114.190102666     7.4140   4   3   0.6161   2.2202   5.3005   0.9096   3.3198   1.3585   0.00    0.0
2021/05/21 06:29:24.004   22.301944203  114.190075668     7.1321   4   3   0.6075   2.2341   5.3240   0.9120   3.3435   1.3632   0.00    0.0
2021/05/21 06:29:25.004   22.301994969  114.190035677     3.8391   4   3   0.5046   0.6764   1.9673   0.3769   0.8219   0.5108   0.00    0.0
2021/05/21 06:29:26.004   22.302046196  114.190007983     2.9937   4   3   0.5348   1.5078   3.6804   0.6420   2.2124   0.9429   0.00    0.0
2021/05/21 06:29:27.004   22.302098935  114.189992302     3.5397   4   2   0.9050   2.4672   5.3674   1.2747   2.8038   0.6374   0.00    0.0
2021/05/21 06:29:28.004   22.302148045  114.189975788     4.9730   4   2   1.1254   2.7011   6.3156   1.5056   2.5358  -1.1805   0.00    0.0
2021/05/21 06:29:29.004   22.302188096  114.189942545     7.2199   4   2   1.1375   2.6933   6.5176   1.5033   2.5156  -1.3170   0.00    0.0
2021/05/21 06:29:30.004   22.302224758  114.189895345     4.1375   4   3   1.1329   2.2941   2.2427   1.5509  -1.5354  -1.0764   0.00    0.0
2021/05/21 06:29:31.004   22.302254774  114.189855287     4.5838   4   2   1.1232   2.5209   3.7134   1.5727   1.0186  -0.8734   0.00    0.0
2021/05/21 06:29:32.004   22.302272357  114.189812182     6.8803   4   2   1.1786   2.7576   5.8354   1.6053   2.2108  -1.2130   0.00    0.0
2021/05/21 06:29:33.004   22.302282006  114.189773879     7.9698   4   3   1.0942   2.6031   6.5710   1.4246   2.6348  -1.3004   0.00    0.0
2021/05/21 06:29:34.004   22.302280585  114.189730607     8.5572   4   3   0.8539   2.0628   6.6624   0.9549   2.7923  -1.2382   0.00    0.0
2021/05/21 06:29:35.004   22.302276428  114.189703234     8.5526   4   3   0.9045   2.2994   6.4947   1.1303   2.8398  -1.0757   0.00    0.0
2021/05/21 06:29:36.004   22.302258197  114.189667182     9.7358   2   4   0.6970   1.8917   6.3823   0.7475   2.8970  -0.9143   0.00    0.0
2021/05/21 06:29:37.004   22.302238452  114.189633266     9.6207   2   4   0.6379   1.8308   6.3769   0.6524   2.9585  -0.8210   0.00    0.0
2021/05/21 06:29:38.004   22.302217586  114.189599777     9.6978   2   4   0.5953   1.3997   4.4428   0.6313   1.9618  -0.5963   0.00    0.0
2021/05/21 06:29:39.004   22.302196700  114.189569621    11.0648   2   4   0.5638   1.2577   3.9091   0.5909   1.7014  -0.5026   0.00    0.0
2021/05/21 06:29:40.004   22.302176995  114.189539974    11.7324   2   4   0.5375   1.1559   3.5261   0.5568   1.5227  -0.4239   0.00    0.0
2021/05/21 06:29:41.004   22.302157724  114.189512768    12.8369   2   4   0.5177   1.0998   3.3518   0.5319   1.4546  -0.3533   0.00    0.0
2021/05/21 06:29:42.004   22.302139838  114.189489711    14.4340   2   4   0.5008   1.0521   3.2051   0.5094   1.3973  -0.2953   0.00    0.0
2021/05/21 06:29:43.004   22.302122052  114.189467760    15.8441   2   4   0.4861   1.0108   3.0795   0.4899   1.3479  -0.2398   0.00    0.0
2021/05/21 06:29:44.004   22.302103050  114.189443796    16.9518   4   3   0.4731   0.9749   2.9726   0.4727   1.3060  -0.1837   0.00    0.0
2021/05/21 06:29:45.004   22.302087939  114.189430431    18.1191   4   2   0.8849   2.1074   3.0857   1.2699   1.3738  -0.2058   0.00    0.0
2021/05/21 06:29:46.004   22.302063547  114.189392420    21.0806   4   2   0.4888   1.5793   4.0817   0.6626   2.3139   0.7476   0.00    0.0
2021/05/21 06:29:47.004   22.302046885  114.189366140    25.1829   4   2   0.9803   2.7897   5.8286   1.4619   3.0481   0.4630   0.00    0.0
2021/05/21 06:29:48.004   22.302029275  114.189310516    27.0288   4   3   0.4447   1.8661   7.3684   0.1110   3.5704  -0.8143   0.00    0.0
2021/05/21 06:29:49.004   22.302033903  114.189259739    28.2561   4   0   1.9448   2.8685   8.3707   1.3542   3.7207   1.4936   0.00    0.0
2021/05/21 06:29:50.004   22.302050768  114.189227363    29.7877   4   0   2.3171   3.1681   8.9108   1.7090   3.9468   2.2683   0.00    0.0
2021/05/21 06:29:51.004   22.302075514  114.189187482    30.0842   4   0   2.3200   3.1859   9.0823   1.7201   4.0444   2.3348   0.00    0.0
2021/05/21 06:29:52.004   22.302084526  114.189123595    30.4501   4   0   2.3827   4.3747  13.0096   2.1171   6.6450   3.1732   0.00    0.0
2021/05/21 06:29:53.004   22.302097963  114.189062366    28.8640   4   0   3.0315   5.8006  18.0182   3.1162   9.5379   4.9391   0.00    0.0
2021/05/21 06:29:54.004   22.302125237  114.189011274    28.7249   4   0   2.9097   3.6646  11.0807   2.3035   5.1779   3.2144   0.00    0.0
2021/05/21 06:29:55.004   22.302178278  114.188968666    27.8909   4   0   3.7881   3.5151   9.7695   2.6152   4.4237   2.7619   0.00    0.0
2021/05/21 06:29:56.004   22.302254097  114.188948230    19.7989   4   0   3.5688   3.3322   9.1649   2.3221   4.5239   3.2192   0.00    0.0
2021/05/21 06:29:57.004   22.302179695  114.188816531    -5.7528   4   0   2.2405   2.6635   7.5205   1.4104   3.2826   2.3836   0.00    0.0
2021/05/21 06:29:58.004   22.302179826  114.188766145   -15.2655   4   0   2.1684   2.5821   7.1567   1.3084   3.0808   2.2765   0.00    0.0
2021/05/21 06:29:59.004   22.302187271  114.188740376   -17.8827   4   0   2.1817   2.5858   7.1099   1.3244   3.0472   2.2311   0.00    0.0
2021/05/21 06:30:00.004   22.302197687  114.188733907   -13.8430   4   0   2.1768   2.5833   7.0945   1.3198   3.0390   2.2209   0.00    0.0
2021/05/21 06:30:01.004   22.302190625  114.188720902    -2.8253   4   3   2.1930   2.6143   6.3060   1.4938   2.2435   1.5953   0.00    0.0
2021/05/21 06:30:02.004   22.302192578  114.188720072     1.8322   4   3   2.0670   2.5793   6.7778   1.3240   2.7664   1.9017   0.00    0.0
2021/05/21 06:30:03.004   22.302182399  114.188716095     4.4119   4   3   1.5426   2.5953   6.8937   1.4121   2.9560   1.5778   0.00    0.0
2021/05/21 06:30:04.004   22.302175648  114.188736644    10.0191   4   3   1.2568   2.3053   6.5841   1.1212   3.2983   1.6225   0.00    0.0
2021/05/21 06:30:05.004   22.302173969  114.188748252    13.4524   2   4   1.1206   2.2373   6.2461   1.0457   3.3269   1.5736   0.00    0.0
2021/05/21 06:30:06.004   22.302173670  114.188730789     9.6211   2   4   0.9999   1.5027   4.3883   0.7914   2.0640   1.1694   0.00    0.0
2021/05/21 06:30:07.004   22.302175330  114.188727909     9.2679   2   4   0.9218   1.3944   3.9718   0.7257   1.8983   1.0678   0.00    0.0
2021/05/21 06:30:08.004   22.302177350  114.188732071     9.8325   2   4   0.8590   1.2297   3.6063   0.6574   1.6689   0.9787   0.00    0.0
2021/05/21 06:30:09.004   22.302178446  114.188731087     9.5969   2   4   0.8077   1.1270   3.3282   0.6075   1.5133   0.9107   0.00    0.0
2021/05/21 06:30:10.004   22.302179026  114.188729411     9.1432   2   4   0.7649   1.0505   3.1169   0.5686   1.4012   0.8578   0.00    0.0
2021/05/21 06:30:11.004   22.302178539  114.188726913     9.0079   2   4   0.7263   0.9865   2.9377   0.5335   1.3148   0.8190   0.00    0.0
2021/05/21 06:30:12.004   22.302177763  114.188724853     9.2367   2   4   0.6943   0.9504   2.8429   0.5115   1.2831   0.7995   0.00    0.0
2021/05/21 06:30:13.004   22.302176614  114.188722640     9.5974   2   4   0.6663   0.9181   2.7564   0.4921   1.2524   0.7806   0.00    0.0
2021/05/21 06:30:14.004   22.302176879  114.188721315     9.1623   2   4   0.6416   0.8751   2.6319   0.4704   1.1866   0.7467   0.00    0.0
2021/05/21 06:30:15.004   22.302177138  114.188720407     8.8668   2   4   0.6195   0.8377   2.5233   0.4514   1.1301   0.7171   0.00    0.0
2021/05/21 06:30:16.004   22.302177441  114.188719791     8.7171   2   4   0.5995   0.8047   2.4273   0.4345   1.0808   0.6907   0.00    0.0
2021/05/21 06:30:17.004   22.302177669  114.188719058     8.5019   2   4   0.5814   0.7754   2.3414   0.4193   1.0372   0.6671   0.00    0.0
2021/05/21 06:30:18.004   22.302177985  114.188718734     8.4608   2   4   0.5648   0.7490   2.2640   0.4057   0.9983   0.6457   0.00    0.0
2021/05/21 06:30:19.004   22.302178266  114.188718676     8.4813   2   4   0.5495   0.7252   2.1938   0.3932   0.9633   0.6263   0.00    0.0
2021/05/21 06:30:20.004   22.302178533  114.188718286     8.4261   2   4   0.5354   0.7032   2.1288   0.3821   0.9323   0.6081   0.00    0.0
2021/05/21 06:30:21.004   22.302178804  114.188718210     8.4416   2   4   0.5223   0.6834   2.0700   0.3716   0.9034   0.5917   0.00    0.0
2021/05/21 06:30:22.004   22.302179073  114.188718173     8.4525   2   4   0.5101   0.6651   2.0158   0.3619   0.8769   0.5766   0.00    0.0
2021/05/21 06:30:23.004   22.302179236  114.188718198     8.4893   2   4   0.4988   0.6482   1.9655   0.3529   0.8526   0.5626   0.00    0.0
2021/05/21 06:30:24.004   22.302179381  114.188718085     8.4222   2   4   0.4881   0.6324   1.9179   0.3445   0.8297   0.5492   0.00    0.0
2021/05/21 06:30:25.004   22.302179497  114.188718333     8.5036   2   4   0.4781   0.6178   1.8740   0.3367   0.8087   0.5369   0.00    0.0
2021/05/21 06:30:26.004   22.302179447  114.188717811     8.3078   2   4   0.4687   0.6042   1.8330   0.3293   0.7891   0.5254   0.00    0.0
2021/05/21 06:30:27.004   22.302179411  114.188717433     8.1705   2   4   0.4599   0.5916   1.7961   0.3226   0.7716   0.5151   0.00    0.0
2021/05/21 06:30:28.004   22.302179434  114.188717249     8.0955   2   4   0.4515   0.5796   1.7600   0.3162   0.7546   0.5049   0.00    0.0
2021/05/21 06:30:29.004   22.302179247  114.188716430     7.7798   2   4   0.4435   0.5681   1.7245   0.3099   0.7379   0.4948   0.00    0.0
2021/05/21 06:30:30.004   22.302179197  114.188715836     7.5272   2   4   0.4360   0.5574   1.6922   0.3041   0.7228   0.4857   0.00    0.0
2021/05/21 06:30:31.004   22.302179159  114.188715558     7.4282   2   4   0.4288   0.5475   1.6633   0.2988   0.7093   0.4776   0.00    0.0
2021/05/21 06:30:32.004   22.302179030  114.188714848     7.1396   2   4   0.4220   0.5379   1.6344   0.2936   0.6959   0.4694   0.00    0.0
2021/05/21 06:30:33.004   22.302178930  114.188714736     7.0683   2   4   0.4155   0.5288   1.6069   0.2886   0.6831   0.4616   0.00    0.0
2021/05/21 06:30:34.004   22.302178884  114.188714163     6.8545   2   4   0.4092   0.5201   1.5807   0.2839   0.6710   0.4542   0.00    0.0
2021/05/21 06:30:35.004   22.302178877  114.188714126     6.8059   2   4   0.4033   0.5119   1.5556   0.2794   0.6595   0.4471   0.00    0.0
2021/05/21 06:30:36.004   22.302178793  114.188714090     6.7725   2   4   0.3976   0.5040   1.5317   0.2751   0.6486   0.4403   0.00    0.0
2021/05/21 06:30:37.004   22.302178747  114.188713828     6.6675   2   4   0.3921   0.4964   1.5088   0.2710   0.6381   0.4338   0.00    0.0
2021/05/21 06:30:38.004   22.302178666  114.188713673     6.5793   2   4   0.3868   0.4892   1.4869   0.2671   0.6281   0.4276   0.00    0.0
2021/05/21 06:30:39.004   22.302178670  114.188713620     6.4122   2   5   0.3815   0.4820   1.4637   0.2628   0.6196   0.4229   0.00    0.0
2021/05/21 06:30:40.004   22.302178490  114.188713116     6.2197   2   4   0.3766   0.4754   1.4437   0.2592   0.6104   0.4170   0.00    0.0
2021/05/21 06:30:41.004   22.302178275  114.188712480     5.9995   2   4   0.3720   0.4690   1.4243   0.2557   0.6015   0.4115   0.00    0.0
2021/05/21 06:30:42.004   22.302177110  114.188711879     5.8545   2   4   0.3674   0.4627   1.4037   0.2521   0.5921   0.4054   0.00    0.0
2021/05/21 06:30:43.004   22.302166476  114.188709284     5.5658   2   4   0.3632   0.4579   1.3897   0.2495   0.5867   0.4016   0.00    0.0
2021/05/21 06:30:44.004   22.302142805  114.188700524     5.1760   4   0   1.8006   1.9318   1.8007   0.7825   0.7017   0.4812   0.00    0.0
2021/05/21 06:30:45.004   22.302102617  114.188684434     4.2672   4   3   0.4062   2.2892   3.4479   0.2691   1.3734   0.8751   0.00    0.0
2021/05/21 06:30:46.004   22.302050036  114.188652547     2.2543   4   0   2.0084   2.4674   5.4736   1.1546   2.1967   1.5185   0.00    0.0
2021/05/21 06:30:47.004   22.301991603  114.188619593    -0.1312   4   0   2.2028   2.5799   6.6194   1.3564   2.6775   1.9108   0.00    0.0
2021/05/21 06:30:48.004   22.301925191  114.188573188    -6.5544   4   0   2.2127   2.9518   8.0024   1.4714   3.6616   2.1933   0.00    0.0
2021/05/21 06:30:49.004   22.301864007  114.188532848    -5.3305   4   0   2.2224   2.6641   7.3379   1.4158   3.0316   2.1071   0.00    0.0
2021/05/21 06:30:50.004   22.301800887  114.188486246    -3.7580   4   0   2.2201   2.6173   7.0950   1.3916   2.8662   2.0460   0.00    0.0
2021/05/21 06:30:51.004   22.301759253  114.188434718    -0.4374   4   0   2.2183   2.6149   7.0464   1.3876   2.8490   2.0287   0.00    0.0
2021/05/21 06:30:52.004   22.301717642  114.188406598     7.6788   4   0   2.2193   2.6182   7.0819   1.3905   2.8669   2.0382   0.00    0.0
2021/05/21 06:30:53.004   22.301680026  114.188387551    16.4037   4   0   2.2203   2.6208   7.1244   1.3931   2.8834   2.0501   0.00    0.0
2021/05/21 06:30:54.004   22.301650774  114.188347376    23.1498   4   0   2.2206   2.6219   7.1455   1.3941   2.8914   2.0556   0.00    0.0
2021/05/21 06:30:55.004   22.301596169  114.188252694    15.0933   4   2   2.1743   2.9852   8.2554   1.4907   3.7875   2.1682   0.00    0.0
2021/05/21 06:30:56.004   22.301540913  114.188214553     6.9287   4   0   2.2439   3.5163   8.8608   1.4455   4.2112   2.3667   0.00    0.0
2021/05/21 06:30:57.004   22.301479426  114.188172768    -6.6604   4   0   2.2533   3.5834   9.0620   1.4624   4.3131   2.4368   0.00    0.0
2021/05/21 06:30:58.004   22.301435890  114.188144374   -25.3390   4   0   2.2542   3.5855   9.1020   1.4646   4.3258   2.4478   0.00    0.0
2021/05/21 06:30:59.004   22.301429649  114.188151961   -45.7470   4   0   2.3091   3.7793   9.2306   1.6533   4.1132   2.2874   0.00    0.0
2021/05/21 06:31:00.004   22.301429853  114.188111376   -55.6035   4   0   2.3128   3.7947   9.2945   1.6663   4.0764   2.2596   0.00    0.0
2021/05/21 06:31:01.004   22.301436027  114.188053482   -52.4057   4   0   2.3133   3.7972   9.3269   1.6680   4.0906   2.2684   0.00    0.0
2021/05/21 06:31:02.004   22.301502132  114.188038685   -48.4786   4   0   2.7019   3.8132   9.3880   1.7868   4.0703   1.9808   0.00    0.0
2021/05/21 06:31:03.004   22.301664952  114.188140631   -42.6112   4   0   3.6271   3.8109   7.9206   2.7954   2.6742   2.0608   0.00    0.0
2021/05/21 06:31:04.004   22.301738792  114.188213703   -32.6411   4   0   3.7950   4.2144   8.7300   2.9162   3.6099   1.8113   0.00    0.0
2021/05/21 06:31:05.004   22.301803866  114.188327903   -30.2828   4   0   5.0934   8.6316   8.3668   5.9116  -4.0294  -2.4814   0.00    0.0
2021/05/21 06:31:06.004   22.301863802  114.188464202   -26.8113   4   0   8.3360  16.4756  10.4291  11.2943 -10.4533  -7.0276   0.00    0.0
2021/05/21 06:31:09.004   22.301518212  114.187584510    42.4016   4   2   2.3492   3.2441   8.7102   1.4026   3.3290   2.5927   0.00    0.0
2021/05/21 06:31:10.004   22.301538079  114.187602187    53.8441   4   2   2.0230   2.8547   7.4004   0.6454   3.0460   2.4674   0.00    0.0
2021/05/21 06:31:11.004   22.301593569  114.187604950    69.2993   4   2   2.3506   2.9486   7.7822  -0.6985   3.3164   3.0607   0.00    0.0
2021/05/21 06:31:12.004   22.301620109  114.187622592    79.6947   4   2   2.3556   2.9545   8.0123  -0.6261   3.5228   3.2819   0.00    0.0
2021/05/21 06:31:13.004   22.301624477  114.187630752    82.3952   4   2   2.2888   2.9029   7.9016  -0.6342   3.5127   3.2813   0.00    0.0
2021/05/21 06:31:14.004   22.301627466  114.187597938    77.6169   4   2   2.6419   3.5605   7.7224  -1.8878   3.1997   3.3728   0.00    0.0
2021/05/21 06:31:15.004   22.301618730  114.187563009    68.5649   4   2   2.6716   3.6532   7.5112  -2.0765   3.0428   3.3323   0.00    0.0
2021/05/21 06:31:16.004   22.301623216  114.187555000    61.0435   4   0   2.8341   3.8821   7.4666  -1.7504   2.5870   3.0060   0.00    0.0
2021/05/21 06:31:17.004   22.301646732  114.187599934    55.7935   4   0   2.9460   4.1256   7.5376  -1.4057   1.9299   2.6513   0.00    0.0
2021/05/21 06:31:18.004   22.301648243  114.187618109    52.4179   4   0   2.9776   4.5351   8.7282  -1.0745   3.3733   2.9708   0.00    0.0
2021/05/21 06:31:19.004   22.301638384  114.187591237    52.1102   4   0   3.0134   5.5280   9.5550  -0.4233   2.8678   3.1003   0.00    0.0
2021/05/21 06:31:20.004   22.301641380  114.187601403    56.5503   4   0   3.0253   5.7496   9.8661  -0.2910   2.4920   3.1643   0.00    0.0
2021/05/21 06:31:21.004   22.301664337  114.187684200    53.7429   4   0   3.0234   4.7492   9.5664  -0.8269   3.8172   3.2593   0.00    0.0
2021/05/21 06:31:22.004   22.301638058  114.187705499    53.5757   4   0   3.0289   5.5825   9.7453  -0.0727   2.9663   3.1724   0.00    0.0
2021/05/21 06:31:25.004   22.301690071  114.187920578    42.7982   4   0   3.2956   6.4341  12.2099   0.2046   3.0422   3.9287   0.00    0.0
2021/05/21 06:31:26.004   22.301731698  114.188087707    43.2109   4   0   2.9121   5.6401  15.4011   2.6837   8.4319   4.4757   0.00    0.0
2021/05/21 06:31:27.004   22.301775165  114.188168909    48.1437   4   0   3.0337   4.9029  10.6709   0.7043   4.9258   3.4834   0.00    0.0
2021/05/21 06:31:28.004   22.301793485  114.188204665    52.3288   4   0   3.0384   4.7459   9.7924  -0.7239   4.0817   3.3453   0.00    0.0
2021/05/21 06:31:29.004   22.301767121  114.188198751    57.6210   4   0   3.0111   4.3382   9.3103  -0.1751   4.4782   3.1755   0.00    0.0
2021/05/21 06:31:30.004   22.301738245  114.188213553    59.4976   4   0   3.0209   4.7327   9.2812   0.7824   4.3424   3.0805   0.00    0.0
2021/05/21 06:31:31.004   22.301667913  114.188307803    54.2780   4   0   2.3180   4.7728   9.1702   1.1102   4.3333   2.5598   0.00    0.0
2021/05/21 06:31:32.004   22.301683823  114.188433292    51.7812   4   0   2.2694   4.3348   9.0505   0.8564   4.5532   2.5441   0.00    0.0
2021/05/21 06:31:33.004   22.301713793  114.188488278    57.4486   4   2   2.1890   4.2842   8.9532   0.9964   4.6057   2.4368   0.00    0.0
2021/05/21 06:31:34.004   22.301730160  114.188530950    63.5624   4   2   1.7012   4.1058   8.8678   1.6279   4.7223   2.1243   0.00    0.0
2021/05/21 06:31:35.004   22.301735868  114.188544860    65.3041   4   2   1.6444   4.2684   8.8662   1.9060   4.6060   1.7475   0.00    0.0
2021/05/21 06:31:36.004   22.301739394  114.188562447    66.7515   4   2   1.5915   4.2717   8.8155   1.9567   4.6160   1.5507   0.00    0.0
2021/05/21 06:31:37.004   22.301748677  114.188584076    70.3415   4   2   1.9627   4.4241   8.8529   1.5827   4.4689   1.9181   0.00    0.0
2021/05/21 06:31:38.004   22.301743329  114.188580930    71.9153   4   2   1.7917   4.8891   8.8425   2.3490   4.2800   1.1617   0.00    0.0
2021/05/21 06:31:39.004   22.301747752  114.188597450    74.7318   4   2   1.7883   4.9519   8.8329   2.4574   4.2430   0.8700   0.00    0.0
2021/05/21 06:31:40.004   22.301752086  114.188613345    77.4573   4   2   1.9179   6.9205  13.3252   3.1021   8.1904   2.7898   0.00    0.0
2021/05/21 06:31:41.004   22.301756054  114.188629034    80.3965   4   2   2.1149   9.7711  20.1300   3.9845  13.1147   4.6001   0.00    0.0
2021/05/21 06:31:42.004   22.301759763  114.188644177    83.3006   4   2   2.3844  13.5154  29.1180   5.1249  19.2100   6.6562   0.00    0.0
2021/05/21 06:31:43.004   22.301757679  114.188646565    85.7120   4   2   2.7590  18.2653  40.4048   6.5928  26.7129   9.1281   0.00    0.0
2021/05/21 06:31:44.004   22.301759166  114.188658498    88.3273   4   3   3.1946  24.0524  54.1123   8.3719  35.7828  12.1144   0.00    0.0
2021/05/21 06:31:45.004   22.301759715  114.188659568    88.2759   4   3   1.8579  12.3801  27.4730   4.3472  18.0779   6.0149   0.00    0.0
2021/05/21 06:31:46.004   22.301749355  114.188611248    84.0827   4   3   1.7239  12.7050  28.8174   4.3147  18.9136   6.2651   0.00    0.0
2021/05/21 06:31:47.004   22.301738774  114.188537922    72.7087   4   3   1.8496  14.7864  33.8847   4.9490  22.2436   7.3687   0.00    0.0
2021/05/21 06:31:48.004   22.301742047  114.188535089    69.0050   4   2   2.5869  20.7479  47.1296   7.0433  31.0986  10.3767   0.00    0.0
2021/05/21 06:31:49.004   22.301739258  114.188509814    63.7615   4   3   3.5535  31.1356  71.0607  10.4058  46.9838  15.6832   0.00    0.0
2021/05/21 06:31:50.004   22.301752061  114.188536844    62.4688   4   2   2.3202  12.7221  27.5042   4.8113  17.9731   5.8069   0.00    0.0
2021/05/21 06:31:51.004   22.301740221  114.188488179    58.3489   4   3   1.5937  12.8112  28.9337   4.2963  19.1370   6.3808   0.00    0.0
2021/05/21 06:31:52.004   22.301740376  114.188466732    52.9322   4   3   1.8093  15.1163  34.2304   5.0519  22.6573   7.5498   0.00    0.0
2021/05/21 06:31:53.004   22.301748754  114.188464710    46.7457   4   2   2.7043  21.1245  47.5535   7.2203  31.4605  10.4407   0.00    0.0
2021/05/21 06:31:54.004   22.301741282  114.188442785    47.7786   4   3   1.4872  12.1501  27.4470   4.0544  18.1595   6.0353   0.00    0.0
2021/05/21 06:31:55.004   22.301741236  114.188420790    42.6961   4   3   1.5386  12.7930  28.9299   4.2597  19.1473   6.3576   0.00    0.0
2021/05/21 06:31:56.004   22.301740434  114.188398593    37.6269   4   3   1.7646  15.1060  34.2270   5.0188  22.6661   7.5190   0.00    0.0
2021/05/21 06:31:57.004   22.301725325  114.188235950    -0.2903   4   3   0.7677   4.5761  10.2473   1.5502   6.6179   2.2170   0.00    0.0
2021/05/21 06:31:58.004   22.301730091  114.188271215     8.2341   4   3   0.7359   4.3163   9.6881   1.4620   6.2353   2.0940   0.00    0.0
2021/05/21 06:31:59.004   22.301736953  114.188330880    22.4883   4   3   0.7185   4.2548   9.5497   1.4362   6.1513   2.0648   0.00    0.0
2021/05/21 06:32:00.004   22.301742100  114.188376260    33.2387   4   3   0.6953   4.0976   9.1866   1.3797   5.9143   1.9852   0.00    0.0
2021/05/21 06:32:01.004   22.301744953  114.188399562    38.8816   4   3   0.6739   3.9515   8.8494   1.3273   5.6940   1.9112   0.00    0.0
2021/05/21 06:32:02.004   22.301747078  114.188414387    42.4986   4   3   0.6559   3.8432   8.6003   1.2876   5.5329   1.8565   0.00    0.0
2021/05/21 06:32:03.004   22.301749298  114.188429935    46.3637   4   3   0.6413   3.7713   8.4366   1.2602   5.4291   1.8206   0.00    0.0
2021/05/21 06:32:04.004   22.301749646  114.188440469    50.9578   4   2   1.0330   4.0432   8.3988   1.6849   5.2078   1.5420   0.00    0.0
2021/05/21 06:32:05.004   22.301704833  114.188326830    58.7457   4   3   1.0719   3.8935   8.4066   1.6356   5.0782   1.3045   0.00    0.0
2021/05/21 06:32:06.004   22.301748370  114.188315617    66.0078   4   0   1.9477   4.3357   8.6929   1.4762   4.6116   1.8031   0.00    0.0
2021/05/21 06:32:07.004   22.301802001  114.188356125    72.0175   4   0   2.2512   4.5613   9.0394   1.0391   4.2131   2.3855   0.00    0.0
2021/05/21 06:32:08.004   22.301853131  114.188420277    75.1081   4   0   2.2600   4.5743   9.1505   1.0300   4.1704   2.4425   0.00    0.0
2021/05/21 06:32:09.004   22.301894845  114.188512192    72.4539   4   0   2.2538   4.3051   9.0019   0.8289   4.5189   2.4987   0.00    0.0
2021/05/21 06:32:10.004   22.301947226  114.188651527    65.3557   4   0   2.2683   4.7018   9.0020   1.0562   4.3529   2.4381   0.00    0.0
2021/05/21 06:32:11.004   22.301998702  114.188725399    63.2127   4   0   2.2675   4.7523   9.0101   1.0600   4.2914   2.4261   0.00    0.0
2021/05/21 06:32:12.004   22.302058663  114.188762210    66.5823   4   0   2.2676   4.7472   9.0179   1.0562   4.2910   2.4265   0.00    0.0
2021/05/21 06:32:13.004   22.302113385  114.188762841    66.0470   4   0   2.2888   6.9745  13.5630   1.6450   8.3772   3.0048   0.00    0.0
2021/05/21 06:32:14.004   22.302161023  114.188663384    61.2077   4   0   2.3428   9.4939  20.4486   2.4782  13.2644   4.2901   0.00    0.0
2021/05/21 06:32:15.004   22.302216488  114.188626083    54.8004   4   2   2.3974  13.0645  29.3488   3.8393  19.1099   6.1616   0.00    0.0
2021/05/21 06:32:16.004   22.302278377  114.188820669    79.6166   4   3   1.9004   8.5016  25.5480   3.2094  14.1326   5.7358   0.00    0.0
2021/05/21 06:32:17.004   22.302329968  114.188839898    84.8668   4   2   1.6461   7.7879  22.3762   2.9582  12.9087   5.0696   0.00    0.0
2021/05/21 06:32:18.004   22.302372389  114.188838523    80.4040   4   3   1.5051   7.5198  21.2286   2.8280  12.4156   4.7756   0.00    0.0
2021/05/21 06:32:19.004   22.302408231  114.188846218    79.3955   4   3   1.4005   7.3662  20.4699   2.7280  12.0867   4.5626   0.00    0.0
2021/05/21 06:32:20.004   22.302412569  114.188651131    29.2768   4   3   1.2343   6.0130  17.1950   2.2627   9.9749   3.8310   0.00    0.0
2021/05/21 06:32:21.004   22.302421624  114.188605094    17.1125   4   0   1.7105   5.5983  16.8059   2.2904   9.4080   4.4093   0.00    0.0
2021/05/21 06:32:22.004   22.302425659  114.188584054     7.4854   4   0   2.3015   5.5592  18.0968   2.5461   9.5274   4.7281   0.00    0.0
2021/05/21 06:32:23.004   22.302433027  114.188574443    -0.3921   4   0   2.4231   5.7866  20.3606   2.5599  10.2256   4.4622   0.00    0.0
2021/05/21 06:32:24.004   22.302435154  114.188562938    -3.1842   4   0   2.4303   6.1941  22.2651   2.6485  11.1499   4.6690   0.00    0.0
2021/05/21 06:32:25.004   22.302430473  114.188581783    10.7042   4   0   2.3844   6.1319  18.4928   3.0789  10.3456   5.8979   0.00    0.0
2021/05/21 06:32:26.004   22.302433480  114.188583879    11.5683   4   2   2.1942   5.3365  16.5612   2.6258   9.0738   5.2678   0.00    0.0
2021/05/21 06:32:27.004   22.302436664  114.188596548    14.6812   4   3   1.0295   5.1498  17.2206   1.9400   9.2688   3.5584   0.00    0.0
2021/05/21 06:32:28.004   22.302441102  114.188609485    16.4312   4   0   2.0668   5.1849  18.9831   1.7486   9.4575   3.1434   0.00    0.0
2021/05/21 06:32:29.004   22.302443119  114.188612006    20.0122   4   2   2.1777   5.2819  21.2252   1.8912  10.4235   4.1983   0.00    0.0
2021/05/21 06:32:30.004   22.302453256  114.188630882    24.1206   4   0   2.3772   6.0956  22.7307   2.5397  11.2867   4.7202   0.00    0.0
2021/05/21 06:32:31.004   22.302465413  114.188660141    31.2947   4   0   2.4876   6.6033  23.5902   2.8604  11.9311   5.0880   0.00    0.0
2021/05/21 06:32:32.004   22.302471719  114.188679943    37.3629   4   0   2.4984   6.7043  23.9190   2.9066  12.1274   5.1839   0.00    0.0
2021/05/21 06:32:33.004   22.302479050  114.188698958    44.6860   4   0   2.4964   6.7046  24.0357   2.9009  12.1522   5.1772   0.00    0.0
2021/05/21 06:32:34.004   22.302481879  114.188710793    51.6049   4   0   2.4930   6.6914  24.0715   2.8880  12.1442   5.1544   0.00    0.0
2021/05/21 06:32:35.004   22.302482635  114.188721327    57.4355   4   0   2.4910   6.6903  24.0958   2.8827  12.1494   5.1463   0.00    0.0
2021/05/21 06:32:36.004   22.302486453  114.188735509    64.3866   4   0   2.4910   6.6998  24.1356   2.8847  12.1698   5.1512   0.00    0.0
2021/05/21 06:32:37.004   22.302480154  114.188730537    61.4627   4   0   2.4916   6.7118  24.1877   2.8886  12.1959   5.1601   0.00    0.0
2021/05/21 06:32:38.004   22.302462571  114.188696237    44.8575   4   0   2.4919   6.7218  24.2386   2.8913  12.2198   5.1673   0.00    0.0
2021/05/21 06:32:39.004   22.302450353  114.188665489    31.6876   4   0   2.4916   6.7282  24.2767   2.8921  12.2365   5.1708   0.00    0.0
2021/05/21 06:32:40.004   22.302440855  114.188626678    19.4915   4   0   2.4910   6.7304  24.2965   2.8911  12.2441   5.1702   0.00    0.0
2021/05/21 06:32:41.004   22.302440079  114.188603218    12.5843   4   0   2.4901   6.7285  24.2985   2.8883  12.2427   5.1659   0.00    0.0
2021/05/21 06:32:42.004   22.302436776  114.188581085     8.3149   4   0   2.4888   6.7234  24.2869   2.8843  12.2345   5.1587   0.00    0.0
2021/05/21 06:32:43.004   22.302435186  114.188583459    10.9314   4   0   2.4874   6.7163  24.2670   2.8795  12.2221   5.1497   0.00    0.0
2021/05/21 06:32:44.004   22.302449708  114.188594599    13.5660   4   0   2.4860   6.7084  24.2434   2.8743  12.2078   5.1398   0.00    0.0
2021/05/21 06:32:45.004   22.302460199  114.188586465    10.0064   4   0   2.4845   6.7004  24.2193   2.8690  12.1932   5.1299   0.00    0.0
2021/05/21 06:32:46.004   22.302490508  114.188591150    12.6701   4   0   2.4830   6.6926  24.1962   2.8638  12.1792   5.1202   0.00    0.0
2021/05/21 06:32:47.004   22.302523464  114.188584743    13.8739   4   0   2.4816   6.6851  24.1744   2.8588  12.1658   5.1108   0.00    0.0
2021/05/21 06:32:48.004   22.302571777  114.188573430    12.1367   4   0   2.4802   6.6778  24.1535   2.8539  12.1529   5.1016   0.00    0.0
2021/05/21 06:32:49.004   22.302621401  114.188555932    11.6698   4   0   2.4788   6.6707  24.1330   2.8490  12.1402   5.0924   0.00    0.0
2021/05/21 06:32:50.004   22.302675346  114.188545238    14.4607   4   0   2.4774   6.6635  24.1123   2.8441  12.1274   5.0832   0.00    0.0
2021/05/21 06:32:51.004   22.302728088  114.188519310    10.8707   4   3   2.3105   6.5564  23.3652   2.7521  11.8416   4.9454   0.00    0.0
2021/05/21 06:32:52.004   22.302772528  114.188432818   -16.9799   4   3   1.7651   6.2366  21.0103   2.5462  10.9620   4.7156   0.00    0.0
2021/05/21 06:32:53.004   22.302827587  114.188382200   -20.5093   4   2   1.4093   2.7585   8.5336   1.3578   3.4249   1.2238   0.00    0.0
2021/05/21 06:32:54.004   22.302882994  114.188360666   -12.2167   4   3   1.4804   2.5786   6.5188   1.4588   2.3473  -0.6541   0.00    0.0
2021/05/21 06:32:55.004   22.302943645  114.188344561    -7.9024   2   4   1.0418   2.2493   5.5106   0.9227   2.9709   1.3275   0.00    0.0
2021/05/21 06:32:56.004   22.302994906  114.188302933    -3.8819   4   2   1.3355   2.9282   6.8338   1.4583   3.3752   0.2609   0.00    0.0
2021/05/21 06:32:57.004   22.303043642  114.188275811     6.8400   4   2   1.3818   2.9804   7.9150   1.4508   3.5613  -1.3248   0.00    0.0
2021/05/21 06:32:58.004   22.303095878  114.188210035     7.2649   4   0   2.0096   2.6611   7.3597   1.4146   2.7683   1.0820   0.00    0.0
2021/05/21 06:32:59.004   22.303143251  114.188146417     3.1161   4   0   2.2609   2.6401   7.3452   1.4611   2.6588   1.8215   0.00    0.0
2021/05/21 06:33:00.004   22.303190774  114.188081898     1.7945   4   0   2.2647   2.6476   7.3621   1.4702   2.6837   1.8445   0.00    0.0
2021/05/21 06:33:01.004   22.303246307  114.188006401    -6.4526   4   0   2.2676   2.6492   7.3875   1.4612   2.6975   1.8094   0.00    0.0
2021/05/21 06:33:02.004   22.303311123  114.187923677    -5.9247   4   0   2.2692   2.6495   7.4009   1.4602   2.7020   1.8066   0.00    0.0
2021/05/21 06:33:03.004   22.303394139  114.187844966    -3.1585   4   0   2.2694   2.6502   7.4050   1.4608   2.7059   1.8095   0.00    0.0
2021/05/21 06:33:04.004   22.303480153  114.187768118    -0.3277   4   0   2.2732   2.9775   8.5524   1.5201   3.6246   1.9573   0.00    0.0
2021/05/21 06:33:05.004   22.303566024  114.187712981     4.8505   4   0   2.2782   3.0748   9.1281   1.5580   3.9486   2.0781   0.00    0.0
2021/05/21 06:33:06.004   22.303629363  114.187637001     6.6441   4   0   2.2806   3.0912   9.3160   1.5685   4.0236   2.1254   0.00    0.0
2021/05/21 06:33:07.004   22.303658659  114.187572878    11.0454   4   0   2.2809   3.0919   9.3503   1.5691   4.0325   2.1331   0.00    0.0
2021/05/21 06:33:08.004   22.303638234  114.187516475    19.7704   4   0   3.0483   3.1816  11.2515   1.9773   4.0337   2.5928   0.00    0.0
2021/05/21 06:33:10.004   22.303630462  114.187404385    58.8880   4   0   3.4079   6.1711  21.7737   2.9361  10.8681   4.4628   0.00    0.0
2021/05/21 06:33:12.004   22.303658249  114.187414205   163.4192   4   0   4.1872   8.1532  29.8050   3.8780  15.0106   6.1298   0.00    0.0
2021/05/21 06:33:31.004   22.304506518  114.186613152    65.2869   4   2   4.0731   3.7957   8.9166   3.0937   3.4374   2.4660   0.00    0.0
2021/05/21 06:33:32.004   22.304484135  114.186552689    52.5274   4   2   3.6171   3.9207   9.2134   2.6755   3.1899  -0.8397   0.00    0.0
2021/05/21 06:33:33.004   22.304444969  114.186540188    51.6569   4   2   3.4833   3.0555   8.3551   2.3887   3.0712   1.9088   0.00    0.0
2021/05/21 06:33:34.004   22.304414141  114.186475872    35.3357   4   2   3.7699   3.4097  10.6806   2.3767   4.4241   1.6716   0.00    0.0
2021/05/21 06:33:35.004   22.304396139  114.186483914    39.8568   4   0   3.6928   3.0680   8.8187   2.4909   3.3554   2.4403   0.00    0.0
2021/05/21 06:33:36.004   22.304396977  114.186481480    37.1128   4   2   3.3245   2.9568   8.2592   2.2857   3.0564   1.8856   0.00    0.0
2021/05/21 06:33:37.004   22.304398118  114.186461836    34.8305   4   2   2.5121   2.9022   7.8822   2.0420   2.8662   0.3954   0.00    0.0
2021/05/21 06:33:38.004   22.304408146  114.186466569    34.5030   4   2   2.7507   2.8471   7.5938   1.9728   2.6828  -0.3614   0.00    0.0
2021/05/21 06:33:39.004   22.304408639  114.186467981    35.1999   4   2   2.1760   2.8262   7.3453   1.8704   2.5603  -1.2532   0.00    0.0
2021/05/21 06:33:40.004   22.304407229  114.186450326    32.3149   4   3   2.0168   2.7475   6.3680   1.8411   2.0588  -1.1988   0.00    0.0
2021/05/21 06:33:41.004   22.304405860  114.186446933    33.4321   4   3   1.9090   2.5566   4.6101   1.8624  -0.3570  -0.9276   0.00    0.0
2021/05/21 06:33:42.004   22.304402778  114.186437607    33.7892   4   2   1.8177   2.6073   4.0470   1.8563   0.2973  -0.6484   0.00    0.0
2021/05/21 06:33:43.004   22.304404560  114.186439226    33.5013   4   2   1.7495   2.7020   4.6200   1.8092   1.4720  -0.7766   0.00    0.0
2021/05/21 06:33:44.004   22.304410306  114.186439586    31.0925   4   2   1.7336   2.7570   5.9702   1.7369   2.0925  -1.4223   0.00    0.0
2021/05/21 06:33:45.004   22.304415016  114.186425286    26.8370   4   2   1.7288   2.7671   6.7105   1.6970   2.2752  -1.7920   0.00    0.0
2021/05/21 06:33:46.004   22.304424291  114.186418908    23.5110   4   2   1.7049   2.7651   6.8542   1.6824   2.2879  -1.8894   0.00    0.0
2021/05/21 06:33:47.004   22.304433962  114.186416078    20.0842   4   2   1.6745   2.7621   6.8109   1.6746   2.2708  -1.8972   0.00    0.0
2021/05/21 06:33:48.004   22.304435968  114.186407107    15.0920   4   3   2.6348   2.7388   6.1537   1.9444   1.9913  -0.4016   0.00    0.0
2021/05/21 06:33:49.004   22.304444197  114.186418001    18.2237   4   3   1.9455   2.5339   4.3924   1.8375  -0.7446  -1.3041   0.00    0.0
2021/05/21 06:33:50.004   22.304453815  114.186418278    17.6346   4   2   1.8136   2.5887   3.8251   1.8327  -0.5553  -1.0463   0.00    0.0
2021/05/21 06:33:51.004   22.304464558  114.186392932    17.3524   4   2   1.7397   2.6869   4.4066   1.7888   1.3444  -1.0331   0.00    0.0
2021/05/21 06:33:52.004   22.304488264  114.186361503    13.5690   4   3   1.7092   2.7027   5.3378   1.7424   1.7300  -1.3806   0.00    0.0
2021/05/21 06:33:53.004   22.304520660  114.186329896     9.8390   4   3   1.6905   2.7015   5.8163   1.7239   1.8014  -1.6017   0.00    0.0
2021/05/21 06:33:54.004   22.304551022  114.186298826    11.2246   4   2   2.7154   2.5504   4.2357   2.0785  -0.6847   1.4140   0.00    0.0
2021/05/21 06:33:55.004   22.304590449  114.186255132    11.1091   4   2   3.4615   2.5938   3.7605   2.3026  -0.4560   1.6772   0.00    0.0
2021/05/21 06:33:56.004   22.304630702  114.186206079    10.8231   4   3   1.5794   2.5042   3.2718   1.7625  -1.0217  -1.1112   0.00    0.0
2021/05/21 06:33:57.004   22.304666881  114.186160903    10.5990   4   2   1.5363   2.5068   3.0725   1.7579  -1.0335  -1.0147   0.00    0.0
2021/05/21 06:33:58.004   22.304701372  114.186116887    10.2349   4   2   1.5160   2.5551   3.1945   1.7592  -0.7581  -0.9963   0.00    0.0
2021/05/21 06:33:59.004   22.304731585  114.186071736    10.1279   4   0   2.7064   2.5309   2.9705   2.0150  -1.0282   0.8977   0.00    0.0
2021/05/21 06:34:00.004   22.304775853  114.186039516     9.7919   4   0   3.4861   2.6449   3.3453   2.2007   0.3513   1.1161   0.00    0.0
2021/05/21 06:34:01.004   22.304806271  114.185996864     8.8753   4   0   3.5261   2.7924   4.9008   2.2635   1.8205   1.3627   0.00    0.0
2021/05/21 06:34:02.004   22.304846140  114.185962632     7.5767   4   0   3.5477   2.8726   6.4237   2.3125   2.4754   1.7941   0.00    0.0
2021/05/21 06:34:03.004   22.304857666  114.185927303     6.4930   4   0   3.5749   2.8995   7.1464   2.3433   2.7091   2.0381   0.00    0.0
2021/05/21 06:34:04.004   22.304869104  114.185906499     5.6825   4   0   3.5812   2.9058   7.3232   2.3514   2.7607   2.0951   0.00    0.0
2021/05/21 06:34:05.004   22.304886107  114.185908037     5.5564   4   2   3.2690   2.8760   7.2209   2.2182   2.6662   1.5925   0.00    0.0
2021/05/21 06:34:06.004   22.304904912  114.185918026     7.3759   4   0   3.5437   2.8946   7.2876   2.3230   2.7256   1.9884   0.00    0.0
2021/05/21 06:34:07.004   22.304941854  114.185934839     8.8535   4   0   3.5811   2.9042   7.3525   2.3500   2.7651   2.0979   0.00    0.0
2021/05/21 06:34:08.004   22.304977636  114.185951281    10.1758   4   2   3.2623   2.8769   7.2955   2.2167   2.6903   1.6161   0.00    0.0
2021/05/21 06:34:09.004   22.304970957  114.185887556    14.6600   4   0   3.6796   3.6517   7.4241   2.7586   2.4630   1.8356   0.00    0.0
2021/05/21 06:34:10.004   22.304978103  114.185909464    20.8289   4   0   3.7545   3.7712   7.4832   2.8678   2.4177   1.8853   0.00    0.0
2021/05/21 06:34:11.004   22.305036464  114.185966802    26.2618   4   0   3.8170   3.8526   8.7254   2.7718   3.0623   0.6864   0.00    0.0
2021/05/21 06:34:12.004   22.305103061  114.186011920    23.5387   4   0   3.8282   3.8877   9.3733   2.7519   3.3203  -0.6658   0.00    0.0
2021/05/21 06:34:13.004   22.305157342  114.186051128    22.5354   4   0   3.8315   3.8980   9.5920   2.7560   3.3887  -0.6789   0.00    0.0
2021/05/21 06:34:14.004   22.305163443  114.186085689    28.2673   4   0   3.8329   3.8991   9.6363   2.7574   3.4009  -0.6412   0.00    0.0
2021/05/21 06:34:16.004   22.305110706  114.186094416    31.4713   4   0   4.1104   4.2044  11.0324   2.9987   3.8967  -0.7303   0.00    0.0
2021/05/21 06:34:18.004   22.305111244  114.186092529    34.9424   4   0   4.1117   4.2126  11.2362   2.9966   3.9678  -0.7541   0.00    0.0
2021/05/21 06:34:22.004   22.305591344  114.186506651    23.5857   4   0   4.3572   3.7082  11.6381   2.8497   5.4611   4.1546   0.00    0.0
2021/05/21 06:34:23.004   22.305558626  114.186475842    20.9813   4   0   3.2782   3.1384   9.4399   1.8809   4.2114   2.4212   0.00    0.0
2021/05/21 06:34:24.004   22.305500129  114.186417601    37.1317   4   0   3.7497   3.3252  10.3143   2.2706   4.2442   1.4390   0.00    0.0
2021/05/21 06:34:25.004   22.305530404  114.186414552    52.3470   4   0   3.7766   3.3966  11.0842   2.3110   4.5652   1.4877   0.00    0.0
2021/05/21 06:34:26.004   22.305622152  114.186440800    62.7902   4   0   3.7063   3.3609  11.0998   2.2729   4.5873   1.5280   0.00    0.0
2021/05/21 06:34:27.004   22.305698371  114.186445632    66.1555   4   0   3.6529   3.3135  10.8547   2.2320   4.4892   1.5003   0.00    0.0
2021/05/21 06:34:28.004   22.305764182  114.186418093    69.6945   4   0   3.6310   3.2775  10.5616   2.2088   4.3670   1.4549   0.00    0.0
2021/05/21 06:34:29.004   22.305775732  114.186398359    74.2251   4   0   3.6265   3.2486  10.2820   2.1994   4.2490   1.4077   0.00    0.0
2021/05/21 06:34:30.004   22.305795857  114.186428732    72.7697   4   0   3.7398   4.0596  10.0397   2.6598   4.2006   1.4264   0.00    0.0
2021/05/21 06:34:31.004   22.305806918  114.186443397    67.8117   4   0   3.7716   4.1782   9.8436   2.7520   4.1333   1.4155   0.00    0.0
2021/05/21 06:34:32.004   22.305819834  114.186432210    64.9789   4   0   3.7726   4.1673   9.6996   2.7504   4.0721   1.3935   0.00    0.0
2021/05/21 06:34:33.004   22.305826702  114.186393097    59.0462   4   0   3.7731   4.1657   9.6066   2.7515   4.0310   1.3758   0.00    0.0
2021/05/21 06:34:40.004   22.305932872  114.185893593    -5.1258   4   0  13.4246  26.7119  14.1038  18.6451 -16.5380 -11.4729   0.00    0.0
2021/05/21 06:34:41.004   22.305948440  114.185833610    -5.1233   4   0  15.7390  31.5287  15.3742  22.0370 -19.9020 -13.8737   0.00    0.0
2021/05/21 06:34:44.004   22.306029540  114.185707739    -0.2504   4   0  13.4365  26.7277  14.0646  18.6594 -16.5008 -11.4498   0.00    0.0
2021/05/21 06:34:45.004   22.306049289  114.185630367    -4.1299   4   0  15.7537  31.5481  15.3208  22.0546 -19.8576 -13.8457   0.00    0.0
2021/05/21 06:35:07.004   22.306354888  114.184974665     4.8859   4   0   2.9823   6.7267  11.7761   2.6876   3.2536   1.1341   0.00    0.0
2021/05/21 06:35:08.004   22.306338325  114.184982961     5.1336   4   0   2.8508   5.9774   9.8577   2.3426   2.6394   0.9047   0.00    0.0
2021/05/21 06:35:09.004   22.306326968  114.185013000     9.4899   4   0   2.8897   6.2804  10.5815   2.4853   2.8726   0.9864   0.00    0.0
2021/05/21 06:35:28.004   22.306347722  114.185129735    78.3721   4   0   3.3498   3.9072  12.3015   2.1241   4.3676   2.8555   0.00    0.0
2021/05/21 06:35:34.004   22.306450599  114.184590729    43.7102   4   2   3.3512   7.0882  10.8253   1.6324  -3.3197   2.7540   0.00    0.0
2021/05/21 06:35:35.004   22.306491736  114.184509074    18.5637   4   2   3.1928   6.1746   8.1647   1.4290  -3.3834   2.2753   0.00    0.0
2021/05/21 06:35:36.004   22.306505786  114.184444329     5.7583   4   0   3.2353   6.5502   8.9428   1.4908  -3.4165   2.3714   0.00    0.0
2021/05/21 06:35:37.004   22.306580720  114.184326474    14.5075   4   2   2.8777   5.9523   8.0790   2.5972  -2.9915   1.4089   0.00    0.0
2021/05/21 06:35:38.004   22.306615829  114.184376781    11.6371   4   2   2.8235   5.7436   6.1553   2.5488  -3.7625   1.1347   0.00    0.0
2021/05/21 06:35:39.004   22.306619473  114.184415531    11.3394   4   2   2.7699   5.6226   5.3865   2.5020  -3.7366   0.7610   0.00    0.0
2021/05/21 06:35:40.004   22.306615024  114.184429612     9.7466   4   2   2.7503   5.5110   4.9860   2.4908  -3.6611   0.6305   0.00    0.0
2021/05/21 06:35:41.004   22.306601231  114.184449182     7.7617   4   2   5.5933  10.6263   5.6823   7.1618  -6.5236  -3.9966   0.00    0.0
2021/05/21 06:35:42.004   22.306688216  114.184657157    -0.9163   4   2   2.6807   3.7441   3.7240   2.6979  -1.7700  -0.5897   0.00    0.0
2021/05/21 06:35:43.004   22.306685523  114.184669824    -2.0181   4   2   2.4608   3.4758   3.4512   2.5748  -1.5509  -0.7556   0.00    0.0
2021/05/21 06:35:44.004   22.306666121  114.184646139    -1.4400   4   2   2.3442   3.4730   3.2978   2.5535  -1.6411  -0.9426   0.00    0.0
2021/05/21 06:35:45.004   22.306647676  114.184626999    -1.1131   4   2   2.6979   3.4600   3.2217   2.6111  -1.6359  -0.4398   0.00    0.0
2021/05/21 06:35:46.004   22.306645116  114.184622925    -0.8866   4   2   2.2261   3.4141   3.0708   2.4701  -1.7321  -1.0085   0.00    0.0
2021/05/21 06:35:47.004   22.306638267  114.184618975    -0.9652   4   2   2.6217   3.4295   3.0212   2.5713  -1.6996  -0.5624   0.00    0.0
2021/05/21 06:35:48.004   22.306625029  114.184622803    -2.0051   4   2   3.5414   3.4701   3.0899   2.8105  -1.5609   1.3961   0.00    0.0
2021/05/21 06:35:49.004   22.306644229  114.184636892    -1.7419   4   2   2.0752   3.4034   2.7959   2.4439  -1.8046  -1.1533   0.00    0.0
2021/05/21 06:35:50.004   22.306648796  114.184650774    -2.3614   4   2   2.0238   3.3974   2.7224   2.4299  -1.8220  -1.1867   0.00    0.0
2021/05/21 06:35:51.004   22.306643632  114.184642387    -2.0604   4   2   1.9941   3.3953   2.6567   2.4249  -1.8363  -1.2105   0.00    0.0
2021/05/21 06:35:52.004   22.306632113  114.184619493    -1.1866   4   2   1.9695   3.3936   2.5974   2.4208  -1.8490  -1.2300   0.00    0.0
2021/05/21 06:35:53.004   22.306614542  114.184582870     0.2395   4   2   1.9482   3.3921   2.5434   2.4171  -1.8604  -1.2463   0.00    0.0
2021/05/21 06:35:54.004   22.306637493  114.184633276    -1.7200   4   2   1.5771   2.5398   2.3453   1.8246  -1.2625  -0.8033   0.00    0.0
2021/05/21 06:35:55.004   22.306637883  114.184634944    -1.7959   4   2   1.5323   2.4759   2.2875   1.7778  -1.2296  -0.7862   0.00    0.0
2021/05/21 06:35:56.004   22.306627178  114.184612326    -0.9407   4   2   1.5140   2.4738   2.2425   1.7739  -1.2420  -0.8031   0.00    0.0
2021/05/21 06:35:57.004   22.306615512  114.184587602     0.0006   4   2   1.4952   2.4656   2.1996   1.7661  -1.2483  -0.8140   0.00    0.0
2021/05/21 06:35:58.004   22.306606969  114.184569410     0.6937   4   2   1.4796   2.4617   2.1602   1.7616  -1.2566  -0.8256   0.00    0.0
2021/05/21 06:35:59.004   22.306596309  114.184550072     1.3573   4   3   2.1702   2.4918   2.2208   1.9301  -1.1602   0.5854   0.00    0.0
2021/05/21 06:36:00.004   22.306589521  114.184533343     2.0352   4   3   1.6200   2.4623   2.1147   1.7818  -1.2579  -0.6929   0.00    0.0
2021/05/21 06:36:01.004   22.306583332  114.184519712     2.5526   4   3   1.5694   2.4602   2.0763   1.7728  -1.2697  -0.7447   0.00    0.0
2021/05/21 06:36:02.004   22.306577399  114.184507800     2.9853   4   2   1.9608   2.3203   2.1433   1.6721  -1.1767   0.6671   0.00    0.0
2021/05/21 06:36:03.004   22.306563296  114.184485648     3.5763   4   2   2.5472   2.3080   2.2948   1.6766  -1.1651   1.3857   0.00    0.0
2021/05/21 06:36:04.004   22.306559522  114.184471194     4.3151   4   2   2.6084   2.3088   2.3036   1.6615  -1.1843   1.4600   0.00    0.0
2021/05/21 06:36:05.004   22.306556607  114.184449625     5.5865   4   2   2.6094   2.7279   2.4560   1.6907  -1.6519   1.4398   0.00    0.0
2021/05/21 06:36:06.004   22.306558273  114.184443517     6.0904   4   2   2.6207   2.8008   2.4820   1.6799  -1.7383   1.4602   0.00    0.0
2021/05/21 06:36:07.004   22.306564765  114.184447711     6.4100   4   2   2.6368   2.8876   2.9848   1.6239  -1.3720   1.3252   0.00    0.0
2021/05/21 06:36:08.004   22.306562665  114.184450226     5.9645   4   2   2.6285   2.8073   2.6912   1.6775  -1.7226   1.5156   0.00    0.0
2021/05/21 06:36:09.004   22.306553302  114.184453699     5.1033   4   3   1.5560   2.7788   2.1345   1.9152  -1.5563  -1.0073   0.00    0.0
2021/05/21 06:36:10.004   22.306552557  114.184450262     5.3100   4   3   1.5081   2.7747   2.1001   1.8980  -1.5572  -1.0150   0.00    0.0
2021/05/21 06:36:11.004   22.306559093  114.184463903     4.8482   4   3   1.5018   2.7714   2.0562   1.9051  -1.5369  -1.0157   0.00    0.0
2021/05/21 06:36:12.004   22.306565013  114.184476717     4.3611   4   2   1.9799   2.7705   2.1802   1.8730  -1.5567   0.1367   0.00    0.0
2021/05/21 06:36:13.004   22.306563614  114.184487529     3.5507   4   2   2.5461   2.7889   2.4440   1.7263  -1.6771   1.3616   0.00    0.0
2021/05/21 06:36:14.004   22.306553153  114.184488397     2.8618   4   2   2.6076   2.8036   2.4868   1.6761  -1.7303   1.4686   0.00    0.0
2021/05/21 06:36:15.004   22.306568296  114.184487626     3.8900   4   2   1.4842   2.7739   1.9431   1.9300  -1.5412  -1.0627   0.00    0.0
2021/05/21 06:36:16.004   22.306565195  114.184483561     4.0051   4   2   1.4573   2.7654   1.9236   1.9144  -1.5453  -1.0622   0.00    0.0
2021/05/21 06:36:17.004   22.306558572  114.184482462     3.6713   4   3   1.9592   2.7652   2.0765   1.8900  -1.5669  -0.2007   0.00    0.0
2021/05/21 06:36:18.004   22.306562276  114.184485116     3.7678   4   2   1.5465   2.7686   1.9348   1.8905  -1.5739  -0.9467   0.00    0.0
2021/05/21 06:36:19.004   22.306564930  114.184491508     3.5386   4   2   1.5187   2.7666   1.9039   1.8973  -1.5692  -0.9796   0.00    0.0
2021/05/21 06:36:20.004   22.306564671  114.184492200     3.4865   4   2   1.5128   2.7635   1.8794   1.9038  -1.5631  -0.9908   0.00    0.0
2021/05/21 06:36:21.004   22.306597673  114.184572183     0.3433   4   2   1.3539   2.3360   1.7692   1.6339  -1.2644  -0.7923   0.00    0.0
2021/05/21 06:36:22.004   22.306603693  114.184591783    -0.5376   4   2   1.3365   2.3021   1.7409   1.6194  -1.2383  -0.7889   0.00    0.0
2021/05/21 06:36:23.004   22.306599234  114.184586025    -0.3909   4   2   1.3222   2.3014   1.7230   1.6175  -1.2413  -0.7988   0.00    0.0
2021/05/21 06:36:24.004   22.306597045  114.184582740    -0.2810   4   2   1.3060   2.2975   1.7059   1.6119  -1.2432  -0.8053   0.00    0.0
2021/05/21 06:36:25.004   22.306594350  114.184579524    -0.2324   4   2   1.8947   2.2990   1.8399   1.6585  -1.2110   0.5908   0.00    0.0
2021/05/21 06:36:26.004   22.306595928  114.184580093    -0.1411   4   3   1.2869   2.2969   1.6734   1.6108  -1.2476  -0.8192   0.00    0.0
2021/05/21 06:36:27.004   22.306594067  114.184574230     0.1023   4   3   1.2781   2.2952   1.6577   1.6095  -1.2483  -0.8246   0.00    0.0
2021/05/21 06:36:28.004   22.306595214  114.184559020     1.2049   4   2   1.9009   2.2980   1.8037   1.6617  -1.2132   0.6040   0.00    0.0
2021/05/21 06:36:29.004   22.306613241  114.184550399     2.9382   4   2   2.5401   2.2974   2.0393   1.6718  -1.2061   1.4165   0.00    0.0
2021/05/21 06:36:30.004   22.306612534  114.184537643     3.7422   4   2   2.5985   2.2990   2.0676   1.6545  -1.2234   1.4917   0.00    0.0
2021/05/21 06:36:31.004   22.306601767  114.184532430     3.4047   4   2   2.5991   2.3001   2.0586   1.6566  -1.2247   1.4920   0.00    0.0
2021/05/21 06:36:32.004   22.306590499  114.184533593     2.5931   4   2   2.6114   2.2998   2.0549   1.6570  -1.2253   1.5051   0.00    0.0
2021/05/21 06:36:33.004   22.306577881  114.184535427     1.6652   4   2   1.2719   2.2994   1.5790   1.6179  -1.2560  -0.8378   0.00    0.0
2021/05/21 06:36:34.004   22.306579445  114.184537811     1.6116   4   2   1.2480   2.2953   1.5682   1.6061  -1.2605  -0.8424   0.00    0.0
2021/05/21 06:36:35.004   22.306578330  114.184535691     1.6966   4   2   1.2452   2.2937   1.5545   1.6081  -1.2584  -0.8466   0.00    0.0
2021/05/21 06:36:36.004   22.306574927  114.184524464     2.0577   4   3   1.2439   2.2927   1.5419   1.6101  -1.2568  -0.8494   0.00    0.0
2021/05/21 06:36:37.004   22.306588755  114.184539111     1.6064   4   2   1.1727   2.2288   1.9127   1.5184  -0.9380  -0.8006   0.00    0.0
2021/05/21 06:36:38.004   22.306603313  114.184530301     0.9785   4   2   1.1711   2.3655   3.5358   1.4658   1.2477  -1.0561   0.00    0.0
2021/05/21 06:36:39.004   22.306604604  114.184497768     1.3659   4   0   2.2366   2.5490   5.4792   1.5005   2.0147  -0.1577   0.00    0.0
2021/05/21 06:36:40.004   22.306633912  114.184489395    -1.0533   4   0   2.4902   2.4958   6.6950   1.4177   2.5891   1.9307   0.00    0.0
2021/05/21 06:36:41.004   22.306660014  114.184465564    -2.0532   4   0   2.5004   2.5203   7.0864   1.4481   2.7634   2.1304   0.00    0.0
2021/05/21 06:36:42.004   22.306664688  114.184426845    -2.9581   4   0   2.5057   2.5258   7.1574   1.4404   2.7925   2.1072   0.00    0.0
2021/05/21 06:36:43.004   22.306667297  114.184379874    -4.2208   4   0   2.5068   2.5243   7.1688   1.4353   2.7934   2.0933   0.00    0.0
2021/05/21 06:36:44.004   22.306681050  114.184359529    -4.2389   4   0   2.5072   2.5254   7.2004   1.4365   2.8037   2.1022   0.00    0.0
2021/05/21 06:36:45.004   22.306689200  114.184356956     7.5777   4   0   2.6421   2.8903   8.3969   1.6215   3.4685   1.8395   0.00    0.0
2021/05/21 06:36:46.004   22.306712547  114.184343479    16.4390   4   0   2.6547   2.6555   7.7758   1.6429   2.8223   1.8387   0.00    0.0
2021/05/21 06:36:47.004   22.306732539  114.184374007    33.3026   4   0   2.6547   2.9067   8.6782   1.6360   3.5369   1.8211   0.00    0.0
2021/05/21 06:36:48.004   22.306775570  114.184408035    49.9950   4   0   2.6569   2.9840   9.1394   1.6542   3.8020   1.8807   0.00    0.0
2021/05/21 06:36:53.004   22.306987849  114.184763878   202.7455   4   0   3.1449   5.6650  23.5256   1.3448  10.5613   2.7046   0.00    0.0
2021/05/21 06:36:54.004   22.307025100  114.184900119   236.9493   4   0   2.8217   5.5708  24.3292   1.2838  10.6567  -0.8429   0.00    0.0
2021/05/21 06:36:55.004   22.307068586  114.184965183   256.4985   4   0   2.7897   6.0730  24.7336   1.1328  11.5989  -1.6963   0.00    0.0
2021/05/21 06:36:56.004   22.307128585  114.184973773   236.4177   4   0   2.7585   6.3704  26.0147   1.1072  12.2672  -1.7093   0.00    0.0
2021/05/21 06:36:57.004   22.307161656  114.184998623   230.2926   4   2   2.3167   5.9666  23.7538   2.0618  11.3940   3.5931   0.00    0.0
2021/05/21 06:36:58.004   22.307210992  114.184995345   205.5837   4   0   2.6616   6.1259  24.8016   1.3296  11.7342   0.5058   0.00    0.0
2021/05/21 06:36:59.004   22.307218740  114.185037344   215.3720   4   0   2.6931   6.1125  24.8989   1.0389  11.7359  -1.7421   0.00    0.0
2021/05/21 06:37:00.004   22.307299861  114.185038646   212.9253   4   0   4.4754   7.6299  35.0260  -3.9584  15.8224  -9.6217   0.00    0.0
2021/05/21 06:37:01.004   22.307287332  114.185193163   272.8035   4   0   2.7710   6.2689  26.0381  -0.4659  12.1846  -3.0688   0.00    0.0
2021/05/21 06:37:02.004   22.307330862  114.185194155   280.2072   4   0   4.3988   7.3820  33.7267  -3.7338  15.2350  -9.1746   0.00    0.0
2021/05/21 06:37:03.004   22.307339685  114.185193882   284.7830   4   0   5.8903   9.5039  46.2024  -6.1419  20.5229 -14.4621   0.00    0.0
2021/05/21 06:37:04.004   22.307342717  114.185184521   288.4260   4   0   7.2023  12.2490  60.9243  -8.3571  26.9833 -19.3408   0.00    0.0
2021/05/21 06:37:05.004   22.307554361  114.184676206    27.9968   4   0   3.8110   3.0400   9.1598   2.4595   3.3087   2.4165   0.00    0.0
2021/05/21 06:37:06.004   22.307536516  114.184642388    32.9750   4   0   3.5878   2.8595   7.8391   2.2452   2.7812   1.9911   0.00    0.0
2021/05/21 06:37:07.004   22.307503933  114.184613668    31.1692   4   0   3.6599   2.9192   8.3784   2.3214   2.9991   2.1695   0.00    0.0
2021/05/21 06:37:08.004   22.307464000  114.184564636    30.9035   4   2   3.6622   3.7726   8.6636   2.8092   2.7664   1.6263   0.00    0.0
2021/05/21 06:37:09.004   22.307465220  114.184570726    33.6462   4   2   3.6114   3.7612   8.5992   2.8024   2.7340   1.6112   0.00    0.0
2021/05/21 06:37:10.004   22.307456193  114.184582632    37.5970   4   2   2.8073   3.6780   8.1037   2.5676   2.5031  -1.4798   0.00    0.0
2021/05/21 06:37:11.004   22.307385598  114.184538641    49.9708   4   2   2.1240   3.3535   7.6104   2.0062   2.5950  -1.4227   0.00    0.0
2021/05/21 06:37:12.004   22.307359091  114.184557911    56.8466   4   2   2.3537   3.3288   7.4864   1.9019   2.4389  -0.5144   0.00    0.0
2021/05/21 06:37:13.004   22.307359710  114.184580867    61.9863   4   2   1.9617   3.3211   7.1572   1.9599   2.4399  -1.4678   0.00    0.0
2021/05/21 06:37:14.004   22.307352952  114.184580146    63.9827   4   2   1.8850   3.3149   6.9567   1.9644   2.4149  -1.6229   0.00    0.0
2021/05/21 06:37:15.004   22.307354592  114.184579978    62.2796   4   2   1.8438   3.3115   6.8055   1.9637   2.3887  -1.7231   0.00    0.0
2021/05/21 06:37:16.004   22.307360706  114.184573094    59.8973   4   0   2.3743   3.3131   6.9773   1.8997   2.3002  -0.4925   0.00    0.0
2021/05/21 06:37:17.004   22.307364679  114.184560892    59.5414   4   0   2.6803   3.3115   7.3343   1.9061   2.2990   1.6390   0.00    0.0
2021/05/21 06:37:18.004   22.307350577  114.184564012    62.8028   4   2   1.8070   3.3157   6.6175   1.9328   2.3814  -1.9876   0.00    0.0
2021/05/21 06:37:19.004   22.307357519  114.184564562    70.8367   4   0   2.5767   3.3112   6.9544   1.8628   2.2440   0.7866   0.00    0.0
