% program   : RTKPOST demo5 b34k
% inp file  : D:\phd\polyu\subjects\AAE6102\AAE6102_Laboratory\GNSS Data\UrbanNav - Medium\20210521.medium-urban.whampoa.ublox.f9p.obs
% inp file  : D:\phd\polyu\subjects\AAE6102\AAE6102_Laboratory\GNSS Data\UrbanNav - Medium\hksc141g.21o
% inp file  : D:\phd\polyu\subjects\AAE6102\AAE6102_Laboratory\GNSS Data\UrbanNav - Medium\hksc141g.21g
% inp file  : D:\phd\polyu\subjects\AAE6102\AAE6102_Laboratory\GNSS Data\UrbanNav - Medium\hksc141g.21b
% inp file  : D:\phd\polyu\subjects\AAE6102\AAE6102_Laboratory\GNSS Data\UrbanNav - Medium\hksc141g.21l
% inp file  : D:\phd\polyu\subjects\AAE6102\AAE6102_Laboratory\GNSS Data\UrbanNav - Medium\hksc141g.21n
% obs start : 2021/05/21 06:29:02.0 GPST (week2158 455342.0s)
% obs end   : 2021/05/21 06:54:39.0 GPST (week2158 456879.0s)
% pos mode  : Kinematic
% freqs     : L1+L2/E5b
% solution  : Combined-Phase Reset
% elev mask : 15.0 deg
% dynamics  : on
% tidecorr  : off
% ionos opt : Broadcast
% tropo opt : Saastamoinen
% ephemeris : Broadcast
% navi sys  : GPS GLONASS Galileo QZSS BDS NavIC SBAS
% amb res   : Fix and Hold
% amb glo   : Fix and Hold
% val thres : 3.0
% antenna1  :                       ( 0.0000  0.0000  0.0000)
% antenna2  :                       ( 0.0000  0.0000  0.0000)
% ref pos   : 22.322172082  114.141187963    20.2386
%
% (lat/lon/height=WGS84/ellipsoidal,Q=1:fix,2:float,3:sbas,4:dgps,5:single,6:ppp,ns=# of satellites)
%  GPST                  latitude(deg) longitude(deg)  height(m)   Q  ns   sdn(m)   sde(m)   sdu(m)  sdne(m)  sdeu(m)  sdun(m) age(s)  ratio
2021/05/21 06:29:02.000   22.301566971  114.190310368     6.1657   2  17   0.0687   0.0777   0.1605  -0.0259  -0.0053   0.0570   0.00    0.0
2021/05/21 06:29:03.000   22.301566939  114.190310372     6.1488   2  19   0.0690   0.0778   0.1608  -0.0258  -0.0070   0.0571   0.00    0.0
2021/05/21 06:29:04.000   22.301566817  114.190310322     6.1576   2  17   0.0694   0.0778   0.1611  -0.0257  -0.0080   0.0572   0.00    0.0
2021/05/21 06:29:05.000   22.301566869  114.190310281     6.1718   2  18   0.0697   0.0778   0.1614  -0.0256  -0.0090   0.0573   0.00    0.0
2021/05/21 06:29:06.000   22.301566741  114.190310307     6.1614   2  17   0.0700   0.0778   0.1615  -0.0256  -0.0095   0.0575   0.00    0.0
2021/05/21 06:29:07.000   22.301566785  114.190310072     6.1605   2  17   0.0703   0.0779   0.1618  -0.0255  -0.0102   0.0575   0.00    0.0
2021/05/21 06:29:08.000   22.301567179  114.190306862     6.1544   2  17   0.0705   0.0779   0.1620  -0.0255  -0.0106   0.0578   0.00    0.0
2021/05/21 06:29:09.000   22.301567516  114.190299822     6.1465   2  16   0.0708   0.0779   0.1622  -0.0254  -0.0112   0.0579   0.00    0.0
2021/05/21 06:29:10.000   22.301567896  114.190289507     6.1326   2  12   0.0712   0.0780   0.1626  -0.0254  -0.0122   0.0581   0.00    0.0
2021/05/21 06:29:11.000   22.301571364  114.190276925     6.1088   2  14   0.0715   0.0780   0.1627  -0.0252  -0.0126   0.0581   0.00    0.0
2021/05/21 06:29:12.000   22.301580078  114.190266857     6.1229   2  16   0.0717   0.0780   0.1627  -0.0249  -0.0124   0.0579   0.00    0.0
2021/05/21 06:29:13.000   22.301591774  114.190259651     6.0967   2  18   0.0720   0.0780   0.1628  -0.0246  -0.0127   0.0578   0.00    0.0
2021/05/21 06:29:14.000   22.301604347  114.190252113     6.1012   2  19   0.0723   0.0781   0.1630  -0.0244  -0.0131   0.0577   0.00    0.0
2021/05/21 06:29:15.000   22.301618027  114.190244382     6.0976   2  22   0.0725   0.0781   0.1630  -0.0243  -0.0135   0.0576   0.00    0.0
2021/05/21 06:29:16.000   22.301633531  114.190235762     6.1160   2  21   0.0728   0.0781   0.1631  -0.0241  -0.0137   0.0575   0.00    0.0
2021/05/21 06:29:17.000   22.301655151  114.190224438     6.1458   2  18   0.0730   0.0782   0.1633  -0.0239  -0.0141   0.0573   0.00    0.0
2021/05/21 06:29:18.000   22.301683577  114.190210683     6.1680   2  17   0.0731   0.0782   0.1634  -0.0238  -0.0145   0.0572   0.00    0.0
2021/05/21 06:29:19.000   22.301717850  114.190194800     6.1865   2  17   0.0732   0.0782   0.1634  -0.0237  -0.0147   0.0571   0.00    0.0
2021/05/21 06:29:20.000   22.301756286  114.190176734     6.2289   2  18   0.0734   0.0782   0.1635  -0.0236  -0.0150   0.0568   0.00    0.0
2021/05/21 06:29:21.000   22.301798998  114.190156560     6.2526   2  19   0.0735   0.0782   0.1634  -0.0235  -0.0148   0.0568   0.00    1.0
2021/05/21 06:29:22.000   22.301846037  114.190133856     6.2527   2  17   0.0737   0.0782   0.1636  -0.0233  -0.0150   0.0567   0.00    1.7
2021/05/21 06:29:23.000   22.301896698  114.190108949     6.2962   2  16   0.0738   0.0782   0.1637  -0.0231  -0.0154   0.0564   0.00    1.2
2021/05/21 06:29:24.000   22.301949664  114.190082497     6.2886   2  17   0.0739   0.0782   0.1637  -0.0230  -0.0154   0.0561   0.00    1.4
2021/05/21 06:29:25.000   22.302002306  114.190056185     6.2933   2  18   0.0740   0.0782   0.1638  -0.0228  -0.0151   0.0561   0.00    1.2
2021/05/21 06:29:26.000   22.302053721  114.190031183     6.2822   2  17   0.0741   0.0783   0.1639  -0.0225  -0.0153   0.0558   0.00    1.2
2021/05/21 06:29:27.000   22.302103738  114.190006622     6.2638   2  16   0.0742   0.0783   0.1639  -0.0223  -0.0153   0.0556   0.00    1.2
2021/05/21 06:29:28.000   22.302151810  114.189981968     6.2575   2  16   0.0743   0.0783   0.1639  -0.0220  -0.0154   0.0552   0.00    1.2
2021/05/21 06:29:29.000   22.302197427  114.189954916     6.2212   2  15   0.0744   0.0784   0.1640  -0.0217  -0.0155   0.0549   0.00    2.0
2021/05/21 06:29:30.000   22.302237373  114.189921835     6.1693   2  14   0.0746   0.0785   0.1643  -0.0213  -0.0151   0.0550   0.00    1.9
2021/05/21 06:29:31.000   22.302268957  114.189882664     6.1332   2  11   0.0750   0.0786   0.1644  -0.0209  -0.0152   0.0551   0.00    1.7
2021/05/21 06:29:32.000   22.302289682  114.189838837     6.1170   2  13   0.0748   0.0785   0.1642  -0.0210  -0.0159   0.0546   0.00    1.7
2021/05/21 06:29:33.000   22.302298792  114.189793728     6.1583   2  15   0.0746   0.0785   0.1642  -0.0210  -0.0163   0.0541   0.00    1.8
2021/05/21 06:29:34.000   22.302297760  114.189749477     6.1736   2  14   0.0746   0.0785   0.1643  -0.0206  -0.0168   0.0537   0.00    1.0
2021/05/21 06:29:35.000   22.302287183  114.189707264     6.2211   2  17   0.0746   0.0786   0.1641  -0.0201  -0.0162   0.0532   0.00    1.0
2021/05/21 06:29:36.000   22.302268496  114.189668648     6.2595   2  16   0.0747   0.0787   0.1642  -0.0194  -0.0163   0.0530   0.00    1.0
2021/05/21 06:29:37.000   22.302246739  114.189631928     6.3191   2  18   0.0748   0.0788   0.1642  -0.0187  -0.0161   0.0525   0.00    1.4
2021/05/21 06:29:38.000   22.302223911  114.189595182     6.3928   2  19   0.0748   0.0789   0.1641  -0.0178  -0.0159   0.0521   0.00    1.1
2021/05/21 06:29:39.000   22.302201630  114.189559724     6.4515   2  19   0.0749   0.0791   0.1641  -0.0167  -0.0157   0.0517   0.00    1.0
2021/05/21 06:29:40.000   22.302180646  114.189527280     6.5281   2  19   0.0751   0.0793   0.1641  -0.0153  -0.0153   0.0515   0.00    1.4
2021/05/21 06:29:41.000   22.302160266  114.189496484     6.5728   2  18   0.0754   0.0796   0.1642  -0.0131  -0.0141   0.0513   0.00    1.0
2021/05/21 06:29:42.000   22.302141726  114.189468627     6.6297   2  19   0.0755   0.0798   0.1642  -0.0115  -0.0132   0.0512   0.00    2.0
2021/05/21 06:29:43.000   22.302122917  114.189441929     6.6776   2  17   0.0759   0.0801   0.1645  -0.0092  -0.0120   0.0515   0.00    2.1
2021/05/21 06:29:44.000   22.302102886  114.189413789     6.7156   2  16   0.0763   0.0805   0.1648  -0.0037  -0.0094   0.0519   0.00    2.6
2021/05/21 06:29:45.000   22.302081573  114.189382283     6.7784   2  15   0.0771   0.0813   0.1653   0.0107   0.0053   0.0528   0.00    2.2
2021/05/21 06:29:46.000   22.302059978  114.189345612     6.8244   2  13   0.0783   0.0829   0.1657   0.0181   0.0124   0.0537   0.00    2.2
2021/05/21 06:29:47.000   22.302040689  114.189302085     6.8788   2  10   0.0790   0.0837   0.1663   0.0211   0.0167   0.0549   0.00    2.7
2021/05/21 06:29:48.000   22.302026756  114.189252895     6.8951   2   9   0.0842   0.0866   0.1725   0.0207   0.0099   0.0653   0.00    1.3
2021/05/21 06:29:49.000   22.302022110  114.189201129     6.9069   2   5   0.0877   0.1024   0.1770   0.0354  -0.0360   0.0671   0.00    2.9
2021/05/21 06:29:50.000   22.302026405  114.189147284     6.9201   2   6   0.0899   0.0781   0.1833   0.0078   0.0171   0.0798   0.00    1.1
2021/05/21 06:29:51.000   22.302044137  114.189094132     7.0503   2   6   0.0911   0.0927   0.1715   0.0461   0.0379   0.0680   0.00    1.0
2021/05/21 06:29:52.000   22.302068784  114.189041327     7.1004   2   5   0.0759   0.0777   0.1671  -0.0174  -0.0184   0.0525   0.00    1.0
2021/05/21 06:29:53.000   22.302098631  114.188989555     7.1849   4   2   0.0763   0.0777   0.1689  -0.0174  -0.0172   0.0541   0.00    0.0
2021/05/21 06:29:54.000   22.302130461  114.188941220     7.4787   4   2   0.0837   0.0790   0.1705   0.0134  -0.0038   0.0618   0.00    0.0
2021/05/21 06:29:55.000   22.302157244  114.188894595     7.3705   4   3   0.0751   0.0772   0.1664  -0.0203  -0.0223   0.0503   0.00    0.0
2021/05/21 06:29:56.000   22.302181894  114.188853819     7.4367   4   2   0.0749   0.0772   0.1664  -0.0206  -0.0226   0.0499   0.00    0.0
2021/05/21 06:29:57.000   22.302199252  114.188820102     7.5000   4   2   0.0761   0.0776   0.1684  -0.0183  -0.0180   0.0534   0.00    0.0
2021/05/21 06:29:58.000   22.302209540  114.188795362     7.5220   4   2   0.0758   0.0775   0.1682  -0.0183  -0.0177   0.0530   0.00    0.0
2021/05/21 06:29:59.000   22.302215499  114.188777215     7.4751   4   2   0.0764   0.0779   0.1692  -0.0166  -0.0144   0.0543   0.00    0.0
2021/05/21 06:30:00.000   22.302219663  114.188761295     7.4665   4   3   0.0763   0.0778   0.1693  -0.0168  -0.0148   0.0542   0.00    0.0
2021/05/21 06:30:01.000   22.302220278  114.188743953     7.4624   2   9   0.0748   0.0771   0.1663  -0.0207  -0.0226   0.0498   0.00    1.1
2021/05/21 06:30:02.000   22.302213830  114.188728718     7.4572   2  14   0.0746   0.0771   0.1662  -0.0212  -0.0231   0.0496   0.00    1.2
2021/05/21 06:30:03.000   22.302203274  114.188718712     7.4205   2  17   0.0747   0.0774   0.1658  -0.0199  -0.0230   0.0490   0.00    1.0
2021/05/21 06:30:04.000   22.302191950  114.188713675     7.4763   2  19   0.0747   0.0772   0.1656  -0.0203  -0.0230   0.0490   0.00    1.5
2021/05/21 06:30:05.000   22.302187235  114.188712789     7.4791   2  18   0.0747   0.0771   0.1658  -0.0207  -0.0231   0.0492   0.00    1.4
2021/05/21 06:30:06.000   22.302187204  114.188712772     7.4963   2  19   0.0748   0.0771   0.1660  -0.0211  -0.0234   0.0494   0.00    1.9
2021/05/21 06:30:07.000   22.302187084  114.188712823     7.4914   2  18   0.0749   0.0770   0.1660  -0.0215  -0.0235   0.0496   0.00    1.5
2021/05/21 06:30:08.000   22.302187048  114.188712725     7.5076   2  17   0.0749   0.0770   0.1663  -0.0217  -0.0236   0.0499   0.00    1.3
2021/05/21 06:30:09.000   22.302186979  114.188712751     7.4891   2  19   0.0750   0.0770   0.1665  -0.0220  -0.0238   0.0502   0.00    1.3
2021/05/21 06:30:10.000   22.302186969  114.188712791     7.4932   2  19   0.0751   0.0770   0.1668  -0.0223  -0.0239   0.0507   0.00    1.4
2021/05/21 06:30:11.000   22.302186915  114.188712808     7.5194   2  19   0.0752   0.0770   0.1671  -0.0227  -0.0241   0.0511   0.00    1.2
2021/05/21 06:30:12.000   22.302186919  114.188712820     7.5365   2  18   0.0752   0.0770   0.1674  -0.0228  -0.0241   0.0514   0.00    1.7
2021/05/21 06:30:13.000   22.302186867  114.188712863     7.5245   2  18   0.0753   0.0769   0.1674  -0.0231  -0.0241   0.0518   0.00    1.7
2021/05/21 06:30:14.000   22.302186851  114.188712875     7.5343   2  16   0.0753   0.0769   0.1677  -0.0234  -0.0243   0.0522   0.00    1.7
2021/05/21 06:30:15.000   22.302186851  114.188712914     7.5225   2  18   0.0753   0.0769   0.1677  -0.0236  -0.0243   0.0525   0.00    1.1
2021/05/21 06:30:16.000   22.302186739  114.188712953     7.5189   2  19   0.0753   0.0769   0.1679  -0.0238  -0.0244   0.0527   0.00    1.0
2021/05/21 06:30:17.000   22.302186754  114.188712922     7.5189   2  19   0.0752   0.0769   0.1680  -0.0241  -0.0244   0.0531   0.00    1.2
2021/05/21 06:30:18.000   22.302186808  114.188712947     7.5005   2  18   0.0751   0.0768   0.1680  -0.0244  -0.0242   0.0535   0.00    1.1
2021/05/21 06:30:19.000   22.302186827  114.188713016     7.4981   2  19   0.0750   0.0768   0.1680  -0.0246  -0.0241   0.0538   0.00    2.2
2021/05/21 06:30:20.000   22.302186963  114.188713053     7.4850   2  18   0.0749   0.0768   0.1681  -0.0248  -0.0242   0.0541   0.00    1.2
2021/05/21 06:30:21.000   22.302187245  114.188713072     7.4611   2  20   0.0748   0.0767   0.1680  -0.0250  -0.0240   0.0544   0.00    1.5
2021/05/21 06:30:22.000   22.302187321  114.188713149     7.4257   2  20   0.0747   0.0767   0.1679  -0.0252  -0.0237   0.0546   0.00    2.1
2021/05/21 06:30:23.000   22.302187450  114.188713086     7.4101   2  21   0.0746   0.0767   0.1680  -0.0253  -0.0236   0.0549   0.00    1.1
2021/05/21 06:30:24.000   22.302187594  114.188713110     7.3791   2  20   0.0744   0.0766   0.1679  -0.0255  -0.0234   0.0551   0.00    1.3
2021/05/21 06:30:25.000   22.302187795  114.188713172     7.3622   2  21   0.0742   0.0766   0.1678  -0.0257  -0.0231   0.0553   0.00    1.4
2021/05/21 06:30:26.000   22.302187852  114.188713166     7.3702   2  20   0.0741   0.0766   0.1678  -0.0258  -0.0230   0.0554   0.00    1.3
2021/05/21 06:30:27.000   22.302187900  114.188713211     7.3893   2  19   0.0740   0.0766   0.1679  -0.0260  -0.0228   0.0555   0.00    1.2
2021/05/21 06:30:28.000   22.302187952  114.188713233     7.3633   2  20   0.0738   0.0765   0.1676  -0.0262  -0.0223   0.0556   0.00    1.2
2021/05/21 06:30:29.000   22.302188166  114.188713215     7.3596   2  20   0.0735   0.0765   0.1674  -0.0263  -0.0219   0.0557   0.00    1.1
2021/05/21 06:30:30.000   22.302188288  114.188713275     7.3547   2  20   0.0733   0.0764   0.1673  -0.0264  -0.0216   0.0557   0.00    1.1
2021/05/21 06:30:31.000   22.302188379  114.188713266     7.3404   2  20   0.0731   0.0764   0.1671  -0.0266  -0.0212   0.0558   0.00    1.1
2021/05/21 06:30:32.000   22.302188381  114.188713244     7.3432   2  19   0.0728   0.0763   0.1669  -0.0267  -0.0209   0.0559   0.00    1.2
2021/05/21 06:30:33.000   22.302188370  114.188713241     7.3493   2  20   0.0726   0.0763   0.1667  -0.0268  -0.0204   0.0558   0.00    1.2
2021/05/21 06:30:34.000   22.302188401  114.188713199     7.3591   2  19   0.0723   0.0762   0.1665  -0.0268  -0.0201   0.0558   0.00    1.2
2021/05/21 06:30:35.000   22.302188582  114.188713219     7.3625   2  18   0.0720   0.0762   0.1663  -0.0269  -0.0197   0.0557   0.00    1.1
2021/05/21 06:30:36.000   22.302188609  114.188713195     7.3385   2  20   0.0717   0.0761   0.1659  -0.0270  -0.0190   0.0556   0.00    1.2
2021/05/21 06:30:37.000   22.302188756  114.188713217     7.3202   2  20   0.0714   0.0761   0.1655  -0.0271  -0.0183   0.0556   0.00    1.2
2021/05/21 06:30:38.000   22.302188917  114.188713270     7.3230   2  20   0.0710   0.0760   0.1652  -0.0272  -0.0177   0.0555   0.00    1.3
2021/05/21 06:30:39.000   22.302188979  114.188713235     7.2946   2  21   0.0707   0.0760   0.1648  -0.0272  -0.0171   0.0554   0.00    1.2
2021/05/21 06:30:40.000   22.302189135  114.188713170     7.2611   2  20   0.0704   0.0759   0.1645  -0.0273  -0.0163   0.0552   0.00    1.5
2021/05/21 06:30:41.000   22.302189128  114.188713085     7.2355   2  20   0.0701   0.0758   0.1641  -0.0273  -0.0155   0.0550   0.00    1.2
2021/05/21 06:30:42.000   22.302188204  114.188712909     7.1860   2  20   0.0697   0.0758   0.1636  -0.0273  -0.0143   0.0549   0.00    1.5
2021/05/21 06:30:43.000   22.302177820  114.188711145     7.1545   2  18   0.0694   0.0758   0.1637  -0.0274  -0.0144   0.0548   0.00    1.1
2021/05/21 06:30:44.000   22.302153106  114.188702894     7.1196   2  14   0.0691   0.0758   0.1635  -0.0274  -0.0138   0.0548   0.00    1.0
2021/05/21 06:30:45.000   22.302115086  114.188686741     7.1373   2  15   0.0689   0.0758   0.1636  -0.0274  -0.0135   0.0547   0.00    1.1
2021/05/21 06:30:46.000   22.302066943  114.188661113     7.0865   2  10   0.0687   0.0760   0.1637  -0.0273  -0.0148   0.0545   0.00    1.1
2021/05/21 06:30:47.000   22.302009123  114.188626884     7.0444   2   5   0.0700   0.0762   0.1645  -0.0287  -0.0160   0.0561   0.00    0.0
2021/05/21 06:30:48.000   22.301946780  114.188585210     7.1671   2   5   0.0693   0.0770   0.1659  -0.0289  -0.0235   0.0558   0.00    0.0
2021/05/21 06:30:49.000   22.301888084  114.188537936     7.2757   2   4   0.0722   0.0794   0.1751  -0.0205   0.0233   0.0645   0.00    2.5
2021/05/21 06:30:50.000   22.301831160  114.188484542     7.2494   2   8   0.0707   0.0779   0.1701  -0.0241   0.0051   0.0602   0.00    1.0
2021/05/21 06:30:51.000   22.301777016  114.188426357     7.2114   2  12   0.0684   0.0759   0.1633  -0.0276  -0.0129   0.0548   0.00    1.1
2021/05/21 06:30:52.000   22.301727700  114.188364285     7.2141   2   9   0.0681   0.0765   0.1650  -0.0277  -0.0199   0.0547   0.00    1.2
2021/05/21 06:30:53.000   22.301683203  114.188300516     6.8205   2   4   0.0689   0.0776   0.1890  -0.0274  -0.0331   0.0590   0.00    0.0
2021/05/21 06:30:54.000   22.301640317  114.188233936     7.2736   2   7   0.0706   0.0775   0.1670  -0.0244  -0.0092   0.0590   0.00    0.0
2021/05/21 06:30:55.000   22.301594011  114.188163116     7.3219   2   8   0.0678   0.0768   0.1654  -0.0276  -0.0211   0.0545   0.00    0.0
2021/05/21 06:30:56.000   22.301550558  114.188090693     7.2640   2   9   0.0676   0.0776   0.1680  -0.0272  -0.0276   0.0541   0.00    0.0
2021/05/21 06:30:57.000   22.301510887  114.188018908     7.1383   2  10   0.0675   0.0775   0.1684  -0.0274  -0.0273   0.0541   0.00    1.9
2021/05/21 06:30:58.000   22.301476625  114.187950660     7.1078   2   9   0.0674   0.0775   0.1681  -0.0273  -0.0271   0.0541   0.00    1.6
2021/05/21 06:30:59.000   22.301446167  114.187887741     7.1530   2   9   0.0712   0.0796   0.1788  -0.0179  -0.0430   0.0386   0.00    0.0
2021/05/21 06:31:00.000   22.301421719  114.187832484     7.0829   2   7   0.0705   0.0869   0.1884  -0.0201  -0.0634   0.0424   0.00    0.0
2021/05/21 06:31:01.000   22.301401713  114.187787485     7.0310   2   4   0.0731   0.0919   0.1940  -0.0297  -0.0734   0.0504   0.00    0.0
2021/05/21 06:31:02.000   22.301382320  114.187762817     6.0719   2   6   0.1121   0.1561   0.2335  -0.1082  -0.1480   0.1178   0.00    0.0
2021/05/21 06:31:03.000   22.301379340  114.187730638     7.5234   2   5   0.1198   0.1670   0.2466  -0.1179  -0.1630   0.1287   0.00    0.0
2021/05/21 06:31:04.000   22.301368963  114.187731768     6.1868   2   6   0.1206   0.1595   0.2353  -0.1166  -0.1512   0.1260   0.00    0.0
2021/05/21 06:31:05.000   22.301365901  114.187725886     6.3988   2   9   0.1045   0.1310   0.2109  -0.0887  -0.1149   0.0940   0.00    0.0
2021/05/21 06:31:06.000   22.301367189  114.187720976     6.6497   2   8   0.0941   0.1122   0.1949  -0.0716  -0.0892   0.0778   0.00    0.0
2021/05/21 06:31:07.000   22.301367449  114.187718152     6.8244   2   8   0.0908   0.1042   0.1880  -0.0640  -0.0772   0.0694   0.00    0.0
2021/05/21 06:31:08.000   22.301364545  114.187715549     6.6908   2   8   0.0947   0.1050   0.1866  -0.0679  -0.0759   0.0706   0.00    0.0
2021/05/21 06:31:09.000   22.301365084  114.187714505     6.7134   2  12   0.0925   0.1027   0.1838  -0.0655  -0.0734   0.0709   0.00    0.0
2021/05/21 06:31:10.000   22.301366367  114.187713468     6.7415   2  11   0.0898   0.1012   0.1824  -0.0631  -0.0717   0.0712   0.00    1.5
2021/05/21 06:31:11.000   22.301366538  114.187713644     6.7366   2  10   0.0883   0.0997   0.1814  -0.0614  -0.0702   0.0708   0.00    0.0
2021/05/21 06:31:12.000   22.301367339  114.187712856     6.6800   2  12   0.0873   0.0987   0.1806  -0.0600  -0.0686   0.0701   0.00    0.0
2021/05/21 06:31:13.000   22.301367077  114.187711258     6.5881   2  10   0.0845   0.0956   0.1816  -0.0551  -0.0616   0.0649   0.00    0.0
2021/05/21 06:31:14.000   22.301366908  114.187708281     6.6133   2   8   0.0900   0.0992   0.1813  -0.0625  -0.0693   0.0735   0.00    1.4
2021/05/21 06:31:15.000   22.301369375  114.187699970     6.7078   2  11   0.0879   0.0992   0.1794  -0.0608  -0.0658   0.0694   0.00    0.0
2021/05/21 06:31:16.000   22.301293404  114.187719232     5.4549   2   5   0.6649   0.3570   0.4359  -0.3358  -0.3481  -0.0651   0.00    0.0
2021/05/21 06:31:17.000   22.301369620  114.187670884     7.9950   2   5   0.4984   0.1629   0.3706   0.1888  -0.2055  -0.3714   0.00    0.0
2021/05/21 06:31:18.000   22.301318172  114.187661492     5.2189   2   4   0.8370   0.1944   1.0338  -0.1157  -0.3808   0.4845   0.00    0.0
2021/05/21 06:31:19.000   22.301347527  114.187669233     8.4121   4   2   0.8352   0.1914   1.1126  -0.1629  -0.3892   0.5801   0.00    0.0
2021/05/21 06:31:20.000   22.301445078  114.187711565     6.4571   2   5   0.1708   0.1009   0.1991  -0.0459  -0.0871   0.0087   0.00    0.0
2021/05/21 06:31:21.000   22.301464014  114.187744633     6.2660   2   6   0.1059   0.0999   0.1885  -0.0575  -0.0805   0.0802   0.00    0.0
2021/05/21 06:31:22.000   22.301476889  114.187784506     6.2819   2   7   0.1053   0.0983   0.1861  -0.0563  -0.0785   0.0785   0.00    0.0
2021/05/21 06:31:23.000   22.301493033  114.187831961     6.5217   2   8   0.1047   0.0798   0.1698  -0.0537  -0.0433   0.0763   0.00    0.0
2021/05/21 06:31:24.000   22.301512060  114.187885830     6.5507   2   8   0.1047   0.0797   0.1694  -0.0537  -0.0435   0.0761   0.00    0.0
2021/05/21 06:31:25.000   22.301536777  114.187942093     6.6179   2  10   0.1046   0.0797   0.1693  -0.0537  -0.0435   0.0760   0.00    0.0
2021/05/21 06:31:26.000   22.301564435  114.187999059     6.6625   2  10   0.1047   0.0797   0.1693  -0.0536  -0.0436   0.0760   0.00    1.9
2021/05/21 06:31:27.000   22.301593059  114.188053142     6.6491   2  11   0.1049   0.0804   0.1728  -0.0541  -0.0476   0.0770   0.00    1.2
2021/05/21 06:31:28.000   22.301623298  114.188103212     6.7221   2   8   0.1053   0.0803   0.1775  -0.0540  -0.0462   0.0794   0.00    1.1
2021/05/21 06:31:29.000   22.301655056  114.188149537     7.2097   4   3   0.1084   0.0808   0.1895  -0.0543  -0.0435   0.0883   0.00    0.0
2021/05/21 06:31:30.000   22.301684158  114.188190128     6.7401   2   4   0.1056   0.0804   0.1777  -0.0543  -0.0462   0.0799   0.00    0.0
2021/05/21 06:31:31.000   22.301724605  114.188228819    10.8328   1   9   0.0129   0.0088   0.0350   0.0070   0.0141   0.0201   0.00    5.0
2021/05/21 06:31:32.000   22.301737305  114.188256575     6.7250   2   9   0.1055   0.0803   0.1774  -0.0541  -0.0460   0.0798   0.00    1.1
2021/05/21 06:31:33.000   22.301756102  114.188278766     6.6495   2  12   0.1054   0.0804   0.1769  -0.0543  -0.0461   0.0795   0.00    1.0
2021/05/21 06:31:34.000   22.301767189  114.188292101     6.6247   2  13   0.1056   0.0804   0.1768  -0.0544  -0.0464   0.0796   0.00    1.1
2021/05/21 06:31:35.000   22.301772583  114.188297792     6.5950   2  12   0.1058   0.0804   0.1770  -0.0546  -0.0465   0.0798   0.00    1.1
2021/05/21 06:31:36.000   22.301773232  114.188298602     6.5826   2  13   0.1060   0.0805   0.1758  -0.0549  -0.0468   0.0794   0.00    1.0
2021/05/21 06:31:37.000   22.301773162  114.188298765     6.5961   2  13   0.1062   0.0805   0.1759  -0.0550  -0.0468   0.0796   0.00    1.3
2021/05/21 06:31:38.000   22.301773158  114.188298660     6.5668   2  13   0.1063   0.0806   0.1757  -0.0551  -0.0469   0.0796   0.00    2.3
2021/05/21 06:31:39.000   22.301773224  114.188298725     6.5731   2  14   0.1065   0.0806   0.1756  -0.0552  -0.0470   0.0797   0.00    2.7
2021/05/21 06:31:40.000   22.301773096  114.188298693     6.5193   2  14   0.1067   0.0806   0.1758  -0.0554  -0.0471   0.0799   0.00    1.0
2021/05/21 06:31:41.000   22.301773159  114.188298620     6.5183   2  14   0.1068   0.0807   0.1757  -0.0555  -0.0471   0.0799   0.00    1.1
2021/05/21 06:31:42.000   22.301773213  114.188298665     6.5310   2  15   0.1069   0.0807   0.1756  -0.0556  -0.0471   0.0800   0.00    1.0
2021/05/21 06:31:43.000   22.301773210  114.188298676     6.5318   2  14   0.1071   0.0807   0.1757  -0.0557  -0.0472   0.0801   0.00    1.1
2021/05/21 06:31:44.000   22.301773145  114.188298749     6.5296   2  15   0.1071   0.0808   0.1757  -0.0558  -0.0472   0.0801   0.00    1.1
2021/05/21 06:31:45.000   22.301773132  114.188298771     6.5422   2  15   0.1072   0.0808   0.1756  -0.0559  -0.0473   0.0802   0.00    1.4
2021/05/21 06:31:46.000   22.301773117  114.188298792     6.5376   2  14   0.1073   0.0808   0.1756  -0.0559  -0.0474   0.0802   0.00    1.5
2021/05/21 06:31:47.000   22.301773159  114.188298829     6.5427   2  15   0.1073   0.0808   0.1756  -0.0559  -0.0474   0.0803   0.00    1.8
2021/05/21 06:31:48.000   22.301773143  114.188298810     6.5154   2  13   0.1074   0.0808   0.1758  -0.0560  -0.0473   0.0804   0.00    1.0
2021/05/21 06:31:49.000   22.301773150  114.188298777     6.5200   2  15   0.1075   0.0809   0.1758  -0.0560  -0.0474   0.0804   0.00    1.0
2021/05/21 06:31:50.000   22.301773227  114.188298800     6.5387   2  14   0.1075   0.0808   0.1757  -0.0560  -0.0474   0.0805   0.00    1.5
2021/05/21 06:31:51.000   22.301773163  114.188298773     6.5184   2  15   0.1075   0.0808   0.1757  -0.0560  -0.0475   0.0805   0.00    1.2
2021/05/21 06:31:52.000   22.301773237  114.188298800     6.5340   2  15   0.1074   0.0808   0.1756  -0.0560  -0.0475   0.0805   0.00    1.1
2021/05/21 06:31:53.000   22.301773325  114.188298798     6.5490   2  14   0.1074   0.0808   0.1757  -0.0559  -0.0474   0.0806   0.00    1.0
2021/05/21 06:31:54.000   22.301773153  114.188298668     6.5077   2  14   0.1074   0.0808   0.1757  -0.0558  -0.0473   0.0806   0.00    1.1
2021/05/21 06:31:55.000   22.301772927  114.188298580     6.4694   2  15   0.1073   0.0808   0.1756  -0.0557  -0.0473   0.0805   0.00    1.1
2021/05/21 06:31:56.000   22.301773120  114.188298770     6.5178   2  15   0.1072   0.0807   0.1756  -0.0557  -0.0473   0.0805   0.00    1.0
2021/05/21 06:31:57.000   22.301773154  114.188298794     6.5411   2  15   0.1070   0.0807   0.1753  -0.0556  -0.0474   0.0801   0.00    1.2
2021/05/21 06:31:58.000   22.301772839  114.188298694     6.4768   2  14   0.1071   0.0807   0.1758  -0.0554  -0.0470   0.0807   0.00    1.1
2021/05/21 06:31:59.000   22.301773055  114.188298758     6.5061   2  14   0.1069   0.0806   0.1757  -0.0553  -0.0470   0.0805   0.00    1.4
2021/05/21 06:32:00.000   22.301772781  114.188298615     6.4602   2  15   0.1068   0.0806   0.1757  -0.0551  -0.0469   0.0805   0.00    1.1
2021/05/21 06:32:01.000   22.301772843  114.188298495     6.4502   2  15   0.1067   0.0805   0.1756  -0.0550  -0.0469   0.0805   0.00    1.1
2021/05/21 06:32:02.000   22.301772853  114.188298574     6.4646   2  15   0.1065   0.0805   0.1756  -0.0548  -0.0468   0.0804   0.00    1.0
2021/05/21 06:32:03.000   22.301772791  114.188298658     6.4384   2  15   0.1063   0.0804   0.1755  -0.0546  -0.0467   0.0804   0.00    1.0
2021/05/21 06:32:04.000   22.301774921  114.188300952     6.4696   2  15   0.1063   0.0803   0.1755  -0.0545  -0.0466   0.0804   0.00    1.0
2021/05/21 06:32:05.000   22.301782223  114.188308632     6.5304   2  13   0.1063   0.0803   0.1758  -0.0543  -0.0463   0.0805   0.00    1.3
2021/05/21 06:32:06.000   22.301797376  114.188325230     6.4423   2  10   0.1063   0.0802   0.1769  -0.0540  -0.0459   0.0813   0.00    1.2
2021/05/21 06:32:07.000   22.301820026  114.188348688     6.4237   2  11   0.1059   0.0802   0.1758  -0.0539  -0.0460   0.0803   0.00    1.3
2021/05/21 06:32:08.000   22.301849517  114.188377514     6.3386   2   8   0.1062   0.0801   0.1778  -0.0537  -0.0459   0.0819   0.00    1.1
2021/05/21 06:32:09.000   22.301886155  114.188408472     6.3569   2   8   0.1062   0.0800   0.1779  -0.0536  -0.0459   0.0820   0.00    1.1
2021/05/21 06:32:10.000   22.301929181  114.188440842     6.3203   2   9   0.1057   0.0800   0.1761  -0.0537  -0.0462   0.0806   0.00    1.1
2021/05/21 06:32:11.000   22.301978621  114.188473006     6.2452   2   7   0.1056   0.0800   0.1761  -0.0535  -0.0461   0.0805   0.00    1.0
2021/05/21 06:32:12.000   22.302032197  114.188502368     6.2073   2   7   0.1055   0.0798   0.1760  -0.0533  -0.0460   0.0806   0.00    1.8
2021/05/21 06:32:13.000   22.302089015  114.188528947     6.1843   2   9   0.1052   0.0797   0.1760  -0.0529  -0.0460   0.0805   0.00    1.0
2021/05/21 06:32:14.000   22.302146768  114.188551241     6.1500   2   8   0.1051   0.0797   0.1758  -0.0528  -0.0457   0.0801   0.00    1.7
2021/05/21 06:32:15.000   22.302202117  114.188569143     6.0429   2  12   0.1047   0.0796   0.1757  -0.0524  -0.0456   0.0799   0.00    1.9
2021/05/21 06:32:16.000   22.302253831  114.188583058     6.0096   2  11   0.1046   0.0795   0.1756  -0.0523  -0.0455   0.0797   0.00    1.5
2021/05/21 06:32:17.000   22.302301225  114.188593850     5.9393   2  10   0.1045   0.0794   0.1758  -0.0522  -0.0456   0.0798   0.00    1.6
2021/05/21 06:32:18.000   22.302344672  114.188602733     5.9026   2   9   0.1044   0.0793   0.1756  -0.0520  -0.0455   0.0796   0.00    1.0
2021/05/21 06:32:19.000   22.302379938  114.188608832     5.9014   2  11   0.1043   0.0793   0.1753  -0.0520  -0.0457   0.0794   0.00    1.7
2021/05/21 06:32:20.000   22.302404405  114.188612463     5.9077   2   9   0.1043   0.0793   0.1751  -0.0521  -0.0462   0.0792   0.00    1.5
2021/05/21 06:32:21.000   22.302419415  114.188614498     5.8921   2   5   0.1045   0.0794   0.1754  -0.0521  -0.0462   0.0792   0.00    1.3
2021/05/21 06:32:22.000   22.302427635  114.188615419     5.8730   2   5   0.1044   0.0794   0.1752  -0.0520  -0.0462   0.0793   0.00    1.6
2021/05/21 06:32:23.000   22.302430884  114.188615715     5.8787   2   5   0.1044   0.0793   0.1752  -0.0520  -0.0461   0.0791   0.00    1.0
2021/05/21 06:32:24.000   22.302430955  114.188615736     5.8935   2   5   0.1045   0.0794   0.1753  -0.0521  -0.0461   0.0790   0.00    0.0
2021/05/21 06:32:25.000   22.302430976  114.188615738     5.9072   2   5   0.1043   0.0791   0.1751  -0.0518  -0.0459   0.0790   0.00    1.1
2021/05/21 06:32:26.000   22.302430965  114.188615668     5.8879   2   8   0.1042   0.0791   0.1751  -0.0517  -0.0456   0.0788   0.00    1.3
2021/05/21 06:32:27.000   22.302431007  114.188615626     5.9005   2   8   0.1040   0.0792   0.1750  -0.0516  -0.0458   0.0788   0.00    1.8
2021/05/21 06:32:28.000   22.302431078  114.188615616     5.9145   2   7   0.1038   0.0790   0.1748  -0.0514  -0.0457   0.0785   0.00    1.9
2021/05/21 06:32:29.000   22.302431137  114.188615593     5.9080   2   9   0.1035   0.0789   0.1746  -0.0511  -0.0456   0.0782   0.00    2.0
2021/05/21 06:32:30.000   22.302431119  114.188615609     5.9042   2   6   0.1032   0.0788   0.1747  -0.0508  -0.0454   0.0781   0.00    1.4
2021/05/21 06:32:31.000   22.302431195  114.188615568     5.9039   2   6   0.1030   0.0787   0.1746  -0.0505  -0.0453   0.0780   0.00    2.0
2021/05/21 06:32:32.000   22.302431181  114.188615554     5.9230   2   6   0.1028   0.0786   0.1746  -0.0503  -0.0451   0.0778   0.00    1.2
2021/05/21 06:32:33.000   22.302431102  114.188615597     5.9133   2   6   0.1026   0.0786   0.1745  -0.0502  -0.0453   0.0777   0.00    2.0
2021/05/21 06:32:34.000   22.302431188  114.188615538     5.9206   2   7   0.1022   0.0785   0.1743  -0.0498  -0.0449   0.0772   0.00    2.0
2021/05/21 06:32:35.000   22.302431281  114.188615551     5.9326   2   6   0.1018   0.0783   0.1743  -0.0494  -0.0446   0.0770   0.00    2.0
2021/05/21 06:32:36.000   22.302431273  114.188615527     5.9141   2   4   0.1017   0.0784   0.1745  -0.0493  -0.0446   0.0771   0.00    2.3
2021/05/21 06:32:37.000   22.302431380  114.188615545     5.9513   2   7   0.1012   0.0782   0.1741  -0.0489  -0.0443   0.0765   0.00    2.1
2021/05/21 06:32:38.000   22.302431258  114.188615508     5.9150   2   6   0.1010   0.0782   0.1740  -0.0487  -0.0439   0.0761   0.00    1.1
2021/05/21 06:32:39.000   22.302431245  114.188615572     5.9325   2   6   0.1006   0.0780   0.1740  -0.0483  -0.0439   0.0761   0.00    2.0
2021/05/21 06:32:40.000   22.302431324  114.188615586     5.9351   4   2   0.1006   0.0782   0.1751  -0.0482  -0.0430   0.0764   0.00    0.0
2021/05/21 06:32:41.000   22.302431319  114.188615537     5.9022   4   2   0.1009   0.0783   0.1767  -0.0478  -0.0420   0.0776   0.00    0.0
2021/05/21 06:32:42.000   22.302431829  114.188615617     5.9297   2   4   0.1001   0.0780   0.1742  -0.0479  -0.0437   0.0759   0.00    1.3
2021/05/21 06:32:43.000   22.302435504  114.188615973     5.9340   2   7   0.0998   0.0779   0.1741  -0.0476  -0.0436   0.0756   0.00    1.2
2021/05/21 06:32:44.000   22.302445097  114.188616876     5.9337   2   6   0.0994   0.0779   0.1741  -0.0474  -0.0437   0.0756   0.00    2.0
2021/05/21 06:32:45.000   22.302464314  114.188617704     5.8940   2   5   0.0991   0.0778   0.1740  -0.0471  -0.0434   0.0753   0.00    1.2
2021/05/21 06:32:46.000   22.302492566  114.188616822     5.8742   4   0   0.0994   0.0777   0.1750  -0.0468  -0.0432   0.0763   0.00    0.0
2021/05/21 06:32:47.000   22.302528925  114.188613068     5.8122   4   0   0.1003   0.0783   0.1807  -0.0455  -0.0388   0.0801   0.00    0.0
2021/05/21 06:32:48.000   22.302572846  114.188605230     5.7901   4   0   0.0992   0.0777   0.1755  -0.0467  -0.0434   0.0764   0.00    0.0
2021/05/21 06:32:49.000   22.302623316  114.188591375     5.7508   4   2   0.1000   0.0794   0.1816  -0.0451  -0.0419   0.0794   0.00    0.0
2021/05/21 06:32:50.000   22.302675957  114.188574427     5.6056   2   4   0.0993   0.0777   0.1762  -0.0467  -0.0436   0.0772   0.00    1.1
2021/05/21 06:32:51.000   22.302730809  114.188553688     5.5139   2  16   0.0988   0.0789   0.1780  -0.0466  -0.0480   0.0763   0.00    1.3
2021/05/21 06:32:52.000   22.302787205  114.188528657     5.4816   2  13   0.0991   0.0798   0.1812  -0.0470  -0.0475   0.0786   0.00    1.2
2021/05/21 06:32:53.000   22.302845279  114.188498657     5.4770   2  10   0.0994   0.0819   0.1845  -0.0472  -0.0515   0.0795   0.00    1.6
2021/05/21 06:32:54.000   22.302904217  114.188463211     5.3743   2  14   0.0987   0.0811   0.1776  -0.0472  -0.0496   0.0762   0.00    1.0
2021/05/21 06:32:55.000   22.302962022  114.188421251     5.1890   2  17   0.0986   0.0811   0.1784  -0.0474  -0.0505   0.0761   0.00    1.2
2021/05/21 06:32:56.000   22.303016797  114.188373017     4.9085   2  12   0.0988   0.0815   0.1787  -0.0468  -0.0500   0.0761   0.00    1.0
2021/05/21 06:32:57.000   22.303068642  114.188318480     4.4178   2  10   0.0989   0.0820   0.1837  -0.0467  -0.0533   0.0757   0.00    0.0
2021/05/21 06:32:58.000   22.303107184  114.188225894     3.5691   4   0   0.6768   0.7781   0.6072   0.2792  -0.2000   0.2177   0.00    0.0
2021/05/21 06:32:59.000   22.303163164  114.188179621     3.0186   4   0   0.6820   0.7764   1.0107   0.3632  -0.5032   0.4592   0.00    0.0
2021/05/21 06:33:00.000   22.303223173  114.188126248     2.8181   2   8   0.5121   0.6426   1.0973   0.3432  -0.3817   0.3498   0.00    0.0
2021/05/21 06:33:01.000   22.303275074  114.188027675     3.6841   2   9   0.5189   0.6435   1.0508   0.3604  -0.3425   0.3165   0.00    0.0
2021/05/21 06:33:02.000   22.303325423  114.187942800     3.6161   2  10   0.4530   0.6093   0.8875   0.3250  -0.3758   0.2741   0.00    0.0
2021/05/21 06:33:03.000   22.303378754  114.187853333     3.6493   2   9   0.4673   0.5766   0.8952   0.3231  -0.3528   0.2998   0.00    0.0
2021/05/21 06:33:04.000   22.303435543  114.187763540     4.7893   2   6   0.5143   0.7191   1.1681   0.1877  -0.4134   0.4505   0.00    0.0
2021/05/21 06:33:05.000   22.303495752  114.187678092     2.9009   2   5   0.4523   0.5404   0.9879   0.2587  -0.2765   0.3414   0.00    0.0
2021/05/21 06:33:06.000   22.303572765  114.187609074     2.0778   4   0   0.7190   0.6589   1.0094   0.5239  -0.1595   0.4459   0.00    0.0
2021/05/21 06:33:07.000   22.303619519  114.187540589     3.4763   4   0   0.8400   0.8710   1.2905   0.4434   0.0100   0.5709   0.00    0.0
2021/05/21 06:33:08.000   22.303673971  114.187539063     8.9878   4   0   1.0755   1.2749   2.4297   0.4759  -1.0118   1.0044   0.00    0.0
2021/05/21 06:33:09.004   22.303677469  114.187533763     4.5105   4   0   1.5343   1.8229   3.6589   0.8485  -1.2711   1.3763   0.00    0.0
2021/05/21 06:33:10.000   22.303683013  114.187273853     3.7225   4   0   1.1946   1.7231   3.0462   0.5378  -0.9923   1.3266   0.00    0.0
2021/05/21 06:33:11.000   22.303823556  114.187159600    18.3334   4   0   0.9665   1.0434   2.4665   0.1824  -0.8244   1.0366   0.00    0.0
2021/05/21 06:33:12.000   22.303906037  114.187091746    25.6318   2   5   0.7764   0.8597   2.4030   0.2071  -0.8436   0.8753   0.00    0.0
2021/05/21 06:33:13.000   22.303961292  114.186995166    25.6919   2   8   0.7805   0.8937   2.2883  -0.1451  -0.9177   0.9495   0.00    0.0
2021/05/21 06:33:14.000   22.304015097  114.186976907    17.3607   4   0   0.9761   1.0654   2.3241   0.3556  -0.8300   0.9996   0.00    0.0
2021/05/21 06:33:15.000   22.304041602  114.186913693     6.4546   4   0   0.9355   0.9862   1.8473   0.3128  -0.7527   0.7972   0.00    0.0
2021/05/21 06:33:16.000   22.304047243  114.186834994     3.3706   4   2   0.5827   0.7901   0.9467  -0.2130  -0.7377   0.5767   0.00    0.0
2021/05/21 06:33:17.000   22.304093984  114.186773944     5.0350   2   5   0.7247   0.7048   0.5823   0.6277  -0.2951   0.3342   0.00    0.0
2021/05/21 06:33:18.000   22.304114523  114.186707377     5.7646   2   7   0.3363   0.4561   0.5578   0.2574  -0.3339   0.2308   0.00    0.0
2021/05/21 06:33:19.000   22.304154605  114.186680557     5.7770   2  10   0.2063   0.3335   0.4875   0.1803  -0.2380   0.1573   0.00    0.0
2021/05/21 06:33:20.000   22.304180881  114.186648248     5.3697   2   9   0.1990   0.4106   1.0949  -0.0576  -0.5912   0.3023   0.00    0.0
2021/05/21 06:33:21.000   22.304202881  114.186616010     6.4203   2   9   0.1762   0.1709   0.4562   0.0551  -0.0991   0.1989   0.00    0.0
2021/05/21 06:33:22.000   22.304220320  114.186593670     6.6939   2   9   0.1762   0.1683   0.4567   0.0540  -0.0999   0.1985   0.00    0.0
2021/05/21 06:33:23.000   22.304238141  114.186571423     6.9342   2  12   0.1760   0.1679   0.4560   0.0536  -0.0992   0.1980   0.00    0.0
2021/05/21 06:33:24.000   22.304256204  114.186548170     7.1414   2  11   0.1763   0.1682   0.4570   0.0539  -0.1009   0.1978   0.00    0.0
2021/05/21 06:33:25.000   22.304276641  114.186523334     7.3566   2  10   0.1764   0.1684   0.4566   0.0543  -0.1010   0.1975   0.00    0.0
2021/05/21 06:33:26.000   22.304296471  114.186498763     7.5515   2  12   0.1767   0.1685   0.4570   0.0546  -0.1015   0.1976   0.00    0.0
2021/05/21 06:33:27.000   22.304314151  114.186477401     7.7302   2  13   0.1769   0.1687   0.4580   0.0548  -0.1033   0.1973   0.00    0.0
2021/05/21 06:33:28.000   22.304331950  114.186455992     7.8923   2  13   0.1777   0.1691   0.4593   0.0556  -0.1046   0.1976   0.00    0.0
2021/05/21 06:33:29.000   22.304348542  114.186437042     8.0828   2  13   0.1784   0.1694   0.4602   0.0567  -0.1053   0.1977   0.00    0.0
2021/05/21 06:33:30.000   22.304361865  114.186422124     8.2168   2  13   0.1791   0.1698   0.4619   0.0569  -0.1073   0.1982   0.00    0.0
2021/05/21 06:33:31.000   22.304372176  114.186410355     8.3472   2  15   0.1798   0.1702   0.4636   0.0573  -0.1090   0.1988   0.00    0.0
2021/05/21 06:33:32.000   22.304380493  114.186401058     8.4488   2  15   0.1808   0.1702   0.4643   0.0583  -0.1084   0.1995   0.00    0.0
2021/05/21 06:33:33.000   22.304387149  114.186393850     8.4392   2  15   0.1816   0.1702   0.4652   0.0593  -0.1082   0.2000   0.00    0.0
2021/05/21 06:33:34.000   22.304391982  114.186388256     8.4837   2  15   0.1826   0.1705   0.4669   0.0598  -0.1090   0.2010   0.00    0.0
2021/05/21 06:33:35.000   22.304394487  114.186385552     8.5671   2  16   0.1834   0.1706   0.4681   0.0604  -0.1097   0.2018   0.00    0.0
2021/05/21 06:33:36.000   22.304395160  114.186384649     8.6171   2  15   0.1841   0.1710   0.4696   0.0609  -0.1107   0.2025   0.00    0.0
2021/05/21 06:33:37.000   22.304395284  114.186384308     8.7152   2  15   0.1849   0.1712   0.4708   0.0614  -0.1115   0.2031   0.00    0.0
2021/05/21 06:33:38.000   22.304395082  114.186384243     8.7338   2  15   0.1856   0.1714   0.4719   0.0618  -0.1121   0.2036   0.00    0.0
2021/05/21 06:33:39.000   22.304394970  114.186384014     8.7839   2  14   0.1861   0.1716   0.4728   0.0621  -0.1127   0.2041   0.00    0.0
2021/05/21 06:33:40.000   22.304394834  114.186383878     8.8023   2  18   0.1863   0.1715   0.4730   0.0626  -0.1126   0.2041   0.00    0.0
2021/05/21 06:33:41.000   22.304394627  114.186383772     8.8194   2  17   0.1868   0.1716   0.4737   0.0629  -0.1131   0.2044   0.00    0.0
2021/05/21 06:33:42.000   22.304394432  114.186383622     8.7971   2  16   0.1870   0.1717   0.4741   0.0630  -0.1133   0.2045   0.00    0.0
2021/05/21 06:33:43.000   22.304394347  114.186383541     8.7706   2  17   0.1871   0.1718   0.4743   0.0631  -0.1135   0.2045   0.00    0.0
2021/05/21 06:33:44.000   22.304395517  114.186382319     8.7941   2  16   0.1871   0.1718   0.4743   0.0632  -0.1136   0.2043   0.00    0.0
2021/05/21 06:33:45.000   22.304398367  114.186379224     8.8615   2  14   0.1870   0.1719   0.4743   0.0632  -0.1139   0.2041   0.00    0.0
2021/05/21 06:33:46.000   22.304403566  114.186373965     8.9129   2  15   0.1867   0.1718   0.4738   0.0632  -0.1137   0.2035   0.00    0.0
2021/05/21 06:33:47.000   22.304407702  114.186369402     8.9368   2  16   0.1861   0.1717   0.4724   0.0629  -0.1139   0.2024   0.00    0.0
2021/05/21 06:33:48.000   22.304409128  114.186367998     8.9309   2  18   0.1855   0.1716   0.4717   0.0627  -0.1137   0.2017   0.00    0.0
2021/05/21 06:33:49.000   22.304411685  114.186365796     8.9442   2  18   0.1849   0.1715   0.4707   0.0625  -0.1133   0.2009   0.00    0.0
2021/05/21 06:33:50.000   22.304417993  114.186358830     8.8816   2  17   0.1841   0.1714   0.4695   0.0621  -0.1132   0.1997   0.00    0.0
2021/05/21 06:33:51.000   22.304431967  114.186343553     8.8136   2  15   0.1833   0.1713   0.4686   0.0620  -0.1125   0.1987   0.00    0.0
2021/05/21 06:33:52.000   22.304453807  114.186319983     8.9227   2  16   0.1824   0.1712   0.4672   0.0618  -0.1122   0.1975   0.00    0.0
2021/05/21 06:33:53.000   22.304481950  114.186289169     8.9740   2  15   0.1816   0.1710   0.4664   0.0618  -0.1109   0.1967   0.00    0.0
2021/05/21 06:33:54.000   22.304515998  114.186252548     8.8829   2  14   0.1809   0.1708   0.4653   0.0611  -0.1104   0.1961   0.00    0.0
2021/05/21 06:33:55.000   22.304553676  114.186209215     8.9815   2  13   0.1803   0.1706   0.4644   0.0606  -0.1097   0.1956   0.00    0.0
2021/05/21 06:33:56.000   22.304592443  114.186163394     8.9221   2  15   0.1797   0.1703   0.4630   0.0604  -0.1083   0.1950   0.00    0.0
2021/05/21 06:33:57.000   22.304629157  114.186118122     8.9181   2  14   0.1790   0.1700   0.4617   0.0598  -0.1072   0.1945   0.00    0.0
2021/05/21 06:33:58.000   22.304663852  114.186074187     8.9547   2  13   0.1784   0.1699   0.4606   0.0597  -0.1056   0.1942   0.00    0.0
2021/05/21 06:33:59.000   22.304695858  114.186031832     8.9534   2  10   0.1785   0.1707   0.4603   0.0612  -0.1036   0.1950   0.00    0.0
2021/05/21 06:34:00.000   22.304729291  114.185991818     8.9791   2  11   0.1781   0.1705   0.4598   0.0610  -0.1021   0.1953   0.00    0.0
2021/05/21 06:34:01.000   22.304762281  114.185953535     8.9889   2   9   0.1776   0.1702   0.4590   0.0603  -0.1003   0.1953   0.00    0.0
2021/05/21 06:34:02.000   22.304800913  114.185924725     9.0600   2   9   0.1772   0.1696   0.4577   0.0594  -0.0986   0.1955   0.00    0.0
2021/05/21 06:34:03.000   22.304843600  114.185911682     8.9720   2   9   0.1772   0.1700   0.4572   0.0602  -0.0960   0.1961   0.00    0.0
2021/05/21 06:34:04.000   22.304886046  114.185916619     8.9565   2   9   0.1766   0.1687   0.4599   0.0576  -0.0962   0.1973   0.00    0.0
2021/05/21 06:34:05.000   22.304923229  114.185938963     8.4435   2  12   0.1755   0.1679   0.4602   0.0538  -0.0983   0.1972   0.00    1.3
2021/05/21 06:34:06.000   22.304955729  114.185968323     7.9721   2   9   0.1818   0.1747   0.4719   0.0704  -0.0724   0.2102   0.00    0.0
2021/05/21 06:34:07.000   22.304985876  114.186005030     6.9716   2   4   0.2780   0.2327   0.6302  -0.1201  -0.1347   0.3514   0.00    0.0
2021/05/21 06:34:08.000   22.305001489  114.186075336     6.2653   2   6   0.5113   0.6516   0.7399  -0.5163  -0.3769   0.4950   0.00    0.0
2021/05/21 06:34:09.000   22.305017776  114.186134916     3.3483   4   2   0.7033   0.7249   1.4813  -0.5286  -0.2066   0.9117   0.00    0.0
2021/05/21 06:34:10.000   22.304986834  114.186133339     7.3060   4   0   0.9703   0.9052   2.1414  -0.1037  -0.6507   1.0391   0.00    0.0
2021/05/21 06:34:11.000   22.305008327  114.186135185    15.6640   4   0   1.0342   1.0999   2.5448  -0.1792  -1.0491   1.1157   0.00    0.0
2021/05/21 06:34:12.000   22.305049242  114.186179795    17.4885   4   0   1.0094   1.0183   2.5002  -0.2469  -0.9100   1.1428   0.00    0.0
2021/05/21 06:34:13.000   22.305126708  114.186168744    35.6165   4   0   0.9936   0.8809   2.2804   0.0714  -0.5422   1.0849   0.00    0.0
2021/05/21 06:34:14.000   22.305183257  114.186206239    39.7401   4   0   0.9799   0.8506   2.1613   0.1856  -0.4094   1.0297   0.00    0.0
2021/05/21 06:34:15.000   22.305237668  114.186232919    47.0629   4   0   0.9636   0.8468   2.2167  -0.0655  -0.4927   1.0541   0.00    0.0
2021/05/21 06:34:16.000   22.305279125  114.186269504    42.8669   4   0   0.9693   0.7843   2.0684   0.2828   0.1585   0.9857   0.00    0.0
2021/05/21 06:34:17.000   22.305330660  114.186312558    36.6065   4   0   0.9813   0.7511   2.0609   0.2139   0.3073   1.0401   0.00    0.0
2021/05/21 06:34:18.000   22.305348122  114.186341950    31.1259   4   2   0.8022   0.6912   1.9961   0.4581   0.5039   0.8589   0.00    0.0
2021/05/21 06:34:19.000   22.305381694  114.186386036    27.1140   4   2   0.8044   0.6998   2.0381   0.4574   0.4649   0.8734   0.00    0.0
2021/05/21 06:34:20.000   22.305417551  114.186394511    19.0800   2   5   0.8005   0.6991   1.9577   0.4053   0.4486   0.8080   0.00    0.0
2021/05/21 06:34:21.000   22.305495338  114.186347628    26.7832   2   6   0.5675   0.4663   1.6410   0.3651   0.1173   0.4470   0.00    0.0
2021/05/21 06:34:22.000   22.305518850  114.186321603    29.7758   2   4   0.6874   0.6310   2.0107   0.5290   0.5396   0.6637   0.00    0.0
2021/05/21 06:34:23.000   22.305538331  114.186297864    37.5169   2   4   0.7488   0.7160   2.1105   0.6171   0.4347   0.6426   0.00    0.0
2021/05/21 06:34:24.000   22.305548939  114.186264903    44.9184   2   5   0.7195   0.5917   2.0366   0.4951  -0.5866   0.3667   0.00    0.0
2021/05/21 06:34:25.000   22.305537835  114.186208138    55.2417   2   4   0.8846   0.8040   2.3019   0.7112  -0.5335   0.4766   0.00    0.0
2021/05/21 06:34:26.000   22.305532555  114.186144874    65.9031   4   2   0.9135   0.8425   2.4422   0.7319  -0.6456   0.3699   0.00    0.0
2021/05/21 06:34:27.000   22.305482910  114.186052979    69.9994   4   2   0.9398   0.8814   2.4976   0.7664  -0.7617   0.2411   0.00    0.0
2021/05/21 06:34:28.000   22.305513694  114.186056090    54.2960   2   4   0.9363   0.7975   2.2737   0.6513  -0.4860   0.6897   0.00    0.0
2021/05/21 06:34:29.000   22.305547818  114.186014486    53.5659   4   2   0.9744   0.8814   2.5193   0.6891  -0.7304   0.5767   0.00    0.0
2021/05/21 06:34:30.000   22.305587361  114.185971633    63.6747   2   5   1.1139   1.0481   2.7098   0.8534  -0.8709   0.3951   0.00    0.0
2021/05/21 06:34:31.000   22.305587161  114.185853622   112.6192   2   4   1.4322   1.4230   3.7777   1.2269  -1.1407   0.6282   0.00    0.0
2021/05/21 06:34:32.000   22.305728750  114.185953849    64.6912   2   4   1.2786   1.0958   3.2459   0.9975   0.7925   1.2786   0.00    0.0
2021/05/21 06:34:33.000   22.305784088  114.185969713    54.3323   2   4   0.9208   0.7840   2.2119   0.6720  -0.1862   0.6237   0.00    0.0
2021/05/21 06:34:34.000   22.305827056  114.185958628    55.4858   4   2   0.9150   0.7804   2.2758   0.6893  -0.2420   0.5327   0.00    0.0
2021/05/21 06:34:35.000   22.305832057  114.185978745    51.8680   4   0   1.1019   0.9663   2.3198   0.5336  -0.4892   0.8278   0.00    0.0
2021/05/21 06:34:36.000   22.305900368  114.185961377    50.1270   4   0   1.1513   0.9807   2.3851   0.5216  -0.5409   0.8595   0.00    0.0
2021/05/21 06:34:37.000   22.305965479  114.185891546    62.8501   4   0   1.2929   1.2900   2.8136   0.7901  -0.5904   1.1402   0.00    0.0
2021/05/21 06:34:38.000   22.306026816  114.185875301    72.5751   4   2   1.2131   1.0526   2.7516   1.0588   0.5302   0.8304   0.00    0.0
2021/05/21 06:34:39.000   22.306097829  114.185898308    83.1421   4   2   1.2450   1.0711   2.7613   1.0854   0.5362   0.8843   0.00    0.0
2021/05/21 06:34:40.000   22.306144140  114.185898504    82.1013   4   2   1.2968   1.1342   2.9615   1.1467   0.9268   1.2411   0.00    0.0
2021/05/21 06:34:41.000   22.306202270  114.185801166    81.0994   2   4   1.6164   1.8878   3.8526   1.4753   0.9625   1.7063   0.00    0.0
2021/05/21 06:34:42.000   22.306118821  114.185785681    73.1656   2   4   1.2920   1.0838   2.6401   1.1206   1.0386   1.3222   0.00    0.0
2021/05/21 06:34:43.000   22.306092746  114.185748921    48.2139   2   4   1.2909   1.1202   3.8985   1.1279   1.2142   1.5517   0.00    0.0
2021/05/21 06:34:44.000   22.306147332  114.185741001    53.6385   4   2   1.3049   1.1465   2.8857   1.1607   0.8815   1.2142   0.00    0.0
2021/05/21 06:34:45.000   22.306179395  114.185727788    50.6937   4   2   1.3466   1.1868   2.9541   1.2036   1.0799   1.3685   0.00    0.0
2021/05/21 06:34:46.000   22.306210408  114.185676211    53.0782   4   0   1.4817   1.5361   3.2616   0.9724  -0.2598   1.6568   0.00    0.0
2021/05/21 06:34:47.000   22.306200345  114.185610558    51.4409   4   0   1.4414   1.5889   3.2520   0.9386  -0.5830   1.6045   0.00    0.0
2021/05/21 06:34:48.000   22.306189480  114.185573796    49.9171   4   0   1.4399   1.5898   3.2592   0.9386  -0.5944   1.6015   0.00    0.0
2021/05/21 06:34:49.000   22.306220178  114.185569590    60.6491   4   0   1.3570   1.3559   2.9126   0.7540  -0.3887   1.4973   0.00    0.0
2021/05/21 06:34:50.000   22.306242621  114.185532910    58.4646   4   0   1.1193   1.1719   2.2815   0.3569  -0.8030   1.0137   0.00    0.0
2021/05/21 06:34:51.000   22.306207692  114.185434470    50.8801   4   2   1.0881   1.1723   1.7066   0.5192  -0.4934   0.8104   0.00    0.0
2021/05/21 06:34:52.000   22.306171484  114.185283636    46.1743   2   6   0.8949   0.8035   1.5658  -0.1698  -0.8282   0.8510   0.00    0.0
2021/05/21 06:34:53.000   22.306166762  114.185251019    47.3201   2   4   1.1406   0.9084   1.7933  -0.3982  -1.0066   1.1244   0.00    0.0
2021/05/21 06:34:54.000   22.306162375  114.185255534    48.8673   2   5   0.7452   0.8857   1.9700   0.5837  -0.7193   0.3803   0.00    0.0
2021/05/21 06:34:55.000   22.306152484  114.185197760    44.9862   4   0   1.1099   1.0780   1.6010   0.4780  -1.0036   0.8119   0.00    0.0
2021/05/21 06:34:56.000   22.306154291  114.185206933    39.3961   4   2   1.0173   0.9695   1.4002   0.6195  -0.8113   0.5867   0.00    0.0
2021/05/21 06:34:57.000   22.306212301  114.185252415    33.6994   2   6   0.1349   0.1297   1.0847   0.0629  -0.2011   0.1354   0.00    0.0
2021/05/21 06:34:58.000   22.306238694  114.185214004    31.4073   2   6   0.1347   0.1324   1.5991   0.0625  -0.2687   0.1391   0.00    0.0
2021/05/21 06:34:59.000   22.306206846  114.185117459    35.7132   2   5   0.9103   0.8027   1.0916   0.8466  -0.2245   0.0927   0.00    0.0
2021/05/21 06:35:00.000   22.306298578  114.185142078    37.8094   2   7   0.1328   0.1270   1.2452   0.0575  -0.2142   0.1487   0.00    0.0
2021/05/21 06:35:01.000   22.306324069  114.185110182    38.5262   2   7   0.1339   0.1293   1.2334   0.0609  -0.2244   0.1354   0.00    0.0
2021/05/21 06:35:02.000   22.306343926  114.185078289    40.7237   2   4   0.1342   0.1323   1.4799   0.0627  -0.2580   0.1313   0.00    0.0
2021/05/21 06:35:03.000   22.306358730  114.185051511    39.1518   2   4   0.1340   0.1361   2.0289   0.0629  -0.3332   0.1224   0.00    0.0
2021/05/21 06:35:04.000   22.306370863  114.185040320    17.3516   2   4   0.1339   0.1288   1.3446   0.0615  -0.2100   0.1435   0.00    0.0
2021/05/21 06:35:05.000   22.306376725  114.185029761     9.2111   2   6   0.1337   0.1243   0.3453   0.0609   0.0303   0.1543   0.00    0.0
2021/05/21 06:35:06.000   22.306380253  114.185023702     9.5717   2   6   0.1336   0.1240   0.3441   0.0605   0.0254   0.1537   0.00    0.0
2021/05/21 06:35:07.000   22.306381697  114.185021852     9.6467   2   6   0.1333   0.1239   0.3439   0.0602   0.0232   0.1534   0.00    0.0
2021/05/21 06:35:08.000   22.306381707  114.185021909     9.7253   2   7   0.1324   0.1227   0.3435   0.0579   0.0163   0.1527   0.00    0.0
2021/05/21 06:35:09.000   22.306381513  114.185021818     9.6477   2   7   0.1322   0.1227   0.3435   0.0578   0.0142   0.1525   0.00    0.0
2021/05/21 06:35:10.000   22.306381093  114.185021109     9.7374   2   7   0.1322   0.1227   0.3436   0.0577   0.0121   0.1525   0.00    0.0
2021/05/21 06:35:11.000   22.306381456  114.185021516     9.6438   2   7   0.1322   0.1227   0.3437   0.0577   0.0097   0.1523   0.00    0.0
2021/05/21 06:35:12.000   22.306381196  114.185021199     9.6317   2   7   0.1322   0.1229   0.3437   0.0579   0.0075   0.1522   0.00    0.0
2021/05/21 06:35:13.000   22.306381236  114.185021176     9.7202   2   7   0.1325   0.1234   0.3438   0.0588   0.0081   0.1522   0.00    0.0
2021/05/21 06:35:14.000   22.306381349  114.185021404     9.6871   2   7   0.1270   0.1157   0.3427   0.0430  -0.0357   0.1483   0.00    0.0
2021/05/21 06:35:15.000   22.306381312  114.185020931     9.7832   2   7   0.1270   0.1158   0.3428   0.0431  -0.0365   0.1481   0.00    0.0
2021/05/21 06:35:16.000   22.306381324  114.185021111     9.7411   2   7   0.1271   0.1159   0.3430   0.0433  -0.0372   0.1481   0.00    0.0
2021/05/21 06:35:17.000   22.306381476  114.185024026     7.4324   1   7   0.0336   0.0382   0.0958   0.0327  -0.0589  -0.0500   0.00    3.2
2021/05/21 06:35:18.000   22.306381385  114.185023961     7.4292   1   7   0.0337   0.0384   0.0962   0.0327  -0.0591  -0.0501   0.00    3.9
2021/05/21 06:35:19.000   22.306381415  114.185024098     7.4051   1   7   0.0337   0.0386   0.0967   0.0328  -0.0595  -0.0502   0.00    5.1
2021/05/21 06:35:20.000   22.306381618  114.185021367     9.6094   2   8   0.1245   0.1119   0.3313   0.0336   0.0372   0.1555   0.00    0.0
2021/05/21 06:35:21.000   22.306381602  114.185021377     9.6132   2   8   0.1246   0.1120   0.3315   0.0339   0.0370   0.1555   0.00    0.0
2021/05/21 06:35:22.000   22.306380995  114.185023596     7.4871   1   7   0.0339   0.0398   0.0994   0.0330  -0.0613  -0.0505   0.00   15.0
2021/05/21 06:35:23.000   22.306381606  114.185020937     9.6238   2   7   0.1277   0.1165   0.3367   0.0454   0.0561   0.1606   0.00    0.0
2021/05/21 06:35:24.000   22.306383380  114.185017226     9.6159   2   8   0.1248   0.1123   0.3325   0.0349   0.0359   0.1555   0.00    0.0
2021/05/21 06:35:25.000   22.306389803  114.185010650     7.3049   1   7   0.0341   0.0423   0.1054   0.0334  -0.0653  -0.0510   0.00    5.7
2021/05/21 06:35:26.000   22.306367634  114.184942194    20.0020   2   6   0.2142   0.2255   0.5577   0.1875  -0.2931  -0.2296   0.00    0.0
2021/05/21 06:35:27.000   22.306424231  114.184953997     9.3972   2   7   0.1279   0.1181   0.3347   0.0477  -0.0283   0.1494   0.00    0.0
2021/05/21 06:35:28.000   22.306447402  114.184911443    10.5266   2   7   0.1296   0.1230   0.3693   0.0544  -0.0782   0.1382   0.00    0.0
2021/05/21 06:35:29.000   22.306474491  114.184876156     7.1155   1   8   0.0313   0.0417   0.0800   0.0336   0.0279   0.0374   0.00    5.5
2021/05/21 06:35:30.000   22.306502349  114.184831934     9.7297   2   6   0.1262   0.1141   0.3286   0.0414   0.0470   0.1561   0.00    0.0
2021/05/21 06:35:31.000   22.306527047  114.184790924     9.7048   2   7   0.1262   0.1135   0.3294   0.0403   0.0465   0.1564   0.00    0.0
2021/05/21 06:35:32.000   22.306550210  114.184753443     9.7343   2   7   0.1259   0.1133   0.3290   0.0398   0.0453   0.1557   0.00    0.0
2021/05/21 06:35:33.000   22.306571462  114.184720609     9.8975   2   9   0.1249   0.1122   0.3279   0.0365   0.0402   0.1544   0.00    0.0
2021/05/21 06:35:34.000   22.306588929  114.184692257     9.9078   2  12   0.1250   0.1131   0.3264   0.0391   0.0421   0.1534   0.00    0.0
2021/05/21 06:35:35.000   22.306603551  114.184669165    10.0894   2  10   0.1242   0.1131   0.3261   0.0368   0.0339   0.1519   0.00    0.0
2021/05/21 06:35:36.000   22.306614335  114.184651026    10.0826   2  10   0.1245   0.1133   0.3267   0.0375   0.0344   0.1520   0.00    0.0
2021/05/21 06:35:37.000   22.306622548  114.184637215    10.0812   2   8   0.1251   0.1131   0.3266   0.0386   0.0354   0.1519   0.00    0.0
2021/05/21 06:35:38.000   22.306628661  114.184627337    10.1066   2   9   0.1251   0.1126   0.3266   0.0378   0.0362   0.1519   0.00    0.0
2021/05/21 06:35:39.000   22.306632027  114.184620236    10.1848   2  10   0.1252   0.1124   0.3265   0.0381   0.0368   0.1518   0.00    0.0
2021/05/21 06:35:40.000   22.306633707  114.184618013    10.1270   2  11   0.1252   0.1106   0.3263   0.0362   0.0407   0.1521   0.00    0.0
2021/05/21 06:35:41.000   22.306633477  114.184617659    10.1284   2  11   0.1248   0.1099   0.3259   0.0342   0.0372   0.1512   0.00    0.0
2021/05/21 06:35:42.000   22.306633055  114.184617476    10.0910   2  11   0.1252   0.1100   0.3265   0.0348   0.0374   0.1515   0.00    0.0
2021/05/21 06:35:43.000   22.306632740  114.184617312    10.1150   2  13   0.1255   0.1100   0.3270   0.0350   0.0367   0.1516   0.00    0.0
2021/05/21 06:35:44.000   22.306632625  114.184617270    10.1835   2  11   0.1260   0.1101   0.3276   0.0357   0.0368   0.1519   0.00    0.0
2021/05/21 06:35:45.000   22.306632572  114.184617300    10.2432   2  13   0.1262   0.1101   0.3284   0.0359   0.0368   0.1522   0.00    0.0
2021/05/21 06:35:46.000   22.306632432  114.184617199    10.2976   2  12   0.1268   0.1103   0.3297   0.0370   0.0383   0.1529   0.00    0.0
2021/05/21 06:35:47.000   22.306632268  114.184617206    10.3422   2  13   0.1273   0.1105   0.3306   0.0379   0.0390   0.1534   0.00    0.0
2021/05/21 06:35:48.000   22.306632157  114.184617099    10.3615   2  14   0.1274   0.1104   0.3313   0.0377   0.0388   0.1536   0.00    0.0
2021/05/21 06:35:49.000   22.306631936  114.184616991    10.3814   2  12   0.1277   0.1104   0.3321   0.0380   0.0392   0.1538   0.00    0.0
2021/05/21 06:35:50.000   22.306631707  114.184616874    10.3863   2  13   0.1280   0.1105   0.3329   0.0385   0.0397   0.1542   0.00    0.0
2021/05/21 06:35:51.000   22.306631464  114.184616684    10.3855   2  12   0.1283   0.1106   0.3338   0.0390   0.0401   0.1545   0.00    0.0
2021/05/21 06:35:52.000   22.306631401  114.184616563    10.4130   2  13   0.1285   0.1106   0.3345   0.0392   0.0404   0.1549   0.00    0.0
