$GPRMC,062845.004,A,2218.0937817,N,11411.4184442,E,0.24,0.00,210521,0.0,E,D,V*75
$GPGGA,062845.004,2218.0937817,N,11411.4184442,E,2,26,1.0,6.201,M,-2.124,M,0.0,0000*65
$GPESA,062845.004,+0.069,+0.031,+0.094,+0.000,+0.000,+0.000*7B
$GPESD,062845.004,0.000,0.000,0.000,0.000,0.000,0.000,0.000,0.000,0.000*7C
$GPRMC,062846.004,A,2218.0939574,N,11411.4183492,E,0.14,267.60,210521,0.0,E,D,V*7C
$GPGGA,062846.004,2218.0939574,N,11411.4183492,E,2,26,1.0,7.198,M,-2.124,M,0.0,0000*68
$GPESA,062846.004,-0.026,-0.067,+0.009,+0.000,+0.000,+0.000*74
$GPESD,062846.004,0.000,0.000,0.000,0.000,0.000,0.000,0.000,0.000,0.000*7F
$GPRMC,062847.004,A,2218.0939343,N,11411.4183058,E,0.06,267.60,210521,0.0,E,D,V*7E
$GPGGA,062847.004,2218.0939343,N,11411.4183058,E,2,26,1.0,6.679,M,-2.124,M,0.0,0000*60
$GPESA,062847.004,-0.025,+0.003,-0.016,+0.000,+0.000,+0.000*7A
$GPESD,062847.004,0.000,0.000,0.000,0.000,0.000,0.000,0.000,0.000,0.000*7E
$GPRMC,062848.004,A,2218.0939263,N,11411.4182779,E,0.12,261.33,210521,0.0,E,D,V*72
$GPGGA,062848.004,2218.0939263,N,11411.4182779,E,2,26,1.0,6.569,M,-2.124,M,0.0,0000*6B
$GPESA,062848.004,+0.049,-0.006,-0.040,+0.000,+0.000,+0.000*79
$GPESD,062848.004,0.000,0.000,0.000,0.000,0.000,0.000,0.000,0.000,0.000*71
$GPRMC,062849.004,A,2218.0939959,N,11411.4182565,E,0.33,261.33,210521,0.0,E,D,V*7D
$GPGGA,062849.004,2218.0939959,N,11411.4182565,E,2,26,1.0,6.920,M,-2.124,M,0.0,0000*66
$GPESA,062849.004,-0.151,+0.053,-0.062,+0.000,+0.000,+0.000*70
$GPESD,062849.004,0.000,0.000,0.000,0.000,0.000,0.000,0.000,0.000,0.000*70
$GPRMC,062850.004,A,2218.0939736,N,11411.4181376,E,1.09,261.18,210521,0.0,E,D,V*74
$GPGGA,062850.004,2218.0939736,N,11411.4181376,E,2,26,1.0,6.659,M,-2.124,M,0.0,0000*6F
$GPESA,062850.004,-0.551,+0.105,+0.047,+0.000,+0.000,+0.000*7F
$GPESD,062850.004,0.000,0.000,0.000,0.000,0.000,0.000,0.000,0.000,0.000*78
$GPRMC,062851.004,A,2218.0939263,N,11411.4176681,E,1.74,267.62,210521,0.0,E,D,V*74
$GPGGA,062851.004,2218.0939263,N,11411.4176681,E,2,26,1.0,6.700,M,-2.124,M,0.0,0000*63
$GPESA,062851.004,-0.873,+0.027,-0.204,+0.000,+0.000,+0.000*71
$GPESD,062851.004,0.000,0.000,0.000,0.000,0.000,0.000,0.000,0.000,0.000*79
$GPRMC,062852.004,A,2218.0939296,N,11411.4169608,E,2.47,107.43,210521,0.0,E,D,V*77
$GPGGA,062852.004,2218.0939296,N,11411.4169608,E,2,26,1.0,6.718,M,-2.124,M,0.0,0000*6C
$GPESA,062852.004,-1.260,+0.094,-0.130,+0.000,+0.000,+0.000*77
$GPESD,062852.004,0.000,0.000,0.000,0.000,0.000,0.000,0.000,0.000,0.000*7A
$GPRMC,062853.004,A,2218.0940785,N,11411.4162488,E,2.81,113.81,210521,0.0,E,D,V*7F
$GPGGA,062853.004,2218.0940785,N,11411.4162488,E,2,26,1.0,6.512,M,-2.124,M,0.0,0000*6D
$GPESA,062853.004,-1.265,+0.696,+0.059,+0.000,+0.000,+0.000*7F
$GPESD,062853.004,0.000,0.000,0.000,0.000,0.000,0.000,0.000,0.000,0.000*7B
$GPRMC,062854.004,A,2218.0946773,N,11411.4156391,E,2.90,144.84,210521,0.0,E,D,V*78
$GPGGA,062854.004,2218.0946773,N,11411.4156391,E,2,26,1.0,6.719,M,-2.124,M,0.0,0000*64
$GPESA,062854.004,-0.840,+1.218,+0.187,+0.000,+0.000,+0.000*75
$GPESD,062854.004,0.000,0.000,0.000,0.000,0.000,0.000,0.000,0.000,0.000*7C
$GPRMC,062855.004,A,2218.0952655,N,11411.4152956,E,2.94,172.00,210521,0.0,E,D,V*71
$GPGGA,062855.004,2218.0952655,N,11411.4152956,E,2,26,1.0,6.080,M,-2.124,M,0.0,0000*67
$GPESA,062855.004,-0.690,+1.344,+0.013,+0.000,+0.000,+0.000*73
$GPESD,062855.004,0.000,0.000,0.000,0.000,0.000,0.000,0.000,0.000,0.000*7D
$GPRMC,062856.004,A,2218.0962463,N,11411.4146478,E,3.13,165.66,210521,0.0,E,D,V*7A
$GPGGA,062856.004,2218.0962463,N,11411.4146478,E,2,26,1.0,6.874,M,-2.124,M,0.0,0000*67
$GPESA,062856.004,-0.774,+1.406,+0.107,+0.000,+0.000,+0.000*7E
$GPESD,062856.004,0.000,0.000,0.000,0.000,0.000,0.000,0.000,0.000,0.000*7E
$GPRMC,062857.004,A,2218.0970383,N,11411.4141866,E,3.43,169.01,210521,0.0,E,D,V*7D
$GPGGA,062857.004,2218.0970383,N,11411.4141866,E,2,27,1.0,6.844,M,-2.124,M,0.0,0000*6A
$GPESA,062857.004,-0.848,+1.543,-0.064,+0.000,+0.000,+0.000*7D
$GPESD,062857.004,0.000,0.000,0.000,0.000,0.000,0.000,0.000,0.000,0.000*7F
$GPRMC,062858.004,A,2218.0979538,N,11411.4136816,E,4.56,179.31,210521,0.0,E,D,V*7B
$GPGGA,062858.004,2218.0979538,N,11411.4136816,E,2,27,1.0,6.871,M,-2.125,M,0.0,0000*6A
$GPESA,062858.004,-0.971,+2.134,-0.022,+0.000,+0.000,+0.000*7C
$GPESD,062858.004,0.000,0.000,0.000,0.000,0.000,0.000,0.000,0.000,0.000*70
$GPRMC,062859.004,A,2218.0990160,N,11411.4129617,E,5.94,173.56,210521,0.0,E,D,V*71
$GPGGA,062859.004,2218.0990160,N,11411.4129617,E,2,27,1.0,6.133,M,-2.125,M,0.0,0000*6B
$GPESA,062859.004,-1.359,+2.734,+0.113,+0.000,+0.000,+0.000*7F
$GPESD,062859.004,0.000,0.000,0.000,0.000,0.000,0.000,0.000,0.000,0.000*71
$GPRMC,062900.004,A,2218.1008213,N,11411.4121606,E,7.38,184.86,210521,0.0,E,D,V*7B
$GPGGA,062900.004,2218.1008213,N,11411.4121606,E,2,26,1.0,6.691,M,-2.125,M,0.0,0000*6E
$GPESA,062900.004,-1.436,+3.515,-0.108,+0.000,+0.000,+0.000*70
$GPESD,062900.004,0.000,0.000,0.000,0.000,0.000,0.000,0.000,0.000,0.000*7C
$GPRMC,062901.004,A,2218.1026529,N,11411.4112050,E,8.51,180.34,210521,0.0,E,D,V*70
$GPGGA,062901.004,2218.1026529,N,11411.4112050,E,2,26,1.0,5.910,M,-2.125,M,0.0,0000*6D
$GPESA,062901.004,-1.782,+3.994,-0.180,+0.000,+0.000,+0.000*78
$GPESD,062901.004,0.000,0.000,0.000,0.000,0.000,0.000,0.000,0.000,0.000*7D
$GPRMC,062902.004,A,2218.1049885,N,11411.4100724,E,9.48,182.80,210521,0.0,E,D,V*72
$GPGGA,062902.004,2218.1049885,N,11411.4100724,E,2,26,1.0,6.066,M,-2.125,M,0.0,0000*60
$GPESA,062902.004,-1.916,+4.483,+0.030,+0.000,+0.000,+0.000*78
$GPESD,062902.004,0.000,0.000,0.000,0.000,0.000,0.000,0.000,0.000,0.000*7E
$GPRMC,062903.004,A,2218.1074992,N,11411.4086873,E,10.55,182.52,210521,0.0,E,D,V*43
$GPGGA,062903.004,2218.1074992,N,11411.4086873,E,2,26,1.0,6.330,M,-2.125,M,0.0,0000*6A
$GPESA,062903.004,-2.136,+4.988,-0.123,+0.000,+0.000,+0.000*73
$GPESD,062903.004,0.000,0.000,0.000,0.000,0.000,0.000,0.000,0.000,0.000*7F
$GPRMC,062904.004,A,2218.1103599,N,11411.4073841,E,11.56,180.93,210521,0.0,E,D,V*44
$GPGGA,062904.004,2218.1103599,N,11411.4073841,E,2,26,1.0,6.472,M,-2.125,M,0.0,0000*61
$GPESA,062904.004,-2.403,+5.441,-0.035,+0.000,+0.000,+0.000*78
$GPESD,062904.004,0.000,0.000,0.000,0.000,0.000,0.000,0.000,0.000,0.000*78
$GPRMC,062905.004,A,2218.1134695,N,11411.4060410,E,12.36,177.86,210521,0.0,E,D,V*4D
$GPGGA,062905.004,2218.1134695,N,11411.4060410,E,2,26,1.0,6.540,M,-2.125,M,0.0,0000*61
$GPESA,062905.004,-2.679,+5.761,+0.194,+0.000,+0.000,+0.000*7B
$GPESD,062905.004,0.000,0.000,0.000,0.000,0.000,0.000,0.000,0.000,0.000*79
$GPRMC,062906.004,A,2218.1166911,N,11411.4044024,E,12.61,179.48,210521,0.0,E,D,V*41
$GPGGA,062906.004,2218.1166911,N,11411.4044024,E,2,25,1.0,6.434,M,-2.126,M,0.0,0000*61
$GPESA,062906.004,-2.680,+5.909,-0.105,+0.000,+0.000,+0.000*70
$GPESD,062906.004,0.000,0.000,0.000,0.000,0.000,0.000,0.000,0.000,0.000*7A
$GPRMC,062907.004,A,2218.1199399,N,11411.4030329,E,12.39,176.21,210521,0.0,E,D,V*4A
$GPGGA,062907.004,2218.1199399,N,11411.4030329,E,2,25,1.0,6.041,M,-2.126,M,0.0,0000*61
$GPESA,062907.004,-2.743,+5.748,+0.211,+0.000,+0.000,+0.000*74
$GPESD,062907.004,0.000,0.000,0.000,0.000,0.000,0.000,0.000,0.000,0.000*7B
$GPRMC,062908.004,A,2218.1228958,N,11411.4013682,E,11.94,178.25,210521,0.0,E,D,V*40
$GPGGA,062908.004,2218.1228958,N,11411.4013682,E,2,23,1.0,6.143,M,-2.126,M,0.0,0000*60
$GPESA,062908.004,-2.580,+5.576,+0.094,+0.000,+0.000,+0.000*76
$GPESD,062908.004,0.000,0.000,0.000,0.000,0.000,0.000,0.000,0.000,0.000*74
$GPRMC,062909.004,A,2218.1258740,N,11411.3998230,E,11.59,177.37,210521,0.0,E,D,V*4C
$GPGGA,062909.004,2218.1258740,N,11411.3998230,E,2,23,1.0,6.182,M,-2.126,M,0.0,0000*6C
$GPESA,062909.004,-2.537,+5.398,+0.044,+0.000,+0.000,+0.000*70
$GPESD,062909.004,0.000,0.000,0.000,0.000,0.000,0.000,0.000,0.000,0.000*75
$GPRMC,062910.004,A,2218.1287930,N,11411.3982562,E,11.22,175.18,210521,0.0,E,D,V*47
$GPGGA,062910.004,2218.1287930,N,11411.3982562,E,2,22,1.0,6.459,M,-2.126,M,0.0,0000*66
$GPESA,062910.004,-2.534,+5.183,-0.044,+0.000,+0.000,+0.000*75
$GPESD,062910.004,0.000,0.000,0.000,0.000,0.000,0.000,0.000,0.000,0.000*7D
$GPRMC,062911.004,A,2218.1315762,N,11411.3968923,E,10.98,161.73,210521,0.0,E,D,V*40
$GPGGA,062911.004,2218.1315762,N,11411.3968923,E,2,21,1.0,5.763,M,-2.127,M,0.0,0000*62
$GPESA,062911.004,-2.930,+4.832,+0.034,+0.000,+0.000,+0.000*7F
$GPESD,062911.004,0.000,0.000,0.000,0.000,0.000,0.000,0.000,0.000,0.000*7C
$GPRMC,062912.004,A,2218.1339725,N,11411.3949619,E,10.73,140.21,210521,0.0,E,D,V*4A
$GPGGA,062912.004,2218.1339725,N,11411.3949619,E,2,21,1.0,5.991,M,-2.127,M,0.0,0000*6A
$GPESA,062912.004,-3.756,+4.043,-0.152,+0.000,+0.000,+0.000*7A
$GPESD,062912.004,0.000,0.000,0.000,0.000,0.000,0.000,0.000,0.000,0.000*7F
$GPRMC,062913.004,A,2218.1360858,N,11411.3926064,E,10.28,120.10,210521,0.0,E,D,V*4D
$GPGGA,062913.004,2218.1360858,N,11411.3926064,E,2,21,1.0,5.655,M,-2.127,M,0.0,0000*60
$GPESA,062913.004,-4.379,+2.964,+0.103,+0.000,+0.000,+0.000*7D
$GPESD,062913.004,0.000,0.000,0.000,0.000,0.000,0.000,0.000,0.000,0.000*7E
$GPRMC,062914.004,A,2218.1371638,N,11411.3902876,E,9.49,111.57,210521,0.0,E,D,V*71
$GPGGA,062914.004,2218.1371638,N,11411.3902876,E,2,22,1.0,4.964,M,-2.127,M,0.0,0000*6D
$GPESA,062914.004,-4.610,+1.598,-0.145,+0.000,+0.000,+0.000*78
$GPESD,062914.004,0.000,0.000,0.000,0.000,0.000,0.000,0.000,0.000,0.000*79
$GPRMC,062915.004,A,2218.1379690,N,11411.3875062,E,9.08,101.33,210521,0.0,E,D,V*70
$GPGGA,062915.004,2218.1379690,N,11411.3875062,E,2,22,1.0,4.269,M,-2.127,M,0.0,0000*6C
$GPESA,062915.004,-4.659,+0.323,+0.012,+0.000,+0.000,+0.000*76
$GPESD,062915.004,0.000,0.000,0.000,0.000,0.000,0.000,0.000,0.000,0.000*78
$GPRMC,062916.004,A,2218.1376772,N,11411.3849044,E,8.82,97.12,210521,0.0,E,D,V*44
$GPGGA,062916.004,2218.1376772,N,11411.3849044,E,2,22,1.0,4.318,M,-2.127,M,0.0,0000*61
$GPESA,062916.004,-4.493,-0.623,-0.066,+0.000,+0.000,+0.000*77
$GPESD,062916.004,0.000,0.000,0.000,0.000,0.000,0.000,0.000,0.000,0.000*7B
$GPRMC,062917.004,A,2218.1373783,N,11411.3823673,E,8.74,90.31,210521,0.0,E,D,V*4F
$GPGGA,062917.004,2218.1373783,N,11411.3823673,E,2,23,1.0,3.808,M,-2.128,M,0.0,0000*66
$GPESA,062917.004,-4.160,-1.710,+0.033,+0.000,+0.000,+0.000*79
$GPESD,062917.004,0.000,0.000,0.000,0.000,0.000,0.000,0.000,0.000,0.000*7A
$GPRMC,062918.004,A,2218.1362699,N,11411.3801401,E,8.85,84.55,210521,0.0,E,D,V*44
$GPGGA,062918.004,2218.1362699,N,11411.3801401,E,2,22,1.0,4.122,M,-2.128,M,0.0,0000*63
$GPESA,062918.004,-3.846,-2.429,+0.202,+0.000,+0.000,+0.000*76
$GPESD,062918.004,0.000,0.000,0.000,0.000,0.000,0.000,0.000,0.000,0.000*75
$GPRMC,062919.004,A,2218.1347754,N,11411.3776820,E,8.71,86.67,210521,0.0,E,D,V*4A
$GPGGA,062919.004,2218.1347754,N,11411.3776820,E,2,22,1.0,5.133,M,-2.128,M,0.0,0000*64
$GPESA,062919.004,-3.803,-2.366,+0.033,+0.000,+0.000,+0.000*7A
$GPESD,062919.004,0.000,0.000,0.000,0.000,0.000,0.000,0.000,0.000,0.000*74
$GPRMC,062920.004,A,2218.1330906,N,11411.3751824,E,9.25,85.96,210521,0.0,E,D,V*45
$GPGGA,062920.004,2218.1330906,N,11411.3751824,E,2,22,1.0,5.859,M,-2.128,M,0.0,0000*63
$GPESA,062920.004,-3.936,-2.678,+0.017,+0.000,+0.000,+0.000*7B
$GPESD,062920.004,0.000,0.000,0.000,0.000,0.000,0.000,0.000,0.000,0.000*7E
$GPRMC,062921.004,A,2218.1320554,N,11411.3733006,E,8.46,86.10,210521,0.0,E,D,V*4B
$GPGGA,062921.004,2218.1320554,N,11411.3733006,E,2,22,1.0,4.900,M,-2.128,M,0.0,0000*68
$GPESA,062921.004,-3.697,-2.296,+0.080,+0.000,+0.000,+0.000*74
$GPESD,062921.004,0.000,0.000,0.000,0.000,0.000,0.000,0.000,0.000,0.000*7F
$GPRMC,062922.004,A,2218.1304199,N,11411.3710589,E,7.92,85.44,210521,0.0,E,D,V*4C
$GPGGA,062922.004,2218.1304199,N,11411.3710589,E,2,22,1.0,5.918,M,-2.128,M,0.0,0000*63
$GPESA,062922.004,-3.372,-2.286,+0.057,+0.000,+0.000,+0.000*72
$GPESD,062922.004,0.000,0.000,0.000,0.000,0.000,0.000,0.000,0.000,0.000*7C
$GPRMC,062923.004,A,2218.1293449,N,11411.3693421,E,7.06,87.00,210521,0.0,E,D,V*4C
$GPGGA,062923.004,2218.1293449,N,11411.3693421,E,2,22,1.0,5.841,M,-2.128,M,0.0,0000*61
$GPESA,062923.004,-2.966,-2.095,-0.084,+0.000,+0.000,+0.000*75
$GPESD,062923.004,0.000,0.000,0.000,0.000,0.000,0.000,0.000,0.000,0.000*7D
$GPRMC,062924.004,A,2218.1286358,N,11411.3683111,E,6.47,87.37,210521,0.0,E,D,V*4F
$GPGGA,062924.004,2218.1286358,N,11411.3683111,E,2,22,1.0,4.546,M,-2.128,M,0.0,0000*69
$GPESA,062924.004,-2.653,-2.006,-0.144,+0.000,+0.000,+0.000*7C
$GPESD,062924.004,0.000,0.000,0.000,0.000,0.000,0.000,0.000,0.000,0.000*7A
$GPRMC,062925.004,A,2218.1272779,N,11411.3662902,E,6.59,84.34,210521,0.0,E,D,V*48
$GPGGA,062925.004,2218.1272779,N,11411.3662902,E,2,23,1.0,5.818,M,-2.128,M,0.0,0000*67
$GPESA,062925.004,-2.704,-2.041,+0.045,+0.000,+0.000,+0.000*7B
$GPESD,062925.004,0.000,0.000,0.000,0.000,0.000,0.000,0.000,0.000,0.000*7B
$GPRMC,062926.004,A,2218.1258362,N,11411.3641114,E,7.00,85.71,210521,0.0,E,D,V*4E
$GPGGA,062926.004,2218.1258362,N,11411.3641114,E,2,22,1.0,6.323,M,-2.128,M,0.0,0000*6D
$GPESA,062926.004,-2.865,-2.184,-0.051,+0.000,+0.000,+0.000*7B
$GPESD,062926.004,0.000,0.000,0.000,0.000,0.000,0.000,0.000,0.000,0.000*78
$GPRMC,062927.004,A,2218.1245947,N,11411.3627312,E,8.34,83.13,210521,0.0,E,D,V*40
$GPGGA,062927.004,2218.1245947,N,11411.3627312,E,2,22,1.0,4.623,M,-2.128,M,0.0,0000*6E
$GPESA,062927.004,-3.508,-2.458,+0.218,+0.000,+0.000,+0.000*70
$GPESD,062927.004,0.000,0.000,0.000,0.000,0.000,0.000,0.000,0.000,0.000*79
$GPRMC,062928.004,A,2218.1234093,N,11411.3604157,E,8.85,87.42,210521,0.0,E,D,V*41
$GPGGA,062928.004,2218.1234093,N,11411.3604157,E,2,22,1.0,5.508,M,-2.128,M,0.0,0000*6E
$GPESA,062928.004,-3.972,-2.226,+0.055,+0.000,+0.000,+0.000*7A
$GPESD,062928.004,0.000,0.000,0.000,0.000,0.000,0.000,0.000,0.000,0.000*76
$GPRMC,062929.004,A,2218.1221491,N,11411.3575554,E,9.73,86.86,210521,0.0,E,D,V*41
$GPGGA,062929.004,2218.1221491,N,11411.3575554,E,2,21,1.0,5.423,M,-2.129,M,0.0,0000*65
$GPESA,062929.004,-4.663,-1.769,+0.417,+0.000,+0.000,+0.000*7C
$GPESD,062929.004,0.000,0.000,0.000,0.000,0.000,0.000,0.000,0.000,0.000*77
$GPRMC,062930.004,A,2218.1213738,N,11411.3548594,E,10.24,90.89,210521,0.0,E,D,V*78
$GPGGA,062930.004,2218.1213738,N,11411.3548594,E,2,22,1.0,4.896,M,-2.129,M,0.0,0000*6E
$GPESA,062930.004,-5.164,-0.943,+0.430,+0.000,+0.000,+0.000*77
$GPESD,062930.004,0.000,0.000,0.000,0.000,0.000,0.000,0.000,0.000,0.000*7F
$GPRMC,062931.004,A,2218.1211115,N,11411.3516398,E,10.59,98.90,210521,0.0,E,D,V*79
$GPGGA,062931.004,2218.1211115,N,11411.3516398,E,2,21,1.0,4.364,M,-2.129,M,0.0,0000*60
$GPESA,062931.004,-5.449,-0.092,+0.034,+0.000,+0.000,+0.000*79
$GPESD,062931.004,0.000,0.000,0.000,0.000,0.000,0.000,0.000,0.000,0.000*7E
$GPRMC,062932.004,A,2218.1215398,N,11411.3483616,E,11.01,103.64,210521,0.0,E,D,V*43
$GPGGA,062932.004,2218.1215398,N,11411.3483616,E,2,19,1.0,5.291,M,-2.129,M,0.0,0000*6F
$GPESA,062932.004,-5.521,+1.239,+0.204,+0.000,+0.000,+0.000*70
$GPESD,062932.004,0.000,0.000,0.000,0.000,0.000,0.000,0.000,0.000,0.000*7D
$GPRMC,062933.004,A,2218.1232986,N,11411.3453895,E,11.56,111.08,210521,0.0,E,D,V*41
$GPGGA,062933.004,2218.1232986,N,11411.3453895,E,2,18,1.0,5.397,M,-2.129,M,0.0,0000*60
$GPESA,062933.004,-5.445,+2.386,+0.146,+0.000,+0.000,+0.000*71
$GPESD,062933.004,0.000,0.000,0.000,0.000,0.000,0.000,0.000,0.000,0.000*7C
$GPRMC,062934.004,A,2218.1244828,N,11411.3423963,E,12.41,116.81,210521,0.0,E,D,V*4E
$GPGGA,062934.004,2218.1244828,N,11411.3423963,E,2,19,1.0,5.830,M,-2.130,M,0.0,0000*63
$GPESA,062934.004,-5.417,+3.371,+0.227,+0.000,+0.000,+0.000*7C
$GPESD,062934.004,0.000,0.000,0.000,0.000,0.000,0.000,0.000,0.000,0.000*7B
$GPRMC,062935.004,A,2218.1258250,N,11411.3385446,E,12.02,122.39,210521,0.0,E,D,V*45
$GPGGA,062935.004,2218.1258250,N,11411.3385446,E,2,20,1.0,3.579,M,-2.130,M,0.0,0000*67
$GPESA,062935.004,-5.243,+3.265,-0.259,+0.000,+0.000,+0.000*71
$GPESD,062935.004,0.000,0.000,0.000,0.000,0.000,0.000,0.000,0.000,0.000*7A
$GPRMC,062936.004,A,2218.1276869,N,11411.3356436,E,11.45,118.78,210521,0.0,E,D,V*4F
$GPGGA,062936.004,2218.1276869,N,11411.3356436,E,2,19,1.0,4.249,M,-2.130,M,0.0,0000*68
$GPESA,062936.004,-4.891,+3.278,+0.197,+0.000,+0.000,+0.000*7D
$GPESD,062936.004,0.000,0.000,0.000,0.000,0.000,0.000,0.000,0.000,0.000*79
$GPRMC,062937.004,A,2218.1295732,N,11411.3332827,E,10.51,118.04,210521,0.0,E,D,V*43
$GPGGA,062937.004,2218.1295732,N,11411.3332827,E,2,21,1.0,3.519,M,-2.130,M,0.0,0000*65
$GPESA,062937.004,-4.483,+3.013,+0.237,+0.000,+0.000,+0.000*75
$GPESD,062937.004,0.000,0.000,0.000,0.000,0.000,0.000,0.000,0.000,0.000*78
$GPRMC,062938.004,A,2218.1300653,N,11411.3309285,E,8.58,117.75,210521,0.0,E,D,V*74
$GPGGA,062938.004,2218.1300653,N,11411.3309285,E,2,22,1.0,3.838,M,-2.130,M,0.0,0000*66
$GPESA,062938.004,-3.756,+2.320,+0.092,+0.000,+0.000,+0.000*79
$GPESD,062938.004,0.000,0.000,0.000,0.000,0.000,0.000,0.000,0.000,0.000*77
$GPRMC,062939.004,A,2218.1316492,N,11411.3287936,E,6.52,115.11,210521,0.0,E,D,V*7D
$GPGGA,062939.004,2218.1316492,N,11411.3287936,E,2,23,1.0,4.249,M,-2.131,M,0.0,0000*60
$GPESA,062939.004,-3.025,+1.450,-0.046,+0.000,+0.000,+0.000*77
$GPESD,062939.004,0.000,0.000,0.000,0.000,0.000,0.000,0.000,0.000,0.000*76
$GPRMC,062940.004,A,2218.1319335,N,11411.3273395,E,4.52,122.69,210521,0.0,E,D,V*77
$GPGGA,062940.004,2218.1319335,N,11411.3273395,E,2,22,1.0,5.036,M,-2.131,M,0.0,0000*69
$GPESA,062940.004,-2.119,+0.857,-0.420,+0.000,+0.000,+0.000*78
$GPESD,062940.004,0.000,0.000,0.000,0.000,0.000,0.000,0.000,0.000,0.000*78
$GPRMC,062941.004,A,2218.1327542,N,11411.3260632,E,3.12,100.67,210521,0.0,E,D,V*7A
$GPGGA,062941.004,2218.1327542,N,11411.3260632,E,2,23,1.0,7.404,M,-2.131,M,0.0,0000*6F
$GPESA,062941.004,-1.470,+0.595,+0.246,+0.000,+0.000,+0.000*73
$GPESD,062941.004,0.000,0.000,0.000,0.000,0.000,0.000,0.000,0.000,0.000*79
$GPRMC,062942.004,A,2218.1326593,N,11411.3251129,E,3.60,110.48,210521,0.0,E,D,V*72
$GPGGA,062942.004,2218.1326593,N,11411.3251129,E,2,24,1.0,6.164,M,-2.131,M,0.0,0000*6B
$GPESA,062942.004,-1.817,+0.294,-0.205,+0.000,+0.000,+0.000*7A
$GPESD,062942.004,0.000,0.000,0.000,0.000,0.000,0.000,0.000,0.000,0.000*7A
$GPRMC,062943.004,A,2218.1328028,N,11411.3241053,E,3.68,95.40,210521,0.0,E,D,V*49
$GPGGA,062943.004,2218.1328028,N,11411.3241053,E,2,23,1.0,6.064,M,-2.131,M,0.0,0000*6A
$GPESA,062943.004,-1.874,-0.260,+0.032,+0.000,+0.000,+0.000*73
$GPESD,062943.004,0.000,0.000,0.000,0.000,0.000,0.000,0.000,0.000,0.000*7B
$GPRMC,062944.004,A,2218.1322478,N,11411.3232613,E,3.47,85.62,210521,0.0,E,D,V*4F
$GPGGA,062944.004,2218.1322478,N,11411.3232613,E,2,24,1.0,5.010,M,-2.131,M,0.0,0000*67
$GPESA,062944.004,-1.372,-1.143,-0.055,+0.000,+0.000,+0.000*7D
$GPESD,062944.004,0.000,0.000,0.000,0.000,0.000,0.000,0.000,0.000,0.000*7C
$GPRMC,062945.004,A,2218.1315927,N,11411.3229474,E,2.98,84.15,210521,0.0,E,D,V*46
$GPGGA,062945.004,2218.1315927,N,11411.3229474,E,2,24,1.0,3.670,M,-2.131,M,0.0,0000*6A
$GPESA,062945.004,-0.777,-1.304,-0.220,+0.000,+0.000,+0.000*7D
$GPESD,062945.004,0.000,0.000,0.000,0.000,0.000,0.000,0.000,0.000,0.000*7D
$GPRMC,062946.004,A,2218.1309775,N,11411.3225883,E,2.28,68.09,210521,0.0,E,D,V*4D
$GPGGA,062946.004,2218.1309775,N,11411.3225883,E,2,24,1.0,4.005,M,-2.131,M,0.0,0000*66
$GPESA,062946.004,-0.277,-1.136,-0.066,+0.000,+0.000,+0.000*78
$GPESD,062946.004,0.000,0.000,0.000,0.000,0.000,0.000,0.000,0.000,0.000*7E
$GPRMC,062947.004,A,2218.1307443,N,11411.3223991,E,0.82,95.51,210521,0.0,E,D,V*4D
$GPGGA,062947.004,2218.1307443,N,11411.3223991,E,2,24,1.0,4.264,M,-2.131,M,0.0,0000*6E
$GPESA,062947.004,-0.052,-0.245,-0.338,+0.000,+0.000,+0.000*72
$GPESD,062947.004,0.000,0.000,0.000,0.000,0.000,0.000,0.000,0.000,0.000*7F
$GPRMC,062948.004,A,2218.1307475,N,11411.3223134,E,0.33,89.68,210521,0.0,E,D,V*4D
$GPGGA,062948.004,2218.1307475,N,11411.3223134,E,2,23,1.0,5.208,M,-2.131,M,0.0,0000*6F
$GPESA,062948.004,+0.054,+0.062,-0.150,+0.000,+0.000,+0.000*70
$GPESD,062948.004,0.000,0.000,0.000,0.000,0.000,0.000,0.000,0.000,0.000*70
$GPRMC,062949.004,A,2218.1308721,N,11411.3224427,E,0.17,342.24,210521,0.0,E,D,V*7B
$GPGGA,062949.004,2218.1308721,N,11411.3224427,E,2,22,1.0,5.242,M,-2.131,M,0.0,0000*6C
$GPESA,062949.004,+0.028,-0.058,+0.060,+0.000,+0.000,+0.000*71
$GPESD,062949.004,0.000,0.000,0.000,0.000,0.000,0.000,0.000,0.000,0.000*71
$GPRMC,062950.004,A,2218.1309258,N,11411.3222951,E,0.50,208.80,210521,0.0,E,D,V*71
$GPGGA,062950.004,2218.1309258,N,11411.3222951,E,2,22,1.0,5.939,M,-2.131,M,0.0,0000*63
$GPESA,062950.004,+0.021,-0.056,-0.251,+0.000,+0.000,+0.000*78
$GPESD,062950.004,0.000,0.000,0.000,0.000,0.000,0.000,0.000,0.000,0.000*79
$GPRMC,062951.004,A,2218.1309351,N,11411.3224158,E,0.77,208.95,210521,0.0,E,D,V*7E
$GPGGA,062951.004,2218.1309351,N,11411.3224158,E,2,23,1.0,6.004,M,-2.131,M,0.0,0000*68
$GPESA,062951.004,+0.038,-0.061,-0.388,+0.000,+0.000,+0.000*70
$GPESD,062951.004,0.000,0.000,0.000,0.000,0.000,0.000,0.000,0.000,0.000*78
$GPRMC,062952.004,A,2218.1310192,N,11411.3224984,E,0.79,342.49,210521,0.0,E,D,V*71
$GPGGA,062952.004,2218.1310192,N,11411.3224984,E,2,23,1.0,5.860,M,-2.131,M,0.0,0000*6E
$GPESA,062952.004,-0.020,-0.092,-0.394,+0.000,+0.000,+0.000*7D
$GPESD,062952.004,0.000,0.000,0.000,0.000,0.000,0.000,0.000,0.000,0.000*7B
$GPRMC,062953.004,A,2218.1310961,N,11411.3225600,E,0.22,342.73,210521,0.0,E,D,V*71
$GPGGA,062953.004,2218.1310961,N,11411.3225600,E,2,23,1.0,5.954,M,-2.131,M,0.0,0000*6F
$GPESA,062953.004,-0.045,-0.046,-0.092,+0.000,+0.000,+0.000*73
$GPESD,062953.004,0.000,0.000,0.000,0.000,0.000,0.000,0.000,0.000,0.000*7A
$GPRMC,062954.004,A,2218.1309277,N,11411.3224955,E,0.23,5.61,210521,0.0,E,D,V*7E
$GPGGA,062954.004,2218.1309277,N,11411.3224955,E,2,23,1.0,5.624,M,-2.131,M,0.0,0000*6A
$GPESA,062954.004,+0.011,+0.083,+0.082,+0.000,+0.000,+0.000*7B
$GPESD,062954.004,0.000,0.000,0.000,0.000,0.000,0.000,0.000,0.000,0.000*7D
$GPRMC,062955.004,A,2218.1309902,N,11411.3225805,E,0.09,5.54,210521,0.0,E,D,V*7D
$GPGGA,062955.004,2218.1309902,N,11411.3225805,E,2,23,1.0,5.728,M,-2.131,M,0.0,0000*6A
$GPESA,062955.004,+0.004,+0.017,-0.044,+0.000,+0.000,+0.000*7F
$GPESD,062955.004,0.000,0.000,0.000,0.000,0.000,0.000,0.000,0.000,0.000*7C
$GPRMC,062956.004,A,2218.1309804,N,11411.3225134,E,0.22,5.42,210521,0.0,E,D,V*7C
$GPGGA,062956.004,2218.1309804,N,11411.3225134,E,2,23,1.0,5.994,M,-2.131,M,0.0,0000*6C
$GPESA,062956.004,-0.042,+0.030,-0.102,+0.000,+0.000,+0.000*7E
$GPESD,062956.004,0.000,0.000,0.000,0.000,0.000,0.000,0.000,0.000,0.000*7F
$GPRMC,062957.004,A,2218.1309324,N,11411.3225074,E,0.15,5.29,210521,0.0,E,D,V*78
$GPGGA,062957.004,2218.1309324,N,11411.3225074,E,2,23,1.0,5.851,M,-2.131,M,0.0,0000*69
$GPESA,062957.004,-0.003,+0.077,+0.008,+0.000,+0.000,+0.000*74
$GPESD,062957.004,0.000,0.000,0.000,0.000,0.000,0.000,0.000,0.000,0.000*7E
$GPRMC,062958.004,A,2218.1309534,N,11411.3225460,E,0.07,4.75,210521,0.0,E,D,V*7A
$GPGGA,062958.004,2218.1309534,N,11411.3225460,E,2,23,1.0,5.783,M,-2.131,M,0.0,0000*60
$GPESA,062958.004,+0.007,-0.036,+0.009,+0.000,+0.000,+0.000*7B
$GPESD,062958.004,0.000,0.000,0.000,0.000,0.000,0.000,0.000,0.000,0.000*71
$GPRMC,062959.004,A,2218.1309926,N,11411.3226046,E,0.19,5.44,210521,0.0,E,D,V*7B
$GPGGA,062959.004,2218.1309926,N,11411.3226046,E,2,23,1.0,5.912,M,-2.131,M,0.0,0000*6B
$GPESA,062959.004,-0.079,-0.027,+0.050,+0.000,+0.000,+0.000*79
$GPESD,062959.004,0.000,0.000,0.000,0.000,0.000,0.000,0.000,0.000,0.000*70
$GPRMC,063000.004,A,2218.1310726,N,11411.3225846,E,0.19,5.44,210521,0.0,E,D,V*72
$GPGGA,063000.004,2218.1310726,N,11411.3225846,E,2,24,1.0,6.125,M,-2.131,M,0.0,0000*6A
$GPESA,063000.004,-0.080,-0.039,-0.041,+0.000,+0.000,+0.000*72
$GPESD,063000.004,0.000,0.000,0.000,0.000,0.000,0.000,0.000,0.000,0.000*74
$GPRMC,063001.004,A,2218.1309855,N,11411.3226822,E,0.10,113.47,210521,0.0,E,D,V*7D
$GPGGA,063001.004,2218.1309855,N,11411.3226822,E,2,24,1.0,5.691,M,-2.131,M,0.0,0000*62
$GPESA,063001.004,-0.013,+0.033,+0.038,+0.000,+0.000,+0.000*7D
$GPESD,063001.004,0.000,0.000,0.000,0.000,0.000,0.000,0.000,0.000,0.000*75
$GPRMC,063002.004,A,2218.1310336,N,11411.3227267,E,0.29,91.12,210521,0.0,E,D,V*43
$GPGGA,063002.004,2218.1310336,N,11411.3227267,E,2,24,1.0,5.767,M,-2.131,M,0.0,0000*65
$GPESA,063002.004,-0.005,-0.009,-0.147,+0.000,+0.000,+0.000*79
$GPESD,063002.004,0.000,0.000,0.000,0.000,0.000,0.000,0.000,0.000,0.000*76
$GPRMC,063003.004,A,2218.1310885,N,11411.3227467,E,0.51,89.76,210521,0.0,E,D,V*43
$GPGGA,063003.004,2218.1310885,N,11411.3227467,E,2,24,1.0,6.134,M,-2.131,M,0.0,0000*62
$GPESA,063003.004,-0.022,+0.002,-0.264,+0.000,+0.000,+0.000*72
$GPESD,063003.004,0.000,0.000,0.000,0.000,0.000,0.000,0.000,0.000,0.000*77
$GPRMC,063004.004,A,2218.1310345,N,11411.3227722,E,0.15,89.73,210521,0.0,E,D,V*44
$GPGGA,063004.004,2218.1310345,N,11411.3227722,E,2,24,1.0,5.737,M,-2.131,M,0.0,0000*66
$GPESA,063004.004,+0.024,-0.014,+0.074,+0.000,+0.000,+0.000*71
$GPESD,063004.004,0.000,0.000,0.000,0.000,0.000,0.000,0.000,0.000,0.000*70
$GPRMC,063005.004,A,2218.1310772,N,11411.3227178,E,0.35,89.72,210521,0.0,E,D,V*4F
$GPGGA,063005.004,2218.1310772,N,11411.3227178,E,2,24,1.0,5.963,M,-2.131,M,0.0,0000*61
$GPESA,063005.004,-0.021,+0.028,+0.177,+0.000,+0.000,+0.000*78
$GPESD,063005.004,0.000,0.000,0.000,0.000,0.000,0.000,0.000,0.000,0.000*71
$GPRMC,063006.004,A,2218.1309919,N,11411.3226614,E,0.63,89.72,210521,0.0,E,D,V*48
$GPGGA,063006.004,2218.1309919,N,11411.3226614,E,2,24,1.0,6.102,M,-2.131,M,0.0,0000*69
$GPESA,063006.004,+0.031,-0.006,-0.323,+0.000,+0.000,+0.000*73
$GPESD,063006.004,0.000,0.000,0.000,0.000,0.000,0.000,0.000,0.000,0.000*72
$GPRMC,063007.004,A,2218.1309930,N,11411.3226889,E,0.32,89.81,210521,0.0,E,D,V*40
$GPGGA,063007.004,2218.1309930,N,11411.3226889,E,2,24,1.0,5.923,M,-2.131,M,0.0,0000*61
$GPESA,063007.004,-0.028,+0.051,+0.153,+0.000,+0.000,+0.000*7B
$GPESD,063007.004,0.000,0.000,0.000,0.000,0.000,0.000,0.000,0.000,0.000*73
$GPRMC,063008.004,A,2218.1309187,N,11411.3226618,E,0.33,89.71,210521,0.0,E,D,V*43
$GPGGA,063008.004,2218.1309187,N,11411.3226618,E,2,24,1.0,5.931,M,-2.131,M,0.0,0000*6F
$GPESA,063008.004,+0.045,+0.036,-0.158,+0.000,+0.000,+0.000*75
$GPESD,063008.004,0.000,0.000,0.000,0.000,0.000,0.000,0.000,0.000,0.000*7C
$GPRMC,063009.004,A,2218.1308384,N,11411.3226183,E,0.30,89.73,210521,0.0,E,D,V*46
$GPGGA,063009.004,2218.1308384,N,11411.3226183,E,2,24,1.0,5.808,M,-2.131,M,0.0,0000*60
$GPESA,063009.004,-0.008,+0.068,+0.139,+0.000,+0.000,+0.000*71
$GPESD,063009.004,0.000,0.000,0.000,0.000,0.000,0.000,0.000,0.000,0.000*7D
$GPRMC,063010.004,A,2218.1308387,N,11411.3224867,E,0.25,89.73,210521,0.0,E,D,V*48
$GPGGA,063010.004,2218.1308387,N,11411.3224867,E,2,23,1.0,6.069,M,-2.131,M,0.0,0000*61
$GPESA,063010.004,+0.023,-0.040,-0.120,+0.000,+0.000,+0.000*74
$GPESD,063010.004,0.000,0.000,0.000,0.000,0.000,0.000,0.000,0.000,0.000*75
$GPRMC,063011.004,A,2218.1308781,N,11411.3224906,E,0.10,331.73,210521,0.0,E,D,V*7B
$GPGGA,063011.004,2218.1308781,N,11411.3224906,E,2,23,1.0,5.996,M,-2.131,M,0.0,0000*6E
$GPESA,063011.004,+0.002,-0.016,-0.047,+0.000,+0.000,+0.000*75
$GPESD,063011.004,0.000,0.000,0.000,0.000,0.000,0.000,0.000,0.000,0.000*74
$GPRMC,063012.004,A,2218.1308823,N,11411.3224576,E,0.27,344.95,210521,0.0,E,D,V*7A
$GPGGA,063012.004,2218.1308823,N,11411.3224576,E,2,23,1.0,6.245,M,-2.131,M,0.0,0000*67
$GPESA,063012.004,+0.067,+0.032,-0.115,+0.000,+0.000,+0.000*73
$GPESD,063012.004,0.000,0.000,0.000,0.000,0.000,0.000,0.000,0.000,0.000*77
$GPRMC,063013.004,A,2218.1309124,N,11411.3224249,E,0.17,344.96,210521,0.0,E,D,V*7F
$GPGGA,063013.004,2218.1309124,N,11411.3224249,E,2,23,1.0,6.592,M,-2.131,M,0.0,0000*6F
$GPESA,063013.004,-0.041,+0.015,-0.077,+0.000,+0.000,+0.000*70
$GPESD,063013.004,0.000,0.000,0.000,0.000,0.000,0.000,0.000,0.000,0.000*76
$GPRMC,063014.004,A,2218.1308423,N,11411.3223126,E,0.27,345.09,210521,0.0,E,D,V*72
$GPGGA,063014.004,2218.1308423,N,11411.3223126,E,2,24,1.0,6.725,M,-2.131,M,0.0,0000*6F
$GPESA,063014.004,-0.048,+0.002,-0.130,+0.000,+0.000,+0.000*7A
$GPESD,063014.004,0.000,0.000,0.000,0.000,0.000,0.000,0.000,0.000,0.000*71
$GPRMC,063015.004,A,2218.1308596,N,11411.3222521,E,0.31,89.80,210521,0.0,E,D,V*4B
$GPGGA,063015.004,2218.1308596,N,11411.3222521,E,2,23,1.0,6.720,M,-2.131,M,0.0,0000*61
$GPESA,063015.004,+0.069,+0.093,+0.110,+0.000,+0.000,+0.000*72
$GPESD,063015.004,0.000,0.000,0.000,0.000,0.000,0.000,0.000,0.000,0.000*70
$GPRMC,063016.004,A,2218.1309020,N,11411.3222181,E,0.59,261.20,210521,0.0,E,D,V*7F
$GPGGA,063016.004,2218.1309020,N,11411.3222181,E,2,23,1.0,7.025,M,-2.131,M,0.0,0000*66
$GPESA,063016.004,-0.041,+0.046,+0.295,+0.000,+0.000,+0.000*7B
$GPESD,063016.004,0.000,0.000,0.000,0.000,0.000,0.000,0.000,0.000,0.000*73
$GPRMC,063017.004,A,2218.1308355,N,11411.3221395,E,0.54,252.76,210521,0.0,E,D,V*74
$GPGGA,063017.004,2218.1308355,N,11411.3221395,E,2,24,1.0,7.140,M,-2.131,M,0.0,0000*66
$GPESA,063017.004,+0.009,+0.050,+0.272,+0.000,+0.000,+0.000*7E
$GPESD,063017.004,0.000,0.000,0.000,0.000,0.000,0.000,0.000,0.000,0.000*72
$GPRMC,063018.004,A,2218.1307263,N,11411.3221743,E,0.55,86.46,210521,0.0,E,D,V*46
$GPGGA,063018.004,2218.1307263,N,11411.3221743,E,2,24,1.0,6.682,M,-2.131,M,0.0,0000*65
$GPESA,063018.004,-0.027,-0.082,-0.267,+0.000,+0.000,+0.000*70
$GPESD,063018.004,0.000,0.000,0.000,0.000,0.000,0.000,0.000,0.000,0.000*7D
$GPRMC,063019.004,A,2218.1307812,N,11411.3221614,E,0.15,86.59,210521,0.0,E,D,V*42
$GPGGA,063019.004,2218.1307812,N,11411.3221614,E,2,24,1.0,6.870,M,-2.131,M,0.0,0000*68
$GPESA,063019.004,+0.048,+0.030,-0.052,+0.000,+0.000,+0.000*75
$GPESD,063019.004,0.000,0.000,0.000,0.000,0.000,0.000,0.000,0.000,0.000*7C
$GPRMC,063020.004,A,2218.1308538,N,11411.3222647,E,0.43,86.52,210521,0.0,E,D,V*4F
$GPGGA,063020.004,2218.1308538,N,11411.3222647,E,2,24,1.0,6.960,M,-2.131,M,0.0,0000*6D
$GPESA,063020.004,+0.084,+0.057,+0.199,+0.000,+0.000,+0.000*7E
$GPESD,063020.004,0.000,0.000,0.000,0.000,0.000,0.000,0.000,0.000,0.000*76
$GPRMC,063021.004,A,2218.1308659,N,11411.3223252,E,0.11,86.49,210521,0.0,E,D,V*46
$GPGGA,063021.004,2218.1308659,N,11411.3223252,E,2,23,1.0,7.286,M,-2.131,M,0.0,0000*6C
$GPESA,063021.004,-0.048,+0.030,-0.011,+0.000,+0.000,+0.000*7F
$GPESD,063021.004,0.000,0.000,0.000,0.000,0.000,0.000,0.000,0.000,0.000*77
$GPRMC,063022.004,A,2218.1308912,N,11411.3222931,E,0.14,345.90,210521,0.0,E,D,V*77
$GPGGA,063022.004,2218.1308912,N,11411.3222931,E,2,23,1.0,7.019,M,-2.131,M,0.0,0000*64
$GPESA,063022.004,-0.057,+0.010,+0.043,+0.000,+0.000,+0.000*71
$GPESD,063022.004,0.000,0.000,0.000,0.000,0.000,0.000,0.000,0.000,0.000*74
$GPRMC,063023.004,A,2218.1308955,N,11411.3223155,E,0.26,346.14,210521,0.0,E,D,V*70
$GPGGA,063023.004,2218.1308955,N,11411.3223155,E,2,23,1.0,6.930,M,-2.131,M,0.0,0000*6E
$GPESA,063023.004,-0.011,-0.063,+0.115,+0.000,+0.000,+0.000*72
$GPESD,063023.004,0.000,0.000,0.000,0.000,0.000,0.000,0.000,0.000,0.000*75
$GPRMC,063024.004,A,2218.1307676,N,11411.3222441,E,0.59,346.18,210521,0.0,E,D,V*73
$GPGGA,063024.004,2218.1307676,N,11411.3222441,E,2,23,1.0,6.631,M,-2.131,M,0.0,0000*67
$GPESA,063024.004,-0.078,-0.222,+0.195,+0.000,+0.000,+0.000*75
$GPESD,063024.004,0.000,0.000,0.000,0.000,0.000,0.000,0.000,0.000,0.000*72
$GPRMC,063025.004,A,2218.1300955,N,11411.3220477,E,3.99,49.13,210521,0.0,E,D,V*44
$GPGGA,063025.004,2218.1300955,N,11411.3220477,E,2,23,1.0,6.420,M,-2.131,M,0.0,0000*6A
$GPESA,063025.004,-0.447,-1.945,+0.474,+0.000,+0.000,+0.000*7D
$GPESD,063025.004,0.000,0.000,0.000,0.000,0.000,0.000,0.000,0.000,0.000*73
$GPRMC,063026.004,A,2218.1287951,N,11411.3216259,E,7.17,65.49,210521,0.0,E,D,V*41
$GPGGA,063026.004,2218.1287951,N,11411.3216259,E,2,23,1.0,6.883,M,-2.131,M,0.0,0000*69
$GPESA,063026.004,-1.111,-3.514,+0.081,+0.000,+0.000,+0.000*7D
$GPESD,063026.004,0.000,0.000,0.000,0.000,0.000,0.000,0.000,0.000,0.000*70
$GPRMC,063027.004,A,2218.1267601,N,11411.3205903,E,11.20,75.30,210521,0.0,E,D,V*7E
$GPGGA,063027.004,2218.1267601,N,11411.3205903,E,2,23,1.0,7.716,M,-2.131,M,0.0,0000*68
$GPESA,063027.004,-2.497,-5.188,-0.273,+0.000,+0.000,+0.000*7A
$GPESD,063027.004,0.000,0.000,0.000,0.000,0.000,0.000,0.000,0.000,0.000*71
$GPRMC,063028.004,A,2218.1237953,N,11411.3191162,E,13.39,78.64,210521,0.0,E,D,V*7B
$GPGGA,063028.004,2218.1237953,N,11411.3191162,E,2,23,1.0,7.695,M,-2.131,M,0.0,0000*61
$GPESA,063028.004,-3.130,-6.105,-0.595,+0.000,+0.000,+0.000*75
$GPESD,063028.004,0.000,0.000,0.000,0.000,0.000,0.000,0.000,0.000,0.000*7E
$GPRMC,063029.004,A,2218.1202521,N,11411.3170362,E,16.15,81.29,210521,0.0,E,D,V*7C
$GPGGA,063029.004,2218.1202521,N,11411.3170362,E,2,22,1.0,7.457,M,-2.131,M,0.0,0000*6F
$GPESA,063029.004,-4.043,-7.199,-0.916,+0.000,+0.000,+0.000*75
$GPESD,063029.004,0.000,0.000,0.000,0.000,0.000,0.000,0.000,0.000,0.000*7F
$GPRMC,063030.004,A,2218.1169988,N,11411.3144078,E,16.42,76.91,210521,0.0,E,D,V*73
$GPGGA,063030.004,2218.1169988,N,11411.3144078,E,2,22,1.0,9.067,M,-2.131,M,0.0,0000*60
$GPESA,063030.004,-4.631,-7.066,-0.076,+0.000,+0.000,+0.000*70
$GPESD,063030.004,0.000,0.000,0.000,0.000,0.000,0.000,0.000,0.000,0.000*77
$GPRMC,063031.004,A,2218.1129082,N,11411.3116515,E,15.65,78.87,210521,0.0,E,D,V*73
$GPGGA,063031.004,2218.1129082,N,11411.3116515,E,2,22,1.0,6.834,M,-2.131,M,0.0,0000*6E
$GPESA,063031.004,-5.185,-6.156,+0.110,+0.000,+0.000,+0.000*7C
$GPESD,063031.004,0.000,0.000,0.000,0.000,0.000,0.000,0.000,0.000,0.000*76
$GPRMC,063032.004,A,2218.1094762,N,11411.3084453,E,16.08,79.28,210521,0.0,E,D,V*7B
$GPGGA,063032.004,2218.1094762,N,11411.3084453,E,2,21,1.0,6.494,M,-2.131,M,0.0,0000*6F
$GPESA,063032.004,-5.639,-6.048,+0.244,+0.000,+0.000,+0.000*73
$GPESD,063032.004,0.000,0.000,0.000,0.000,0.000,0.000,0.000,0.000,0.000*75
$GPRMC,063033.004,A,2218.1062448,N,11411.3049516,E,16.52,83.36,210521,0.0,E,D,V*7C
$GPGGA,063033.004,2218.1062448,N,11411.3049516,E,2,20,1.0,6.400,M,-2.131,M,0.0,0000*61
$GPESA,063033.004,-6.346,-5.651,-0.028,+0.000,+0.000,+0.000*7F
$GPESD,063033.004,0.000,0.000,0.000,0.000,0.000,0.000,0.000,0.000,0.000*74
$GPRMC,063034.004,A,2218.1033830,N,11411.3013698,E,15.47,77.69,210521,0.0,E,D,V*70
$GPGGA,063034.004,2218.1033830,N,11411.3013698,E,2,20,1.0,6.776,M,-2.131,M,0.0,0000*69
$GPESA,063034.004,-6.291,-4.753,+1.092,+0.000,+0.000,+0.000*77
$GPESD,063034.004,0.000,0.000,0.000,0.000,0.000,0.000,0.000,0.000,0.000*73
$GPRMC,063035.004,A,2218.1007289,N,11411.2976690,E,16.07,86.83,210521,0.0,E,D,V*70
$GPGGA,063035.004,2218.1007289,N,11411.2976690,E,2,22,1.0,6.813,M,-2.132,M,0.0,0000*69
$GPESA,063035.004,-6.679,-4.864,-0.213,+0.000,+0.000,+0.000*73
$GPESD,063035.004,0.000,0.000,0.000,0.000,0.000,0.000,0.000,0.000,0.000*72
$GPRMC,063036.004,A,2218.0980437,N,11411.2933903,E,16.59,85.95,210521,0.0,E,D,V*7C
$GPGGA,063036.004,2218.0980437,N,11411.2933903,E,2,21,1.0,6.452,M,-2.132,M,0.0,0000*60
$GPESA,063036.004,-6.902,-5.020,-0.079,+0.000,+0.000,+0.000*74
$GPESD,063036.004,0.000,0.000,0.000,0.000,0.000,0.000,0.000,0.000,0.000*71
$GPRMC,063037.004,A,2218.0960251,N,11411.2898079,E,17.19,86.38,210521,0.0,E,D,V*70
$GPGGA,063037.004,2218.0960251,N,11411.2898079,E,2,22,1.0,10.442,M,-2.132,M,0.0,0000*58
$GPESA,063037.004,-7.312,-4.976,-0.037,+0.000,+0.000,+0.000*7E
$GPESD,063037.004,0.000,0.000,0.000,0.000,0.000,0.000,0.000,0.000,0.000*70
$GPRMC,063038.004,A,2218.0933158,N,11411.2850105,E,17.19,88.60,210521,0.0,E,D,V*7E
$GPGGA,063038.004,2218.0933158,N,11411.2850105,E,2,22,1.0,8.537,M,-2.132,M,0.0,0000*6F
$GPESA,063038.004,-7.400,-4.833,-0.335,+0.000,+0.000,+0.000*74
$GPESD,063038.004,0.000,0.000,0.000,0.000,0.000,0.000,0.000,0.000,0.000*7F
$GPRMC,063039.004,A,2218.0899346,N,11411.2804361,E,16.14,89.44,210521,0.0,E,D,V*79
$GPGGA,063039.004,2218.0899346,N,11411.2804361,E,2,23,1.0,5.687,M,-2.132,M,0.0,0000*67
$GPESA,063039.004,-7.055,-4.361,-0.359,+0.000,+0.000,+0.000*77
$GPESD,063039.004,0.000,0.000,0.000,0.000,0.000,0.000,0.000,0.000,0.000*7E
$GPRMC,063040.004,A,2218.0882804,N,11411.2770348,E,14.54,87.96,210521,0.0,E,D,V*70
$GPGGA,063040.004,2218.0882804,N,11411.2770348,E,2,21,1.0,7.023,M,-2.132,M,0.0,0000*61
$GPESA,063040.004,-6.675,-3.372,+0.148,+0.000,+0.000,+0.000*7D
$GPESD,063040.004,0.000,0.000,0.000,0.000,0.000,0.000,0.000,0.000,0.000*70
$GPRMC,063041.004,A,2218.0863706,N,11411.2726702,E,13.07,88.30,210521,0.0,E,D,V*78
$GPGGA,063041.004,2218.0863706,N,11411.2726702,E,2,22,1.0,6.277,M,-2.133,M,0.0,0000*6B
$GPESA,063041.004,-6.020,-2.993,+0.107,+0.000,+0.000,+0.000*75
$GPESD,063041.004,0.000,0.000,0.000,0.000,0.000,0.000,0.000,0.000,0.000*71
$GPRMC,063042.004,A,2218.0848886,N,11411.2690965,E,11.44,91.81,210521,0.0,E,D,V*71
$GPGGA,063042.004,2218.0848886,N,11411.2690965,E,2,18,1.0,6.708,M,-2.133,M,0.0,0000*61
$GPESA,063042.004,-5.306,-2.532,-0.257,+0.000,+0.000,+0.000*75
$GPESD,063042.004,0.000,0.000,0.000,0.000,0.000,0.000,0.000,0.000,0.000*72
$GPRMC,063043.004,A,2218.0836410,N,11411.2670403,E,8.74,91.71,210521,0.0,E,D,V*4D
$GPGGA,063043.004,2218.0836410,N,11411.2670403,E,2,18,1.0,5.649,M,-2.133,M,0.0,0000*6E
$GPESA,063043.004,-4.029,-1.987,-0.211,+0.000,+0.000,+0.000*78
$GPESD,063043.004,0.000,0.000,0.000,0.000,0.000,0.000,0.000,0.000,0.000*73
$GPRMC,063044.004,A,2218.0827036,N,11411.2644999,E,5.63,89.06,210521,0.0,E,D,V*41
$GPGGA,063044.004,2218.0827036,N,11411.2644999,E,2,16,1.0,5.207,M,-2.133,M,0.0,0000*60
$GPESA,063044.004,-2.606,-1.266,+0.016,+0.000,+0.000,+0.000*75
$GPESD,063044.004,0.000,0.000,0.000,0.000,0.000,0.000,0.000,0.000,0.000*74
$GPRMC,063045.004,A,2218.0826563,N,11411.2637737,E,3.13,93.78,210521,0.0,E,D,V*49
$GPGGA,063045.004,2218.0826563,N,11411.2637737,E,2,18,1.0,7.569,M,-2.133,M,0.0,0000*68
$GPESA,063045.004,-1.418,-0.752,-0.157,+0.000,+0.000,+0.000*7B
$GPESD,063045.004,0.000,0.000,0.000,0.000,0.000,0.000,0.000,0.000,0.000*75
$GPRMC,063046.004,A,2218.0820858,N,11411.2633922,E,2.10,105.11,210521,0.0,E,D,V*74
$GPGGA,063046.004,2218.0820858,N,11411.2633922,E,2,18,1.0,6.158,M,-2.133,M,0.0,0000*61
$GPESA,063046.004,-0.706,-0.704,-0.417,+0.000,+0.000,+0.000*77
$GPESD,063046.004,0.000,0.000,0.000,0.000,0.000,0.000,0.000,0.000,0.000*76
$GPRMC,063047.004,A,2218.0823199,N,11411.2627241,E,1.01,89.79,210521,0.0,E,D,V*41
$GPGGA,063047.004,2218.0823199,N,11411.2627241,E,2,17,1.0,6.745,M,-2.133,M,0.0,0000*69
$GPESA,063047.004,-0.223,-0.355,-0.308,+0.000,+0.000,+0.000*7D
$GPESD,063047.004,0.000,0.000,0.000,0.000,0.000,0.000,0.000,0.000,0.000*77
$GPRMC,063048.004,A,2218.0821728,N,11411.2626758,E,0.34,135.25,210521,0.0,E,D,V*74
$GPGGA,063048.004,2218.0821728,N,11411.2626758,E,2,18,1.0,5.308,M,-2.133,M,0.0,0000*65
$GPESA,063048.004,-0.140,-0.050,-0.095,+0.000,+0.000,+0.000*75
$GPESD,063048.004,0.000,0.000,0.000,0.000,0.000,0.000,0.000,0.000,0.000*78
$GPRMC,063049.004,A,2218.0825025,N,11411.2626618,E,1.05,135.25,210521,0.0,E,D,V*7D
$GPGGA,063049.004,2218.0825025,N,11411.2626618,E,2,17,1.0,5.870,M,-2.133,M,0.0,0000*64
$GPESA,063049.004,-0.385,-0.143,+0.352,+0.000,+0.000,+0.000*72
$GPESD,063049.004,0.000,0.000,0.000,0.000,0.000,0.000,0.000,0.000,0.000*79
$GPRMC,063050.004,A,2218.0814814,N,11411.2628329,E,1.08,218.77,210521,0.0,E,D,V*72
$GPGGA,063050.004,2218.0814814,N,11411.2628329,E,2,18,1.0,3.822,M,-2.133,M,0.0,0000*63
$GPESA,063050.004,-0.278,-0.041,+0.482,+0.000,+0.000,+0.000*70
$GPESD,063050.004,0.000,0.000,0.000,0.000,0.000,0.000,0.000,0.000,0.000*71
$GPRMC,063051.004,A,2218.0819098,N,11411.2627190,E,0.20,137.81,210521,0.0,E,D,V*71
$GPGGA,063051.004,2218.0819098,N,11411.2627190,E,2,22,1.0,3.882,M,-2.133,M,0.0,0000*6F
$GPESA,063051.004,-0.004,-0.030,+0.097,+0.000,+0.000,+0.000*7E
$GPESD,063051.004,0.000,0.000,0.000,0.000,0.000,0.000,0.000,0.000,0.000*70
$GPRMC,063052.004,A,2218.0821913,N,11411.2631266,E,0.10,65.76,210521,0.0,E,D,V*43
$GPGGA,063052.004,2218.0821913,N,11411.2631266,E,2,24,1.0,2.983,M,-2.133,M,0.0,0000*67
$GPESA,063052.004,+0.030,+0.039,-0.011,+0.000,+0.000,+0.000*7B
$GPESD,063052.004,0.000,0.000,0.000,0.000,0.000,0.000,0.000,0.000,0.000*73
$GPRMC,063053.004,A,2218.0814365,N,11411.2635412,E,0.20,140.78,210521,0.0,E,D,V*75
$GPGGA,063053.004,2218.0814365,N,11411.2635412,E,2,24,1.0,1.735,M,-2.133,M,0.0,0000*6A
$GPESA,063053.004,-0.030,+0.020,-0.096,+0.000,+0.000,+0.000*7B
$GPESD,063053.004,0.000,0.000,0.000,0.000,0.000,0.000,0.000,0.000,0.000*72
$GPRMC,063054.004,A,2218.0811633,N,11411.2636658,E,0.12,65.55,210521,0.0,E,D,V*46
$GPGGA,063054.004,2218.0811633,N,11411.2636658,E,2,24,1.0,0.700,M,-2.133,M,0.0,0000*66
$GPESA,063054.004,+0.001,-0.045,+0.045,+0.000,+0.000,+0.000*75
$GPESD,063054.004,0.000,0.000,0.000,0.000,0.000,0.000,0.000,0.000,0.000*75
$GPRMC,063055.004,A,2218.0814905,N,11411.2631676,E,0.60,65.55,210521,0.0,E,D,V*46
$GPGGA,063055.004,2218.0814905,N,11411.2631676,E,2,23,1.0,2.505,M,-2.133,M,0.0,0000*61
$GPESA,063055.004,-0.302,+0.054,-0.026,+0.000,+0.000,+0.000*77
$GPESD,063055.004,0.000,0.000,0.000,0.000,0.000,0.000,0.000,0.000,0.000*74
$GPRMC,063056.004,A,2218.0811144,N,11411.2628127,E,1.54,125.45,210521,0.0,E,D,V*74
$GPGGA,063056.004,2218.0811144,N,11411.2628127,E,2,20,1.0,6.611,M,-2.133,M,0.0,0000*60
$GPESA,063056.004,-0.653,+0.436,+0.117,+0.000,+0.000,+0.000*70
$GPESD,063056.004,0.000,0.000,0.000,0.000,0.000,0.000,0.000,0.000,0.000*77
$GPRMC,063057.004,A,2218.0796409,N,11411.2628211,E,2.88,97.63,210521,0.0,E,D,V*41
$GPGGA,063057.004,2218.0796409,N,11411.2628211,E,2,18,1.0,7.340,M,-2.133,M,0.0,0000*60
$GPESA,063057.004,-1.395,+0.433,+0.238,+0.000,+0.000,+0.000*74
$GPESD,063057.004,0.000,0.000,0.000,0.000,0.000,0.000,0.000,0.000,0.000*76
$GPRMC,063058.004,A,2218.0801698,N,11411.2620648,E,3.06,127.43,210521,0.0,E,D,V*7A
$GPGGA,063058.004,2218.0801698,N,11411.2620648,E,2,18,1.0,7.326,M,-2.133,M,0.0,0000*64
$GPESA,063058.004,-1.339,+0.793,-0.220,+0.000,+0.000,+0.000*7B
$GPESD,063058.004,0.000,0.000,0.000,0.000,0.000,0.000,0.000,0.000,0.000*79
$GPRMC,063059.004,A,2218.0798132,N,11411.2617882,E,4.48,174.20,210521,0.0,E,D,V*71
$GPGGA,063059.004,2218.0798132,N,11411.2617882,E,2,18,1.0,6.644,M,-2.133,M,0.0,0000*61
$GPESA,063059.004,-1.041,+1.985,-0.537,+0.000,+0.000,+0.000*7F
$GPESD,063059.004,0.000,0.000,0.000,0.000,0.000,0.000,0.000,0.000,0.000*78
$GPRMC,063100.004,A,2218.0828846,N,11411.2609061,E,5.35,248.04,210521,0.0,E,D,V*79
$GPGGA,063100.004,2218.0828846,N,11411.2609061,E,2,19,1.0,5.323,M,-2.133,M,0.0,0000*6E
$GPESA,063100.004,+0.359,+2.709,+0.327,+0.000,+0.000,+0.000*77
$GPESD,063100.004,0.000,0.000,0.000,0.000,0.000,0.000,0.000,0.000,0.000*75
$GPRMC,063101.004,A,2218.0841500,N,11411.2610611,E,5.82,262.91,210521,0.0,E,D,V*79
$GPGGA,063101.004,2218.0841500,N,11411.2610611,E,2,17,1.0,5.095,M,-2.133,M,0.0,0000*66
$GPESA,063101.004,+1.470,+2.577,+0.395,+0.000,+0.000,+0.000*79
$GPESD,063101.004,0.000,0.000,0.000,0.000,0.000,0.000,0.000,0.000,0.000*74
$GPRMC,063102.004,A,2218.0851045,N,11411.2598518,E,7.14,270.29,210521,0.0,E,D,V*7B
$GPGGA,063102.004,2218.0851045,N,11411.2598518,E,2,17,1.0,22.274,M,-2.133,M,0.0,0000*51
$GPESA,063102.004,+3.033,+2.057,+0.280,+0.000,+0.000,+0.000*79
$GPESD,063102.004,0.000,0.000,0.000,0.000,0.000,0.000,0.000,0.000,0.000*77
$GPRMC,063103.004,A,2218.0883379,N,11411.2641923,E,7.49,272.58,210521,0.0,E,D,V*76
$GPGGA,063103.004,2218.0883379,N,11411.2641923,E,2,17,1.0,10.400,M,-2.133,M,0.0,0000*54
$GPESA,063103.004,+3.505,+1.584,+0.191,+0.000,+0.000,+0.000*73
$GPESD,063103.004,0.000,0.000,0.000,0.000,0.000,0.000,0.000,0.000,0.000*76
$GPRMC,063104.004,A,2218.0875490,N,11411.2659769,E,9.50,273.45,210521,0.0,E,D,V*7A
$GPGGA,063104.004,2218.0875490,N,11411.2659769,E,2,19,1.0,6.189,M,-2.133,M,0.0,0000*6E
$GPESA,063104.004,+4.560,+1.750,+0.206,+0.000,+0.000,+0.000*76
$GPESD,063104.004,0.000,0.000,0.000,0.000,0.000,0.000,0.000,0.000,0.000*71
$GPRMC,063105.004,A,2218.0889585,N,11411.2694825,E,10.83,271.67,210521,0.0,E,D,V*4F
$GPGGA,063105.004,2218.0889585,N,11411.2694825,E,2,19,1.0,7.649,M,-2.133,M,0.0,0000*65
$GPESA,063105.004,+5.221,+1.941,+0.024,+0.000,+0.000,+0.000*78
$GPESD,063105.004,0.000,0.000,0.000,0.000,0.000,0.000,0.000,0.000,0.000*70
$GPRMC,063106.004,A,2218.0901315,N,11411.2730287,E,11.75,272.57,210521,0.0,E,D,V*47
$GPGGA,063106.004,2218.0901315,N,11411.2730287,E,2,18,1.0,7.632,M,-2.133,M,0.0,0000*68
$GPESA,063106.004,+5.522,+2.437,+0.277,+0.000,+0.000,+0.000*74
$GPESD,063106.004,0.000,0.000,0.000,0.000,0.000,0.000,0.000,0.000,0.000*73
$GPRMC,063107.004,A,2218.0916466,N,11411.2761160,E,13.19,267.13,210521,0.0,E,D,V*41
$GPGGA,063107.004,2218.0916466,N,11411.2761160,E,2,17,1.0,7.153,M,-2.133,M,0.0,0000*6D
$GPESA,063107.004,+6.087,+2.990,-0.271,+0.000,+0.000,+0.000*7C
$GPESD,063107.004,0.000,0.000,0.000,0.000,0.000,0.000,0.000,0.000,0.000*72
$GPRMC,063108.004,A,2218.0934765,N,11411.2787594,E,12.88,270.65,210521,0.0,E,D,V*47
$GPGGA,063108.004,2218.0934765,N,11411.2787594,E,2,21,1.0,7.240,M,-2.132,M,0.0,0000*60
$GPESA,063108.004,+5.738,+3.298,+0.351,+0.000,+0.000,+0.000*74
$GPESD,063108.004,0.000,0.000,0.000,0.000,0.000,0.000,0.000,0.000,0.000*7D
$GPRMC,063109.004,A,2218.0958386,N,11411.2818564,E,12.24,266.48,210521,0.0,E,D,V*4D
$GPGGA,063109.004,2218.0958386,N,11411.2818564,E,2,19,1.0,7.755,M,-2.132,M,0.0,0000*6E
$GPESA,063109.004,+5.497,+3.067,-0.194,+0.000,+0.000,+0.000*7C
$GPESD,063109.004,0.000,0.000,0.000,0.000,0.000,0.000,0.000,0.000,0.000*7C
$GPRMC,063110.004,A,2218.0980973,N,11411.2850644,E,11.79,265.77,210521,0.0,E,D,V*49
$GPGGA,063110.004,2218.0980973,N,11411.2850644,E,2,21,1.0,8.210,M,-2.132,M,0.0,0000*6E
$GPESA,063110.004,+4.985,+3.450,-0.024,+0.000,+0.000,+0.000*71
$GPESD,063110.004,0.000,0.000,0.000,0.000,0.000,0.000,0.000,0.000,0.000*74
$GPRMC,063111.004,A,2218.1001203,N,11411.2874188,E,10.96,266.17,210521,0.0,E,D,V*41
$GPGGA,063111.004,2218.1001203,N,11411.2874188,E,2,20,1.0,8.066,M,-2.132,M,0.0,0000*61
$GPESA,063111.004,+4.404,+3.517,+0.181,+0.000,+0.000,+0.000*7E
$GPESD,063111.004,0.000,0.000,0.000,0.000,0.000,0.000,0.000,0.000,0.000*75
$GPRMC,063112.004,A,2218.1017864,N,11411.2924589,E,10.06,263.50,210521,0.0,E,D,V*40
$GPGGA,063112.004,2218.1017864,N,11411.2924589,E,2,20,1.0,14.519,M,-2.132,M,0.0,0000*5F
$GPESA,063112.004,+3.955,+3.341,-0.028,+0.000,+0.000,+0.000*72
$GPESD,063112.004,0.000,0.000,0.000,0.000,0.000,0.000,0.000,0.000,0.000*76
$GPRMC,063113.004,A,2218.1047777,N,11411.2941976,E,8.74,263.22,210521,0.0,E,D,V*7F
$GPGGA,063113.004,2218.1047777,N,11411.2941976,E,2,21,1.0,16.889,M,-2.132,M,0.0,0000*5E
$GPESA,063113.004,+3.353,+2.996,+0.007,+0.000,+0.000,+0.000*75
$GPESD,063113.004,0.000,0.000,0.000,0.000,0.000,0.000,0.000,0.000,0.000*77
$GPRMC,063114.004,A,2218.1076447,N,11411.2967597,E,6.99,256.58,210521,0.0,E,D,V*7B
$GPGGA,063114.004,2218.1076447,N,11411.2967597,E,2,21,1.0,23.125,M,-2.132,M,0.0,0000*55
$GPESA,063114.004,+2.390,+2.677,-0.245,+0.000,+0.000,+0.000*7E
$GPESD,063114.004,0.000,0.000,0.000,0.000,0.000,0.000,0.000,0.000,0.000*70
$GPRMC,063115.004,A,2218.1075960,N,11411.2967920,E,4.80,265.78,210521,0.0,E,D,V*79
$GPGGA,063115.004,2218.1075960,N,11411.2967920,E,2,21,1.0,16.669,M,-2.132,M,0.0,0000*56
$GPESA,063115.004,+1.858,+1.625,+0.108,+0.000,+0.000,+0.000*7B
$GPESD,063115.004,0.000,0.000,0.000,0.000,0.000,0.000,0.000,0.000,0.000*71
$GPRMC,063116.004,A,2218.1074540,N,11411.2970093,E,2.50,247.22,210521,0.0,E,D,V*76
$GPGGA,063116.004,2218.1074540,N,11411.2970093,E,2,22,1.0,12.520,M,-2.132,M,0.0,0000*54
$GPESA,063116.004,+0.950,+0.761,-0.410,+0.000,+0.000,+0.000*7A
$GPESD,063116.004,0.000,0.000,0.000,0.000,0.000,0.000,0.000,0.000,0.000*72
$GPRMC,063117.004,A,2218.1076640,N,11411.2974055,E,0.92,254.03,210521,0.0,E,D,V*75
$GPGGA,063117.004,2218.1076640,N,11411.2974055,E,2,21,1.0,11.277,M,-2.132,M,0.0,0000*5F
$GPESA,063117.004,+0.357,+0.295,+0.100,+0.000,+0.000,+0.000*7A
$GPESD,063117.004,0.000,0.000,0.000,0.000,0.000,0.000,0.000,0.000,0.000*73
$GPRMC,063118.004,A,2218.1070276,N,11411.2965055,E,0.11,129.45,210521,0.0,E,D,V*7D
$GPGGA,063118.004,2218.1070276,N,11411.2965055,E,2,20,1.0,7.597,M,-2.132,M,0.0,0000*68
$GPESA,063118.004,+0.054,+0.006,+0.015,+0.000,+0.000,+0.000*78
$GPESD,063118.004,0.000,0.000,0.000,0.000,0.000,0.000,0.000,0.000,0.000*7C
$GPRMC,063119.004,A,2218.1070594,N,11411.2964037,E,0.09,153.25,210521,0.0,E,D,V*70
$GPGGA,063119.004,2218.1070594,N,11411.2964037,E,2,20,1.0,7.644,M,-2.132,M,0.0,0000*6A
$GPESA,063119.004,+0.004,+0.033,+0.034,+0.000,+0.000,+0.000*79
$GPESD,063119.004,0.000,0.000,0.000,0.000,0.000,0.000,0.000,0.000,0.000*7D
$GPRMC,063120.004,A,2218.1069021,N,11411.2960746,E,0.14,169.08,210521,0.0,E,D,V*76
$GPGGA,063120.004,2218.1069021,N,11411.2960746,E,2,19,1.0,6.425,M,-2.132,M,0.0,0000*68
$GPESA,063120.004,+0.011,-0.044,-0.053,+0.000,+0.000,+0.000*76
$GPESD,063120.004,0.000,0.000,0.000,0.000,0.000,0.000,0.000,0.000,0.000*77
$GPRMC,063121.004,A,2218.1069681,N,11411.2969248,E,0.14,131.34,210521,0.0,E,D,V*7B
$GPGGA,063121.004,2218.1069681,N,11411.2969248,E,2,19,1.0,8.447,M,-2.132,M,0.0,0000*6D
$GPESA,063121.004,-0.030,+0.059,+0.023,+0.000,+0.000,+0.000*79
$GPESD,063121.004,0.000,0.000,0.000,0.000,0.000,0.000,0.000,0.000,0.000*76
$GPRMC,063122.004,A,2218.1069465,N,11411.2962904,E,0.43,131.34,210521,0.0,E,D,V*7A
$GPGGA,063122.004,2218.1069465,N,11411.2962904,E,2,19,1.0,7.130,M,-2.132,M,0.0,0000*64
$GPESA,063122.004,+0.079,-0.108,-0.177,+0.000,+0.000,+0.000*74
$GPESD,063122.004,0.000,0.000,0.000,0.000,0.000,0.000,0.000,0.000,0.000*75
$GPRMC,063123.004,A,2218.1070120,N,11411.2964965,E,0.27,131.37,210521,0.0,E,D,V*77
$GPGGA,063123.004,2218.1070120,N,11411.2964965,E,2,19,1.0,7.687,M,-2.132,M,0.0,0000*63
$GPESA,063123.004,+0.058,-0.048,+0.118,+0.000,+0.000,+0.000*7C
$GPESD,063123.004,0.000,0.000,0.000,0.000,0.000,0.000,0.000,0.000,0.000*74
$GPRMC,063124.004,A,2218.1070167,N,11411.2966141,E,0.10,131.25,210521,0.0,E,D,V*78
$GPGGA,063124.004,2218.1070167,N,11411.2966141,E,2,20,1.0,7.805,M,-2.132,M,0.0,0000*65
$GPESA,063124.004,+0.017,-0.007,+0.048,+0.000,+0.000,+0.000*7F
$GPESD,063124.004,0.000,0.000,0.000,0.000,0.000,0.000,0.000,0.000,0.000*73
$GPRMC,063125.004,A,2218.1070617,N,11411.2964888,E,0.04,340.62,210521,0.0,E,D,V*75
$GPGGA,063125.004,2218.1070617,N,11411.2964888,E,2,20,1.0,7.681,M,-2.132,M,0.0,0000*68
$GPESA,063125.004,-0.003,+0.013,-0.014,+0.000,+0.000,+0.000*71
$GPESD,063125.004,0.000,0.000,0.000,0.000,0.000,0.000,0.000,0.000,0.000*72
$GPRMC,063126.004,A,2218.1070733,N,11411.2963013,E,0.10,341.04,210521,0.0,E,D,V*78
$GPGGA,063126.004,2218.1070733,N,11411.2963013,E,2,20,1.0,7.197,M,-2.132,M,0.0,0000*61
$GPESA,063126.004,+0.027,+0.003,-0.041,+0.000,+0.000,+0.000*73
$GPESD,063126.004,0.000,0.000,0.000,0.000,0.000,0.000,0.000,0.000,0.000*71
$GPRMC,063127.004,A,2218.1071613,N,11411.2965405,E,0.15,340.77,210521,0.0,E,D,V*7E
$GPGGA,063127.004,2218.1071613,N,11411.2965405,E,2,21,1.0,7.799,M,-2.132,M,0.0,0000*6E
$GPESA,063127.004,-0.053,-0.050,-0.023,+0.000,+0.000,+0.000*73
$GPESD,063127.004,0.000,0.000,0.000,0.000,0.000,0.000,0.000,0.000,0.000*70
$GPRMC,063128.004,A,2218.1071463,N,11411.2960536,E,0.03,128.53,210521,0.0,E,D,V*7D
$GPGGA,063128.004,2218.1071463,N,11411.2960536,E,2,22,1.0,6.766,M,-2.132,M,0.0,0000*62
$GPESA,063128.004,-0.014,+0.002,-0.009,+0.000,+0.000,+0.000*76
$GPESD,063128.004,0.000,0.000,0.000,0.000,0.000,0.000,0.000,0.000,0.000*7F
$GPRMC,063129.004,A,2218.1072293,N,11411.2966854,E,0.16,128.62,210521,0.0,E,D,V*7F
$GPGGA,063129.004,2218.1072293,N,11411.2966854,E,2,22,1.0,7.872,M,-2.132,M,0.0,0000*6D
$GPESA,063129.004,+0.070,-0.006,+0.045,+0.000,+0.000,+0.000*7F
$GPESD,063129.004,0.000,0.000,0.000,0.000,0.000,0.000,0.000,0.000,0.000*7E
$GPRMC,063130.004,A,2218.1087205,N,11411.2983347,E,0.22,128.64,210521,0.0,E,D,V*71
$GPGGA,063130.004,2218.1087205,N,11411.2983347,E,2,22,1.0,16.826,M,-2.132,M,0.0,0000*53
$GPESA,063130.004,+0.051,+0.066,+0.076,+0.000,+0.000,+0.000*74
$GPESD,063130.004,0.000,0.000,0.000,0.000,0.000,0.000,0.000,0.000,0.000*76
$GPRMC,063131.004,A,2218.1072777,N,11411.2973097,E,0.18,128.64,210521,0.0,E,D,V*72
$GPGGA,063131.004,2218.1072777,N,11411.2973097,E,2,22,1.0,9.001,M,-2.132,M,0.0,0000*6A
$GPESA,063131.004,-0.012,-0.076,-0.052,+0.000,+0.000,+0.000*73
$GPESD,063131.004,0.000,0.000,0.000,0.000,0.000,0.000,0.000,0.000,0.000*77
$GPRMC,063132.004,A,2218.1072523,N,11411.2973440,E,0.37,128.66,210521,0.0,E,D,V*73
$GPGGA,063132.004,2218.1072523,N,11411.2973440,E,2,22,1.0,8.981,M,-2.132,M,0.0,0000*64
$GPESA,063132.004,-0.002,+0.096,+0.167,+0.000,+0.000,+0.000*78
$GPESD,063132.004,0.000,0.000,0.000,0.000,0.000,0.000,0.000,0.000,0.000*74
$GPRMC,063133.004,A,2218.1072263,N,11411.2967751,E,0.23,128.61,210521,0.0,E,D,V*75
$GPGGA,063133.004,2218.1072263,N,11411.2967751,E,2,22,1.0,7.553,M,-2.132,M,0.0,0000*6C
$GPESA,063133.004,+0.024,-0.011,-0.114,+0.000,+0.000,+0.000*70
$GPESD,063133.004,0.000,0.000,0.000,0.000,0.000,0.000,0.000,0.000,0.000*75
$GPRMC,063134.004,A,2218.1072811,N,11411.2965227,E,0.08,128.63,210521,0.0,E,D,V*70
$GPGGA,063134.004,2218.1072811,N,11411.2965227,E,2,22,1.0,6.918,M,-2.132,M,0.0,0000*60
$GPESA,063134.004,+0.015,+0.005,-0.037,+0.000,+0.000,+0.000*76
$GPESD,063134.004,0.000,0.000,0.000,0.000,0.000,0.000,0.000,0.000,0.000*72
$GPRMC,063135.004,A,2218.1072003,N,11411.2969222,E,0.11,128.61,210521,0.0,E,D,V*79
$GPGGA,063135.004,2218.1072003,N,11411.2969222,E,2,22,1.0,7.518,M,-2.132,M,0.0,0000*6E
$GPESA,063135.004,-0.004,+0.040,-0.040,+0.000,+0.000,+0.000*70
$GPESD,063135.004,0.000,0.000,0.000,0.000,0.000,0.000,0.000,0.000,0.000*73
$GPRMC,063136.004,A,2218.1071222,N,11411.2970680,E,0.16,128.61,210521,0.0,E,D,V*7B
$GPGGA,063136.004,2218.1071222,N,11411.2970680,E,2,22,1.0,7.393,M,-2.132,M,0.0,0000*6E
$GPESA,063136.004,+0.035,+0.011,-0.075,+0.000,+0.000,+0.000*75
$GPESD,063136.004,0.000,0.000,0.000,0.000,0.000,0.000,0.000,0.000,0.000*70
$GPRMC,063137.004,A,2218.1070937,N,11411.2968813,E,0.14,128.62,210521,0.0,E,D,V*78
$GPGGA,063137.004,2218.1070937,N,11411.2968813,E,2,22,1.0,6.972,M,-2.132,M,0.0,0000*68
$GPESA,063137.004,+0.045,-0.008,-0.057,+0.000,+0.000,+0.000*7D
$GPESD,063137.004,0.000,0.000,0.000,0.000,0.000,0.000,0.000,0.000,0.000*71
$GPRMC,063138.004,A,2218.1071434,N,11411.2970664,E,0.26,128.61,210521,0.0,E,D,V*7D
$GPGGA,063138.004,2218.1071434,N,11411.2970664,E,2,22,1.0,7.364,M,-2.132,M,0.0,0000*63
$GPESA,063138.004,-0.018,+0.042,+0.127,+0.000,+0.000,+0.000*74
$GPESD,063138.004,0.000,0.000,0.000,0.000,0.000,0.000,0.000,0.000,0.000*7E
$GPRMC,063139.004,A,2218.1071466,N,11411.2971977,E,0.16,128.59,210521,0.0,E,D,V*7F
$GPGGA,063139.004,2218.1071466,N,11411.2971977,E,2,23,1.0,7.563,M,-2.132,M,0.0,0000*69
$GPESA,063139.004,-0.072,+0.040,+0.000,+0.000,+0.000,+0.000*7F
$GPESD,063139.004,0.000,0.000,0.000,0.000,0.000,0.000,0.000,0.000,0.000*7F
$GPRMC,063140.004,A,2218.1072033,N,11411.2972313,E,0.25,144.65,210521,0.0,E,D,V*78
$GPGGA,063140.004,2218.1072033,N,11411.2972313,E,2,23,1.0,7.599,M,-2.132,M,0.0,0000*6E
$GPESA,063140.004,+0.016,+0.057,-0.114,+0.000,+0.000,+0.000*71
$GPESD,063140.004,0.000,0.000,0.000,0.000,0.000,0.000,0.000,0.000,0.000*71
$GPRMC,063141.004,A,2218.1070833,N,11411.2972795,E,0.32,144.71,210521,0.0,E,D,V*7A
$GPGGA,063141.004,2218.1070833,N,11411.2972795,E,2,23,1.0,7.533,M,-2.132,M,0.0,0000*6F
$GPESA,063141.004,-0.016,+0.001,-0.164,+0.000,+0.000,+0.000*72
$GPESD,063141.004,0.000,0.000,0.000,0.000,0.000,0.000,0.000,0.000,0.000*70
$GPRMC,063142.004,A,2218.1069840,N,11411.2973676,E,0.11,169.49,210521,0.0,E,D,V*7D
$GPGGA,063142.004,2218.1069840,N,11411.2973676,E,2,23,1.0,7.590,M,-2.132,M,0.0,0000*64
$GPESA,063142.004,+0.005,-0.051,+0.022,+0.000,+0.000,+0.000*73
$GPESD,063142.004,0.000,0.000,0.000,0.000,0.000,0.000,0.000,0.000,0.000*73
$GPRMC,063143.004,A,2218.1069840,N,11411.2973885,E,0.12,169.46,210521,0.0,E,D,V*72
$GPGGA,063143.004,2218.1069840,N,11411.2973885,E,2,23,1.0,7.687,M,-2.132,M,0.0,0000*62
$GPESA,063143.004,-0.056,+0.012,+0.030,+0.000,+0.000,+0.000*70
$GPESD,063143.004,0.000,0.000,0.000,0.000,0.000,0.000,0.000,0.000,0.000*72
$GPRMC,063144.004,A,2218.1075253,N,11411.2974389,E,0.18,174.23,210521,0.0,E,D,V*75
$GPGGA,063144.004,2218.1075253,N,11411.2974389,E,2,24,1.0,10.210,M,-2.132,M,0.0,0000*5B
$GPESA,063144.004,+0.003,-0.064,-0.064,+0.000,+0.000,+0.000*71
$GPESD,063144.004,0.000,0.000,0.000,0.000,0.000,0.000,0.000,0.000,0.000*75
$GPRMC,063145.004,A,2218.1075813,N,11411.2973935,E,0.51,174.23,210521,0.0,E,D,V*7D
$GPGGA,063145.004,2218.1075813,N,11411.2973935,E,2,23,1.0,10.733,M,-2.132,M,0.0,0000*5D
$GPESA,063145.004,+0.157,+0.094,-0.187,+0.000,+0.000,+0.000*75
$GPESD,063145.004,0.000,0.000,0.000,0.000,0.000,0.000,0.000,0.000,0.000*74
$GPRMC,063146.004,A,2218.1069734,N,11411.2975915,E,0.96,169.42,210521,0.0,E,D,V*7D
$GPGGA,063146.004,2218.1069734,N,11411.2975915,E,2,22,1.0,7.757,M,-2.132,M,0.0,0000*68
$GPESA,063146.004,+0.247,+0.376,+0.200,+0.000,+0.000,+0.000*71
$GPESD,063146.004,0.000,0.000,0.000,0.000,0.000,0.000,0.000,0.000,0.000*77
$GPRMC,063147.004,A,2218.1073501,N,11411.2980310,E,3.65,268.03,210521,0.0,E,D,V*7E
$GPGGA,063147.004,2218.1073501,N,11411.2980310,E,2,22,1.0,7.478,M,-2.132,M,0.0,0000*6D
$GPESA,063147.004,+1.417,+1.224,+0.153,+0.000,+0.000,+0.000*70
$GPESD,063147.004,0.000,0.000,0.000,0.000,0.000,0.000,0.000,0.000,0.000*76
$GPRMC,063148.004,A,2218.1081993,N,11411.2989031,E,5.74,257.19,210521,0.0,E,D,V*73
$GPGGA,063148.004,2218.1081993,N,11411.2989031,E,2,22,1.0,6.755,M,-2.132,M,0.0,0000*6C
$GPESA,063148.004,+2.010,+2.153,-0.200,+0.000,+0.000,+0.000*7C
$GPESD,063148.004,0.000,0.000,0.000,0.000,0.000,0.000,0.000,0.000,0.000*79
$GPRMC,063149.004,A,2218.1105978,N,11411.3004817,E,7.80,261.88,210521,0.0,E,D,V*7F
$GPGGA,063149.004,2218.1105978,N,11411.3004817,E,2,22,1.0,11.866,M,-2.132,M,0.0,0000*5D
$GPESA,063149.004,+2.694,+2.970,+0.092,+0.000,+0.000,+0.000*71
$GPESD,063149.004,0.000,0.000,0.000,0.000,0.000,0.000,0.000,0.000,0.000*78
$GPRMC,063150.004,A,2218.1143145,N,11411.3043854,E,9.00,254.74,210521,0.0,E,D,V*74
$GPGGA,063150.004,2218.1143145,N,11411.3043854,E,2,20,1.0,23.028,M,-2.132,M,0.0,0000*54
$GPESA,063150.004,+3.014,+3.488,-0.434,+0.000,+0.000,+0.000*73
$GPESD,063150.004,0.000,0.000,0.000,0.000,0.000,0.000,0.000,0.000,0.000*70
$GPRMC,063151.004,A,2218.1144734,N,11411.3040910,E,10.49,255.28,210521,0.0,E,D,V*4D
$GPGGA,063151.004,2218.1144734,N,11411.3040910,E,2,22,1.0,10.084,M,-2.132,M,0.0,0000*54
$GPESA,063151.004,+3.239,+4.307,-0.273,+0.000,+0.000,+0.000*7D
$GPESD,063151.004,0.000,0.000,0.000,0.000,0.000,0.000,0.000,0.000,0.000*71
$GPRMC,063152.004,A,2218.1166790,N,11411.3056205,E,11.81,255.15,210521,0.0,E,D,V*43
$GPGGA,063152.004,2218.1166790,N,11411.3056205,E,2,21,1.0,7.989,M,-2.132,M,0.0,0000*60
$GPESA,063152.004,+3.412,+5.023,-0.176,+0.000,+0.000,+0.000*73
$GPESD,063152.004,0.000,0.000,0.000,0.000,0.000,0.000,0.000,0.000,0.000*72
$GPRMC,063153.004,A,2218.1196347,N,11411.3073981,E,12.94,255.37,210521,0.0,E,D,V*44
$GPGGA,063153.004,2218.1196347,N,11411.3073981,E,2,21,1.0,7.680,M,-2.132,M,0.0,0000*66
$GPESA,063153.004,+3.172,+5.850,+0.163,+0.000,+0.000,+0.000*7F
$GPESD,063153.004,0.000,0.000,0.000,0.000,0.000,0.000,0.000,0.000,0.000*73
$GPRMC,063154.004,A,2218.1232794,N,11411.3089358,E,13.18,251.09,210521,0.0,E,D,V*43
$GPGGA,063154.004,2218.1232794,N,11411.3089358,E,2,21,1.0,9.618,M,-2.132,M,0.0,0000*62
$GPESA,063154.004,+2.910,+6.121,-0.110,+0.000,+0.000,+0.000*7B
$GPESD,063154.004,0.000,0.000,0.000,0.000,0.000,0.000,0.000,0.000,0.000*74
$GPRMC,063155.004,A,2218.1258535,N,11411.3108580,E,13.36,250.10,210521,0.0,E,D,V*49
$GPGGA,063155.004,2218.1258535,N,11411.3108580,E,2,21,1.0,6.489,M,-2.131,M,0.0,0000*6B
$GPESA,063155.004,+2.580,+6.371,+0.008,+0.000,+0.000,+0.000*76
$GPESD,063155.004,0.000,0.000,0.000,0.000,0.000,0.000,0.000,0.000,0.000*75
$GPRMC,063156.004,A,2218.1299734,N,11411.3119183,E,12.91,246.09,210521,0.0,E,D,V*40
$GPGGA,063156.004,2218.1299734,N,11411.3119183,E,2,21,1.0,8.738,M,-2.132,M,0.0,0000*65
$GPESA,063156.004,+2.141,+6.284,-0.178,+0.000,+0.000,+0.000*77
$GPESD,063156.004,0.000,0.000,0.000,0.000,0.000,0.000,0.000,0.000,0.000*76
$GPRMC,063157.004,A,2218.1326317,N,11411.3124140,E,12.17,243.06,210521,0.0,E,D,V*44
