$GPRMC,062845.004,A,2218.0936629,N,11411.4180186,E,0.24,0.00,210521,0.0,E,R,V*68
$GPGGA,062845.004,2218.0936629,N,11411.4180186,E,5,26,1.0,6.406,M,-2.124,M,0.0,0000*68
$GPESA,062845.004,+0.069,+0.031,+0.094,+0.000,+0.000,+0.000*7B
$GPESD,062845.004,0.562,0.534,1.024,0.109,0.094,0.242,0.000,0.000,0.000*79
$GPRMC,062846.004,A,2218.0937334,N,11411.4179957,E,0.19,267.60,210521,0.0,E,R,V*6A
$GPGGA,062846.004,2218.0937334,N,11411.4179957,E,5,26,1.0,6.770,M,-2.124,M,0.0,0000*63
$GPESA,062846.004,-0.023,-0.072,+0.064,+0.000,+0.000,+0.000*7E
$GPESD,062846.004,0.399,0.378,0.722,0.108,0.092,0.177,0.000,0.000,0.000*74
$GPRMC,062847.004,A,2218.0937868,N,11411.4179507,E,0.05,261.33,210521,0.0,E,R,V*6D
$GPGGA,062847.004,2218.0937868,N,11411.4179507,E,5,26,1.0,6.943,M,-2.124,M,0.0,0000*67
$GPESA,062847.004,-0.024,+0.003,-0.014,+0.000,+0.000,+0.000*79
$GPESD,062847.004,0.327,0.311,0.595,0.109,0.091,0.149,0.000,0.000,0.000*7E
$GPRMC,062848.004,A,2218.0937856,N,11411.4179546,E,0.17,261.33,210521,0.0,E,R,V*69
$GPGGA,062848.004,2218.0937856,N,11411.4179546,E,5,26,1.0,6.864,M,-2.124,M,0.0,0000*64
$GPESA,062848.004,+0.047,-0.003,-0.076,+0.000,+0.000,+0.000*77
$GPESD,062848.004,0.284,0.271,0.521,0.109,0.091,0.133,0.000,0.000,0.000*7C
$GPRMC,062849.004,A,2218.0938089,N,11411.4179162,E,0.33,261.18,210521,0.0,E,R,V*60
$GPGGA,062849.004,2218.0938089,N,11411.4179162,E,5,26,1.0,6.902,M,-2.124,M,0.0,0000*63
$GPESA,062849.004,-0.150,+0.051,-0.053,+0.000,+0.000,+0.000*71
$GPESD,062849.004,0.255,0.243,0.469,0.109,0.091,0.123,0.000,0.000,0.000*7C
$GPRMC,062850.004,A,2218.0938408,N,11411.4177228,E,1.09,267.62,210521,0.0,E,R,V*65
$GPGGA,062850.004,2218.0938408,N,11411.4177228,E,5,26,1.0,6.875,M,-2.124,M,0.0,0000*64
$GPESA,062850.004,-0.552,+0.110,-0.012,+0.000,+0.000,+0.000*7E
$GPESD,062850.004,0.233,0.223,0.429,0.108,0.091,0.115,0.000,0.000,0.000*72
$GPRMC,062851.004,A,2218.0938715,N,11411.4173032,E,1.68,244.41,210521,0.0,E,R,V*61
$GPGGA,062851.004,2218.0938715,N,11411.4173032,E,5,26,1.0,6.872,M,-2.124,M,0.0,0000*60
$GPESA,062851.004,-0.858,+0.012,-0.109,+0.000,+0.000,+0.000*70
$GPESD,062851.004,0.214,0.206,0.398,0.109,0.090,0.109,0.000,0.000,0.000*71
$GPRMC,062852.004,A,2218.0938981,N,11411.4166785,E,2.47,107.48,210521,0.0,E,R,V*6D
$GPGGA,062852.004,2218.0938981,N,11411.4166785,E,5,26,1.0,6.863,M,-2.124,M,0.0,0000*6F
$GPESA,062852.004,-1.260,+0.094,-0.131,+0.000,+0.000,+0.000*76
$GPESD,062852.004,0.199,0.193,0.372,0.109,0.090,0.105,0.000,0.000,0.000*73
$GPRMC,062853.004,A,2218.0940882,N,11411.4159296,E,2.84,121.09,210521,0.0,E,R,V*64
$GPGGA,062853.004,2218.0940882,N,11411.4159296,E,5,26,1.0,6.824,M,-2.124,M,0.0,0000*6B
$GPESA,062853.004,-1.269,+0.719,-0.080,+0.000,+0.000,+0.000*77
$GPESD,062853.004,0.188,0.182,0.352,0.109,0.091,0.102,0.000,0.000,0.000*76
$GPRMC,062854.004,A,2218.0946186,N,11411.4153254,E,2.91,159.44,210521,0.0,E,R,V*6E
$GPGGA,062854.004,2218.0946186,N,11411.4153254,E,5,26,1.0,6.856,M,-2.124,M,0.0,0000*66
$GPESA,062854.004,-0.838,+1.233,-0.146,+0.000,+0.000,+0.000*78
$GPESD,062854.004,0.178,0.173,0.334,0.109,0.092,0.099,0.000,0.000,0.000*70
$GPRMC,062855.004,A,2218.0953179,N,11411.4148906,E,2.94,172.41,210521,0.0,E,R,V*64
$GPGGA,062855.004,2218.0953179,N,11411.4148906,E,5,26,1.0,6.816,M,-2.124,M,0.0,0000*61
$GPESA,062855.004,-0.692,+1.343,-0.039,+0.000,+0.000,+0.000*78
$GPESD,062855.004,0.170,0.165,0.319,0.108,0.091,0.099,0.000,0.000,0.000*73
$GPRMC,062856.004,A,2218.0961672,N,11411.4143216,E,3.17,169.74,210521,0.0,E,R,V*6D
$GPGGA,062856.004,2218.0961672,N,11411.4143216,E,5,26,1.0,7.034,M,-2.124,M,0.0,0000*67
$GPESA,062856.004,-0.786,+1.425,-0.127,+0.000,+0.000,+0.000*76
$GPESD,062856.004,0.546,0.522,0.964,0.108,0.090,0.095,0.000,0.000,0.000*7B
$GPRMC,062857.004,A,2218.0969957,N,11411.4139259,E,3.42,167.95,210521,0.0,E,R,V*6B
$GPGGA,062857.004,2218.0969957,N,11411.4139259,E,5,27,1.0,7.169,M,-2.125,M,0.0,0000*69
$GPESA,062857.004,-0.850,+1.540,-0.013,+0.000,+0.000,+0.000*77
$GPESD,062857.004,0.396,0.364,0.671,0.099,0.093,0.092,0.000,0.000,0.000*73
$GPRMC,062858.004,A,2218.0979241,N,11411.4134537,E,4.57,180.27,210521,0.0,E,R,V*68
$GPGGA,062858.004,2218.0979241,N,11411.4134537,E,5,27,1.0,7.227,M,-2.125,M,0.0,0000*60
$GPESA,062858.004,-0.959,+2.146,-0.113,+0.000,+0.000,+0.000*70
$GPESD,062858.004,0.327,0.297,0.548,0.101,0.090,0.090,0.000,0.000,0.000*73
$GPRMC,062859.004,A,2218.0991688,N,11411.4127974,E,5.94,178.08,210521,0.0,E,R,V*63
$GPGGA,062859.004,2218.0991688,N,11411.4127974,E,5,27,1.0,7.106,M,-2.125,M,0.0,0000*6F
$GPESA,062859.004,-1.290,+2.771,-0.071,+0.000,+0.000,+0.000*79
$GPESD,062859.004,0.285,0.259,0.478,0.106,0.090,0.089,0.000,0.000,0.000*74
$GPRMC,062900.004,A,2218.1008348,N,11411.4119779,E,7.41,182.49,210521,0.0,E,R,V*6B
$GPGGA,062900.004,2218.1008348,N,11411.4119779,E,5,27,1.0,7.094,M,-2.125,M,0.0,0000*67
$GPESA,062900.004,-1.499,+3.505,-0.144,+0.000,+0.000,+0.000*7C
$GPESD,062900.004,0.259,0.231,0.430,0.116,0.091,0.089,0.000,0.000,0.000*7A
$GPRMC,062901.004,A,2218.1028354,N,11411.4110272,E,8.52,177.82,210521,0.0,E,R,V*62
$GPGGA,062901.004,2218.1028354,N,11411.4110272,E,5,27,1.0,7.016,M,-2.125,M,0.0,0000*64
$GPESA,062901.004,-1.855,+3.967,-0.099,+0.000,+0.000,+0.000*78
$GPESD,062901.004,0.241,0.212,0.398,0.121,0.091,0.089,0.000,0.000,0.000*72
$GPRMC,062902.004,A,2218.1051071,N,11411.4099388,E,9.51,183.94,210521,0.0,E,R,V*61
$GPGGA,062902.004,2218.1051071,N,11411.4099388,E,5,27,1.0,6.987,M,-2.125,M,0.0,0000*69
$GPESA,062902.004,-1.877,+4.514,-0.160,+0.000,+0.000,+0.000*73
$GPESD,062902.004,0.226,0.196,0.371,0.128,0.091,0.088,0.000,0.000,0.000*70
$GPRMC,062903.004,A,2218.1076506,N,11411.4087251,E,10.56,182.21,210521,0.0,E,R,V*5A
$GPGGA,062903.004,2218.1076506,N,11411.4087251,E,5,26,1.0,7.024,M,-2.125,M,0.0,0000*62
$GPESA,062903.004,-2.147,+4.988,-0.148,+0.000,+0.000,+0.000*78
$GPESD,062903.004,0.212,0.183,0.349,0.114,0.090,0.086,0.000,0.000,0.000*79
$GPRMC,062904.004,A,2218.1104647,N,11411.4073382,E,11.63,179.82,210521,0.0,E,R,V*51
$GPGGA,062904.004,2218.1104647,N,11411.4073382,E,5,26,1.0,7.016,M,-2.125,M,0.0,0000*62
$GPESA,062904.004,-2.457,+5.450,-0.217,+0.000,+0.000,+0.000*7B
$GPESD,062904.004,0.200,0.173,0.332,0.114,0.090,0.085,0.000,0.000,0.000*7D
$GPRMC,062905.004,A,2218.1134936,N,11411.4058461,E,12.41,178.23,210521,0.0,E,R,V*50
$GPGGA,062905.004,2218.1134936,N,11411.4058461,E,5,26,1.0,7.008,M,-2.125,M,0.0,0000*65
$GPESA,062905.004,-2.686,+5.789,-0.111,+0.000,+0.000,+0.000*76
$GPESD,062905.004,0.190,0.164,0.316,0.111,0.092,0.084,0.000,0.000,0.000*70
$GPRMC,062906.004,A,2218.1166706,N,11411.4042650,E,12.66,178.52,210521,0.0,E,R,V*51
$GPGGA,062906.004,2218.1166706,N,11411.4042650,E,5,26,1.0,6.995,M,-2.126,M,0.0,0000*68
$GPESA,062906.004,-2.731,+5.910,-0.246,+0.000,+0.000,+0.000*77
$GPESD,062906.004,0.183,0.156,0.303,0.133,0.093,0.086,0.000,0.000,0.000*77
$GPRMC,062907.004,A,2218.1196942,N,11411.4027945,E,12.48,179.35,210521,0.0,E,R,V*55
$GPGGA,062907.004,2218.1196942,N,11411.4027945,E,5,25,1.0,6.359,M,-2.126,M,0.0,0000*69
$GPESA,062907.004,-2.656,+5.840,-0.202,+0.000,+0.000,+0.000*72
$GPESD,062907.004,0.623,0.522,0.964,0.130,0.095,0.086,0.000,0.000,0.000*72
$GPRMC,062908.004,A,2218.1228155,N,11411.4014186,E,12.01,179.21,210521,0.0,E,R,V*5D
$GPGGA,062908.004,2218.1228155,N,11411.4014186,E,5,24,1.0,6.246,M,-2.126,M,0.0,0000*67
$GPESA,062908.004,-2.561,+5.613,-0.295,+0.000,+0.000,+0.000*7C
$GPESD,062908.004,0.385,0.373,0.779,0.125,0.098,0.085,0.000,0.000,0.000*7E
$GPRMC,062909.004,A,2218.1257963,N,11411.3998076,E,11.71,180.71,210521,0.0,E,R,V*5A
$GPGGA,062909.004,2218.1257963,N,11411.3998076,E,5,24,1.0,6.305,M,-2.126,M,0.0,0000*61
$GPESA,062909.004,-2.436,+5.500,-0.287,+0.000,+0.000,+0.000*7C
$GPESD,062909.004,0.337,0.308,0.649,0.127,0.097,0.085,0.000,0.000,0.000*75
$GPRMC,062910.004,A,2218.1286665,N,11411.3983230,E,11.25,177.15,210521,0.0,E,R,V*56
$GPGGA,062910.004,2218.1286665,N,11411.3983230,E,5,23,1.0,6.299,M,-2.126,M,0.0,0000*65
$GPESA,062910.004,-2.479,+5.218,-0.321,+0.000,+0.000,+0.000*7C
$GPESD,062910.004,0.314,0.276,0.577,0.149,0.109,0.091,0.000,0.000,0.000*71
$GPRMC,062911.004,A,2218.1314080,N,11411.3966949,E,11.23,166.68,210521,0.0,E,R,V*52
$GPGGA,062911.004,2218.1314080,N,11411.3966949,E,5,22,1.0,6.289,M,-2.127,M,0.0,0000*6C
$GPESA,062911.004,-2.887,+4.996,-0.322,+0.000,+0.000,+0.000*7F
$GPESD,062911.004,0.295,0.254,0.528,0.150,0.113,0.091,0.000,0.000,0.000*71
$GPRMC,062912.004,A,2218.1338111,N,11411.3947277,E,10.77,142.05,210521,0.0,E,R,V*5E
$GPGGA,062912.004,2218.1338111,N,11411.3947277,E,5,22,1.0,6.180,M,-2.127,M,0.0,0000*67
$GPESA,062912.004,-3.778,+4.040,-0.336,+0.000,+0.000,+0.000*75
$GPESD,062912.004,0.281,0.238,0.496,0.149,0.109,0.091,0.000,0.000,0.000*7A
$GPRMC,062913.004,A,2218.1357220,N,11411.3923945,E,10.33,128.28,210521,0.0,E,R,V*5C
$GPGGA,062913.004,2218.1357220,N,11411.3923945,E,5,21,1.0,6.045,M,-2.127,M,0.0,0000*6D
$GPESA,062913.004,-4.277,+3.132,-0.342,+0.000,+0.000,+0.000*79
$GPESD,062913.004,0.268,0.227,0.466,0.150,0.113,0.091,0.000,0.000,0.000*7E
$GPRMC,062914.004,A,2218.1369652,N,11411.3897778,E,9.48,114.59,210521,0.0,E,R,V*64
$GPGGA,062914.004,2218.1369652,N,11411.3897778,E,5,22,1.0,5.864,M,-2.127,M,0.0,0000*63
$GPESA,062914.004,-4.577,+1.652,-0.343,+0.000,+0.000,+0.000*7B
$GPESD,062914.004,0.255,0.216,0.441,0.141,0.128,0.091,0.000,0.000,0.000*78
$GPRMC,062915.004,A,2218.1375376,N,11411.3870830,E,8.87,107.73,210521,0.0,E,R,V*69
$GPGGA,062915.004,2218.1375376,N,11411.3870830,E,5,22,1.0,5.809,M,-2.127,M,0.0,0000*6D
$GPESA,062915.004,-4.521,+0.481,-0.417,+0.000,+0.000,+0.000*72
$GPESD,062915.004,0.245,0.207,0.418,0.131,0.111,0.090,0.000,0.000,0.000*78
$GPRMC,062916.004,A,2218.1374803,N,11411.3844500,E,8.65,100.50,210521,0.0,E,R,V*61
$GPGGA,062916.004,2218.1374803,N,11411.3844500,E,5,22,1.0,5.735,M,-2.127,M,0.0,0000*6F
$GPESA,062916.004,-4.398,-0.579,-0.328,+0.000,+0.000,+0.000*7E
$GPESD,062916.004,0.237,0.199,0.399,0.131,0.112,0.090,0.000,0.000,0.000*77
$GPRMC,062917.004,A,2218.1369272,N,11411.3819092,E,8.50,95.80,210521,0.0,E,R,V*50
$GPGGA,062917.004,2218.1369272,N,11411.3819092,E,5,23,1.0,5.752,M,-2.128,M,0.0,0000*67
$GPESA,062917.004,-4.051,-1.594,-0.393,+0.000,+0.000,+0.000*7B
$GPESD,062917.004,0.229,0.192,0.383,0.144,0.110,0.091,0.000,0.000,0.000*78
$GPRMC,062918.004,A,2218.1359066,N,11411.3795199,E,8.29,92.06,210521,0.0,E,R,V*5D
$GPGGA,062918.004,2218.1359066,N,11411.3795199,E,5,22,1.0,5.632,M,-2.128,M,0.0,0000*6B
$GPESA,062918.004,-3.596,-2.257,-0.403,+0.000,+0.000,+0.000*78
$GPESD,062918.004,0.097,0.094,0.321,0.146,0.114,0.091,0.000,0.000,0.000*79
$GPRMC,062919.004,A,2218.1346121,N,11411.3773266,E,8.44,92.69,210521,0.0,E,R,V*59
$GPGGA,062919.004,2218.1346121,N,11411.3773266,E,5,22,1.0,5.507,M,-2.128,M,0.0,0000*68
$GPESA,062919.004,-3.692,-2.244,-0.437,+0.000,+0.000,+0.000*7B
$GPESD,062919.004,0.088,0.081,0.276,0.151,0.111,0.089,0.000,0.000,0.000*7B
$GPRMC,062920.004,A,2218.1333305,N,11411.3751676,E,9.02,91.02,210521,0.0,E,R,V*5D
$GPGGA,062920.004,2218.1333305,N,11411.3751676,E,5,22,1.0,4.887,M,-2.128,M,0.0,0000*65
$GPESA,062920.004,-3.836,-2.581,-0.409,+0.000,+0.000,+0.000*72
$GPESD,062920.004,0.066,0.044,0.175,0.153,0.118,0.089,0.000,0.000,0.000*73
$GPRMC,062921.004,A,2218.1320126,N,11411.3731229,E,8.41,92.03,210521,0.0,E,R,V*51
$GPGGA,062921.004,2218.1320126,N,11411.3731229,E,5,22,1.0,4.578,M,-2.128,M,0.0,0000*60
$GPESA,062921.004,-3.649,-2.285,-0.405,+0.000,+0.000,+0.000*7A
$GPESD,062921.004,0.031,0.017,0.057,0.156,0.130,0.087,0.000,0.000,0.000*76
$GPRMC,062922.004,A,2218.1307451,N,11411.3711856,E,7.72,92.54,210521,0.0,E,R,V*5F
$GPGGA,062922.004,2218.1307451,N,11411.3711856,E,5,22,1.0,4.594,M,-2.128,M,0.0,0000*61
$GPESA,062922.004,-3.280,-2.193,-0.456,+0.000,+0.000,+0.000*7A
$GPESD,062922.004,0.025,0.016,0.040,0.153,0.118,0.088,0.000,0.000,0.000*77
$GPRMC,062923.004,A,2218.1295450,N,11411.3693600,E,6.87,92.21,210521,0.0,E,R,V*5A
$GPGGA,062923.004,2218.1295450,N,11411.3693600,E,4,22,1.0,4.636,M,-2.128,M,0.0,0000*67
$GPESA,062923.004,-2.879,-2.008,-0.411,+0.000,+0.000,+0.000*76
$GPESD,062923.004,0.022,0.015,0.038,0.148,0.102,0.088,0.000,0.000,0.000*7C
$GPRMC,062924.004,A,2218.1284434,N,11411.3677137,E,6.45,92.11,210521,0.0,E,R,V*5B
$GPGGA,062924.004,2218.1284434,N,11411.3677137,E,5,23,1.0,4.602,M,-2.128,M,0.0,0000*6C
$GPESA,062924.004,-2.643,-1.963,-0.418,+0.000,+0.000,+0.000*78
$GPESD,062924.004,0.019,0.015,0.041,0.127,0.105,0.084,0.000,0.000,0.000*7F
$GPRMC,062925.004,A,2218.1273149,N,11411.3661004,E,6.27,93.50,210521,0.0,E,R,V*5B
$GPGGA,062925.004,2218.1273149,N,11411.3661004,E,4,23,1.0,4.755,M,-2.128,M,0.0,0000*6E
$GPESA,062925.004,-2.552,-1.912,-0.492,+0.000,+0.000,+0.000*7E
$GPESD,062925.004,0.017,0.013,0.036,0.149,0.104,0.088,0.000,0.000,0.000*73
$GPRMC,062926.004,A,2218.1261090,N,11411.3644137,E,7.05,93.06,210521,0.0,E,R,V*5A
$GPGGA,062926.004,2218.1261090,N,11411.3644137,E,4,22,1.0,4.778,M,-2.128,M,0.0,0000*63
$GPESA,062926.004,-2.876,-2.151,-0.524,+0.000,+0.000,+0.000*76
$GPESD,062926.004,0.016,0.014,0.035,0.115,0.104,0.083,0.000,0.000,0.000*77
$GPRMC,062927.004,A,2218.1248369,N,11411.3625320,E,8.25,91.93,210521,0.0,E,R,V*55
$GPGGA,062927.004,2218.1248369,N,11411.3625320,E,4,22,1.0,4.827,M,-2.128,M,0.0,0000*6A
$GPESA,062927.004,-3.449,-2.422,-0.477,+0.000,+0.000,+0.000*70
$GPESD,062927.004,0.013,0.014,0.033,0.124,0.109,0.085,0.000,0.000,0.000*7C
$GPRMC,062928.004,A,2218.1235471,N,11411.3603342,E,8.68,92.76,210521,0.0,E,R,V*5F
$GPGGA,062928.004,2218.1235471,N,11411.3603342,E,4,22,1.0,4.875,M,-2.128,M,0.0,0000*66
$GPESA,062928.004,-3.904,-2.131,-0.372,+0.000,+0.000,+0.000*7E
$GPESD,062928.004,0.015,0.020,0.042,0.124,0.094,0.083,0.000,0.000,0.000*77
$GPRMC,062929.004,A,2218.1223804,N,11411.3577104,E,10.23,95.50,210521,0.0,E,R,V*62
$GPGGA,062929.004,2218.1223804,N,11411.3577104,E,5,23,1.0,4.932,M,-2.129,M,0.0,0000*6D
$GPESA,062929.004,-4.910,-1.853,-0.413,+0.000,+0.000,+0.000*73
$GPESD,062929.004,0.041,0.041,0.056,0.151,0.115,0.084,0.000,0.000,0.000*78
$GPRMC,062930.004,A,2218.1215687,N,11411.3547379,E,10.51,100.18,210521,0.0,E,R,V*55
$GPGGA,062930.004,2218.1215687,N,11411.3547379,E,5,24,1.0,5.022,M,-2.129,M,0.0,0000*60
$GPESA,062930.004,-5.293,-0.980,-0.492,+0.000,+0.000,+0.000*7D
$GPESD,062930.004,0.181,0.084,0.095,0.128,0.113,0.084,0.000,0.000,0.000*73
$GPRMC,062931.004,A,2218.1212077,N,11411.3515745,E,10.78,103.31,210521,0.0,E,R,V*55
$GPGGA,062931.004,2218.1212077,N,11411.3515745,E,5,21,1.0,4.899,M,-2.129,M,0.0,0000*6F
$GPESA,062931.004,-5.528,-0.124,-0.419,+0.000,+0.000,+0.000*7E
$GPESD,062931.004,0.181,0.087,0.113,0.137,0.116,0.085,0.000,0.000,0.000*74
$GPRMC,062932.004,A,2218.1215440,N,11411.3484046,E,11.30,109.36,210521,0.0,E,R,V*5C
$GPGGA,062932.004,2218.1215440,N,11411.3484046,E,5,19,1.0,5.037,M,-2.129,M,0.0,0000*60
$GPESA,062932.004,-5.697,+1.081,-0.443,+0.000,+0.000,+0.000*7C
$GPESD,062932.004,0.184,0.089,0.107,0.141,0.127,0.087,0.000,0.000,0.000*78
$GPRMC,062933.004,A,2218.1225817,N,11411.3452823,E,11.88,117.02,210521,0.0,E,R,V*5B
$GPGGA,062933.004,2218.1225817,N,11411.3452823,E,5,18,1.0,4.999,M,-2.129,M,0.0,0000*61
$GPESA,062933.004,-5.669,+2.218,-0.567,+0.000,+0.000,+0.000*7A
$GPESD,062933.004,0.323,0.248,0.418,0.160,0.135,0.094,0.000,0.000,0.000*70
$GPRMC,062934.004,A,2218.1240579,N,11411.3420794,E,12.27,124.33,210521,0.0,E,R,V*58
$GPGGA,062934.004,2218.1240579,N,11411.3420794,E,5,19,1.0,4.976,M,-2.130,M,0.0,0000*6E
$GPESA,062934.004,-5.433,+3.158,-0.608,+0.000,+0.000,+0.000*7C
$GPESD,062934.004,0.258,0.335,0.376,0.119,0.137,0.092,0.000,0.000,0.000*74
$GPRMC,062935.004,A,2218.1258646,N,11411.3389656,E,12.06,124.67,210521,0.0,E,R,V*56
$GPGGA,062935.004,2218.1258646,N,11411.3389656,E,5,20,1.0,5.127,M,-2.130,M,0.0,0000*65
$GPESA,062935.004,-5.266,+3.246,-0.497,+0.000,+0.000,+0.000*73
$GPESD,062935.004,0.206,0.275,0.331,0.112,0.120,0.088,0.000,0.000,0.000*7E
$GPRMC,062936.004,A,2218.1277454,N,11411.3360444,E,11.53,124.72,210521,0.0,E,R,V*58
$GPGGA,062936.004,2218.1277454,N,11411.3360444,E,5,19,1.0,5.395,M,-2.130,M,0.0,0000*6D
$GPESA,062936.004,-5.041,+3.091,-0.492,+0.000,+0.000,+0.000*7A
$GPESD,062936.004,0.259,0.331,0.361,0.140,0.137,0.094,0.000,0.000,0.000*7F
$GPRMC,062937.004,A,2218.1295001,N,11411.3332861,E,10.34,124.37,210521,0.0,E,R,V*5C
$GPGGA,062937.004,2218.1295001,N,11411.3332861,E,5,21,1.0,5.541,M,-2.130,M,0.0,0000*6C
$GPESA,062937.004,-4.519,+2.773,-0.410,+0.000,+0.000,+0.000*72
$GPESD,062937.004,0.217,0.288,0.318,0.121,0.140,0.089,0.000,0.000,0.000*72
$GPRMC,062938.004,A,2218.1309397,N,11411.3308149,E,8.52,123.94,210521,0.0,E,R,V*66
$GPGGA,062938.004,2218.1309397,N,11411.3308149,E,5,22,1.0,5.531,M,-2.130,M,0.0,0000*65
$GPESA,062938.004,-3.814,+2.103,-0.476,+0.000,+0.000,+0.000*7B
$GPESD,062938.004,0.199,0.266,0.296,0.119,0.137,0.089,0.000,0.000,0.000*74
$GPRMC,062939.004,A,2218.1320145,N,11411.3287879,E,6.43,121.40,210521,0.0,E,R,V*68
$GPGGA,062939.004,2218.1320145,N,11411.3287879,E,5,23,1.0,5.666,M,-2.131,M,0.0,0000*6F
$GPESA,062939.004,-3.027,+1.228,-0.522,+0.000,+0.000,+0.000*7B
$GPESD,062939.004,0.185,0.243,0.286,0.117,0.150,0.088,0.000,0.000,0.000*70
$GPRMC,062940.004,A,2218.1326140,N,11411.3272847,E,4.54,125.64,210521,0.0,E,R,V*64
$GPGGA,062940.004,2218.1326140,N,11411.3272847,E,5,22,1.0,5.666,M,-2.131,M,0.0,0000*64
$GPESA,062940.004,-2.116,+0.784,-0.597,+0.000,+0.000,+0.000*7B
$GPESD,062940.004,0.175,0.231,0.271,0.117,0.143,0.087,0.000,0.000,0.000*71
$GPRMC,062941.004,A,2218.1329622,N,11411.3261902,E,3.14,123.97,210521,0.0,E,R,V*62
$GPGGA,062941.004,2218.1329622,N,11411.3261902,E,5,23,1.0,5.633,M,-2.131,M,0.0,0000*6A
$GPESA,062941.004,-1.496,+0.330,-0.520,+0.000,+0.000,+0.000*73
$GPESD,062941.004,0.167,0.222,0.263,0.117,0.138,0.088,0.000,0.000,0.000*71
$GPRMC,062942.004,A,2218.1331910,N,11411.3252227,E,3.73,118.49,210521,0.0,E,R,V*60
$GPGGA,062942.004,2218.1331910,N,11411.3252227,E,5,24,1.0,5.596,M,-2.131,M,0.0,0000*69
$GPESA,062942.004,-1.824,+0.166,-0.567,+0.000,+0.000,+0.000*77
$GPESD,062942.004,0.160,0.214,0.254,0.116,0.134,0.087,0.000,0.000,0.000*76
$GPRMC,062943.004,A,2218.1331837,N,11411.3241672,E,3.93,107.88,210521,0.0,E,R,V*6E
$GPGGA,062943.004,2218.1331837,N,11411.3241672,E,5,23,1.0,5.538,M,-2.131,M,0.0,0000*69
$GPESA,062943.004,-1.906,-0.437,-0.512,+0.000,+0.000,+0.000*72
$GPESD,062943.004,0.155,0.207,0.242,0.122,0.143,0.089,0.000,0.000,0.000*7D
$GPRMC,062944.004,A,2218.1327624,N,11411.3232341,E,3.81,98.49,210521,0.0,E,R,V*5A
$GPGGA,062944.004,2218.1327624,N,11411.3232341,E,5,24,1.0,5.445,M,-2.131,M,0.0,0000*68
$GPESA,062944.004,-1.359,-1.305,-0.546,+0.000,+0.000,+0.000*73
$GPESD,062944.004,0.148,0.199,0.235,0.119,0.149,0.090,0.000,0.000,0.000*78
$GPRMC,062945.004,A,2218.1320986,N,11411.3226269,E,3.25,94.37,210521,0.0,E,R,V*5E
$GPGGA,062945.004,2218.1320986,N,11411.3226269,E,5,24,1.0,5.372,M,-2.131,M,0.0,0000*64
$GPESA,062945.004,-0.731,-1.412,-0.508,+0.000,+0.000,+0.000*72
$GPESD,062945.004,0.145,0.192,0.232,0.118,0.138,0.091,0.000,0.000,0.000*7E
$GPRMC,062946.004,A,2218.1313810,N,11411.3223156,E,2.74,95.51,210521,0.0,E,R,V*5D
$GPGGA,062946.004,2218.1313810,N,11411.3223156,E,5,24,1.0,5.367,M,-2.131,M,0.0,0000*67
$GPESA,062946.004,-0.288,-1.280,-0.512,+0.000,+0.000,+0.000*70
$GPESD,062946.004,0.141,0.184,0.222,0.126,0.135,0.091,0.000,0.000,0.000*7F
$GPRMC,062947.004,A,2218.1311462,N,11411.3223280,E,1.16,89.68,210521,0.0,E,R,V*5F
$GPGGA,062947.004,2218.1311462,N,11411.3223280,E,4,24,1.0,5.366,M,-2.131,M,0.0,0000*65
$GPESA,062947.004,-0.041,-0.297,-0.518,+0.000,+0.000,+0.000*7B
$GPESD,062947.004,0.137,0.178,0.214,0.115,0.134,0.087,0.000,0.000,0.000*7F
$GPRMC,062948.004,A,2218.1311500,N,11411.3223399,E,1.18,342.24,210521,0.0,E,R,V*6E
$GPGGA,062948.004,2218.1311500,N,11411.3223399,E,4,23,1.0,5.375,M,-2.131,M,0.0,0000*63
$GPESA,062948.004,+0.046,-0.080,-0.600,+0.000,+0.000,+0.000*7B
$GPESD,062948.004,0.011,0.015,0.032,0.115,0.134,0.088,0.000,0.000,0.000*76
$GPRMC,062949.004,A,2218.1311539,N,11411.3223488,E,1.03,208.80,210521,0.0,E,R,V*69
$GPGGA,062949.004,2218.1311539,N,11411.3223488,E,4,22,1.0,5.369,M,-2.131,M,0.0,0000*63
$GPESA,062949.004,+0.072,-0.214,-0.479,+0.000,+0.000,+0.000*7E
$GPESD,062949.004,0.013,0.012,0.034,0.127,0.135,0.089,0.000,0.000,0.000*75
$GPRMC,062950.004,A,2218.1311547,N,11411.3223498,E,1.06,208.95,210521,0.0,E,R,V*68
$GPGGA,062950.004,2218.1311547,N,11411.3223498,E,4,22,1.0,5.355,M,-2.131,M,0.0,0000*6C
$GPESA,062950.004,+0.019,-0.143,-0.527,+0.000,+0.000,+0.000*70
$GPESD,062950.004,0.013,0.014,0.037,0.115,0.134,0.087,0.000,0.000,0.000*76
$GPRMC,062951.004,A,2218.1311560,N,11411.3223516,E,1.10,342.49,210521,0.0,E,R,V*62
$GPGGA,062951.004,2218.1311560,N,11411.3223516,E,4,23,1.0,5.354,M,-2.131,M,0.0,0000*6F
$GPESA,062951.004,+0.042,-0.098,-0.554,+0.000,+0.000,+0.000*7C
$GPESD,062951.004,0.011,0.013,0.033,0.116,0.137,0.088,0.000,0.000,0.000*79
$GPRMC,062952.004,A,2218.1311605,N,11411.3223554,E,1.13,342.73,210521,0.0,E,R,V*6D
$GPGGA,062952.004,2218.1311605,N,11411.3223554,E,4,23,1.0,5.355,M,-2.131,M,0.0,0000*6B
$GPESA,062952.004,-0.032,-0.130,-0.567,+0.000,+0.000,+0.000*7D
$GPESD,062952.004,0.010,0.011,0.026,0.115,0.133,0.088,0.000,0.000,0.000*7A
$GPRMC,062953.004,A,2218.1311617,N,11411.3223575,E,1.12,5.61,210521,0.0,E,R,V*6E
$GPGGA,062953.004,2218.1311617,N,11411.3223575,E,4,23,1.0,5.359,M,-2.131,M,0.0,0000*66
$GPESA,062953.004,-0.046,-0.186,-0.543,+0.000,+0.000,+0.000*74
$GPESD,062953.004,0.009,0.010,0.027,0.114,0.133,0.088,0.000,0.000,0.000*72
$GPRMC,062954.004,A,2218.1311616,N,11411.3223621,E,1.06,5.54,210521,0.0,E,R,V*69
$GPGGA,062954.004,2218.1311616,N,11411.3223621,E,4,23,1.0,5.354,M,-2.131,M,0.0,0000*6F
$GPESA,062954.004,+0.018,-0.109,-0.533,+0.000,+0.000,+0.000*7E
$GPESD,062954.004,0.009,0.011,0.027,0.118,0.134,0.088,0.000,0.000,0.000*7F
$GPRMC,062955.004,A,2218.1311623,N,11411.3223610,E,1.21,5.42,210521,0.0,E,R,V*6E
$GPGGA,062955.004,2218.1311623,N,11411.3223610,E,4,23,1.0,5.367,M,-2.131,M,0.0,0000*6A
$GPESA,062955.004,-0.004,-0.156,-0.602,+0.000,+0.000,+0.000*7F
$GPESD,062955.004,0.010,0.012,0.029,0.114,0.133,0.088,0.000,0.000,0.000*70
$GPRMC,062956.004,A,2218.1311607,N,11411.3223614,E,1.22,5.29,210521,0.0,E,R,V*61
$GPGGA,062956.004,2218.1311607,N,11411.3223614,E,4,23,1.0,5.366,M,-2.131,M,0.0,0000*6A
$GPESA,062956.004,-0.055,-0.113,-0.617,+0.000,+0.000,+0.000*7D
$GPESD,062956.004,0.010,0.012,0.030,0.116,0.133,0.088,0.000,0.000,0.000*79
$GPRMC,062957.004,A,2218.1311682,N,11411.3223625,E,1.19,4.75,210521,0.0,E,R,V*6F
$GPGGA,062957.004,2218.1311682,N,11411.3223625,E,4,23,1.0,5.395,M,-2.131,M,0.0,0000*68
$GPESA,062957.004,-0.008,-0.118,-0.602,+0.000,+0.000,+0.000*7B
$GPESD,062957.004,0.009,0.012,0.028,0.114,0.133,0.088,0.000,0.000,0.000*7B
$GPRMC,062958.004,A,2218.1311637,N,11411.3223629,E,1.16,5.44,210521,0.0,E,R,V*6E
$GPGGA,062958.004,2218.1311637,N,11411.3223629,E,4,23,1.0,5.378,M,-2.131,M,0.0,0000*66
$GPESA,062958.004,-0.003,-0.216,-0.559,+0.000,+0.000,+0.000*7F
$GPESD,062958.004,0.008,0.010,0.025,0.114,0.133,0.088,0.000,0.000,0.000*7A
$GPRMC,062959.004,A,2218.1311622,N,11411.3223596,E,1.20,5.44,210521,0.0,E,R,V*69
$GPGGA,062959.004,2218.1311622,N,11411.3223596,E,4,23,1.0,5.374,M,-2.131,M,0.0,0000*68
$GPESA,062959.004,-0.074,-0.225,-0.568,+0.000,+0.000,+0.000*7C
$GPESD,062959.004,0.008,0.009,0.025,0.115,0.134,0.088,0.000,0.000,0.000*75
$GPRMC,063000.004,A,2218.1311737,N,11411.3223594,E,1.12,113.47,210521,0.0,E,R,V*6E
$GPGGA,063000.004,2218.1311737,N,11411.3223594,E,5,24,1.0,5.405,M,-2.131,M,0.0,0000*6C
$GPESA,063000.004,-0.083,-0.195,-0.536,+0.000,+0.000,+0.000*73
$GPESD,063000.004,0.008,0.013,0.028,0.114,0.133,0.088,0.000,0.000,0.000*71
$GPRMC,063001.004,A,2218.1311658,N,11411.3223615,E,1.08,91.12,210521,0.0,E,R,V*5D
$GPGGA,063001.004,2218.1311658,N,11411.3223615,E,4,24,1.0,5.377,M,-2.131,M,0.0,0000*6C
$GPESA,063001.004,-0.017,-0.150,-0.536,+0.000,+0.000,+0.000*76
$GPESD,063001.004,0.009,0.012,0.028,0.114,0.133,0.088,0.000,0.000,0.000*70
$GPRMC,063002.004,A,2218.1311623,N,11411.3223623,E,1.08,89.76,210521,0.0,E,R,V*5C
$GPGGA,063002.004,2218.1311623,N,11411.3223623,E,4,24,1.0,5.372,M,-2.131,M,0.0,0000*63
$GPESA,063002.004,-0.012,-0.130,-0.540,+0.000,+0.000,+0.000*77
$GPESD,063002.004,0.010,0.011,0.029,0.114,0.133,0.088,0.000,0.000,0.000*79
$GPRMC,063003.004,A,2218.1311653,N,11411.3223611,E,0.95,89.73,210521,0.0,E,R,V*5B
$GPGGA,063003.004,2218.1311653,N,11411.3223611,E,4,24,1.0,5.368,M,-2.131,M,0.0,0000*6F
$GPESA,063003.004,+0.010,-0.076,-0.484,+0.000,+0.000,+0.000*78
$GPESD,063003.004,0.010,0.012,0.029,0.124,0.134,0.089,0.000,0.000,0.000*7E
$GPRMC,063004.004,A,2218.1311613,N,11411.3223620,E,0.88,89.72,210521,0.0,E,R,V*57
$GPGGA,063004.004,2218.1311613,N,11411.3223620,E,4,24,1.0,5.370,M,-2.131,M,0.0,0000*67
$GPESA,063004.004,+0.011,-0.164,-0.419,+0.000,+0.000,+0.000*78
$GPESD,063004.004,0.008,0.010,0.022,0.114,0.133,0.088,0.000,0.000,0.000*7C
$GPRMC,063005.004,A,2218.1311677,N,11411.3223598,E,0.89,89.72,210521,0.0,E,R,V*55
$GPGGA,063005.004,2218.1311677,N,11411.3223598,E,4,24,1.0,5.398,M,-2.131,M,0.0,0000*62
$GPESA,063005.004,-0.019,-0.171,-0.427,+0.000,+0.000,+0.000*7E
$GPESD,063005.004,0.008,0.010,0.024,0.114,0.134,0.088,0.000,0.000,0.000*7C
$GPRMC,063006.004,A,2218.1311623,N,11411.3223602,E,0.88,89.81,210521,0.0,E,R,V*5A
$GPGGA,063006.004,2218.1311623,N,11411.3223602,E,4,24,1.0,5.373,M,-2.131,M,0.0,0000*65
$GPESA,063006.004,+0.034,-0.051,-0.448,+0.000,+0.000,+0.000*7E
$GPESD,063006.004,0.008,0.010,0.022,0.115,0.134,0.088,0.000,0.000,0.000*78
$GPRMC,063007.004,A,2218.1311639,N,11411.3223649,E,0.86,89.71,210521,0.0,E,R,V*5E
$GPGGA,063007.004,2218.1311639,N,11411.3223649,E,4,24,1.0,5.375,M,-2.131,M,0.0,0000*66
$GPESA,063007.004,-0.020,-0.134,-0.423,+0.000,+0.000,+0.000*73
$GPESD,063007.004,0.008,0.010,0.021,0.115,0.134,0.088,0.000,0.000,0.000*7A
$GPRMC,063008.004,A,2218.1311710,N,11411.3223599,E,0.88,89.73,210521,0.0,E,R,V*59
$GPGGA,063008.004,2218.1311710,N,11411.3223599,E,4,24,1.0,5.401,M,-2.131,M,0.0,0000*69
$GPESA,063008.004,+0.050,-0.053,-0.448,+0.000,+0.000,+0.000*70
$GPESD,063008.004,0.008,0.009,0.021,0.115,0.134,0.088,0.000,0.000,0.000*7D
$GPRMC,063009.004,A,2218.1311655,N,11411.3223618,E,0.81,89.73,210521,0.0,E,R,V*5B
$GPGGA,063009.004,2218.1311655,N,11411.3223618,E,4,24,1.0,5.403,M,-2.131,M,0.0,0000*60
$GPESA,063009.004,-0.017,-0.107,-0.404,+0.000,+0.000,+0.000*7C
$GPESD,063009.004,0.007,0.009,0.023,0.114,0.133,0.088,0.000,0.000,0.000*77
$GPRMC,063010.004,A,2218.1311675,N,11411.3223624,E,0.87,331.73,210521,0.0,E,R,V*68
$GPGGA,063010.004,2218.1311675,N,11411.3223624,E,4,23,1.0,5.403,M,-2.131,M,0.0,0000*62
$GPESA,063010.004,+0.008,-0.119,-0.430,+0.000,+0.000,+0.000*74
$GPESD,063010.004,0.008,0.010,0.026,0.115,0.133,0.088,0.000,0.000,0.000*7C
$GPRMC,063011.004,A,2218.1311663,N,11411.3223597,E,0.79,344.95,210521,0.0,E,R,V*6E
$GPGGA,063011.004,2218.1311663,N,11411.3223597,E,4,23,1.0,5.403,M,-2.131,M,0.0,0000*6F
$GPESA,063011.004,+0.000,-0.116,-0.388,+0.000,+0.000,+0.000*76
$GPESD,063011.004,0.009,0.010,0.024,0.115,0.133,0.088,0.000,0.000,0.000*7E
$GPRMC,063012.004,A,2218.1311703,N,11411.3223620,E,0.96,344.96,210521,0.0,E,R,V*67
$GPGGA,063012.004,2218.1311703,N,11411.3223620,E,4,23,1.0,5.422,M,-2.131,M,0.0,0000*67
$GPESA,063012.004,+0.059,-0.080,-0.483,+0.000,+0.000,+0.000*7B
$GPESD,063012.004,0.008,0.010,0.022,0.115,0.134,0.088,0.000,0.000,0.000*7D
$GPRMC,063013.004,A,2218.1311685,N,11411.3223616,E,0.85,345.09,210521,0.0,E,R,V*69
$GPGGA,063013.004,2218.1311685,N,11411.3223616,E,4,23,1.0,5.411,M,-2.131,M,0.0,0000*6C
$GPESA,063013.004,-0.044,-0.100,-0.422,+0.000,+0.000,+0.000*72
$GPESD,063013.004,0.008,0.009,0.022,0.115,0.133,0.089,0.000,0.000,0.000*72
$GPRMC,063014.004,A,2218.1311678,N,11411.3223577,E,0.89,89.80,210521,0.0,E,R,V*56
$GPGGA,063014.004,2218.1311678,N,11411.3223577,E,4,24,1.0,5.416,M,-2.131,M,0.0,0000*6D
$GPESA,063014.004,-0.037,-0.103,-0.446,+0.000,+0.000,+0.000*70
$GPESD,063014.004,0.009,0.010,0.024,0.114,0.133,0.089,0.000,0.000,0.000*7B
$GPRMC,063015.004,A,2218.1311700,N,11411.3223609,E,0.72,261.20,210521,0.0,E,R,V*69
$GPGGA,063015.004,2218.1311700,N,11411.3223609,E,4,23,1.0,5.414,M,-2.131,M,0.0,0000*6D
$GPESA,063015.004,+0.054,-0.074,-0.359,+0.000,+0.000,+0.000*7A
$GPESD,063015.004,0.008,0.010,0.023,0.115,0.135,0.089,0.000,0.000,0.000*7B
$GPRMC,063016.004,A,2218.1311689,N,11411.3223574,E,0.76,252.76,210521,0.0,E,R,V*64
$GPGGA,063016.004,2218.1311689,N,11411.3223574,E,4,23,1.0,5.436,M,-2.131,M,0.0,0000*67
$GPESA,063016.004,-0.052,-0.169,-0.349,+0.000,+0.000,+0.000*75
$GPESD,063016.004,0.009,0.010,0.026,0.115,0.133,0.089,0.000,0.000,0.000*7A
$GPRMC,063017.004,A,2218.1311743,N,11411.3223531,E,0.71,86.46,210521,0.0,E,R,V*5C
$GPGGA,063017.004,2218.1311743,N,11411.3223531,E,4,24,1.0,5.450,M,-2.131,M,0.0,0000*67
$GPESA,063017.004,+0.009,-0.147,-0.332,+0.000,+0.000,+0.000*7C
$GPESD,063017.004,0.012,0.011,0.030,0.114,0.133,0.089,0.000,0.000,0.000*76
$GPRMC,063018.004,A,2218.1311714,N,11411.3223551,E,0.74,86.59,210521,0.0,E,R,V*5C
$GPGGA,063018.004,2218.1311714,N,11411.3223551,E,4,24,1.0,5.443,M,-2.131,M,0.0,0000*6E
$GPESA,063018.004,-0.029,-0.095,-0.368,+0.000,+0.000,+0.000*76
$GPESD,063018.004,0.011,0.011,0.029,0.114,0.133,0.089,0.000,0.000,0.000*72
$GPRMC,063019.004,A,2218.1311677,N,11411.3223596,E,0.72,86.52,210521,0.0,E,R,V*5F
$GPGGA,063019.004,2218.1311677,N,11411.3223596,E,4,24,1.0,5.419,M,-2.131,M,0.0,0000*6F
$GPESA,063019.004,+0.047,-0.069,-0.359,+0.000,+0.000,+0.000*78
$GPESD,063019.004,0.009,0.010,0.027,0.114,0.133,0.089,0.000,0.000,0.000*75
$GPRMC,063020.004,A,2218.1311699,N,11411.3223594,E,0.83,86.49,210521,0.0,E,R,V*53
$GPGGA,063020.004,2218.1311699,N,11411.3223594,E,4,24,1.0,5.440,M,-2.131,M,0.0,0000*6B
$GPESA,063020.004,+0.091,-0.124,-0.400,+0.000,+0.000,+0.000*7A
$GPESD,063020.004,0.008,0.009,0.023,0.117,0.133,0.089,0.000,0.000,0.000*71
$GPRMC,063021.004,A,2218.1311663,N,11411.3223551,E,0.85,345.90,210521,0.0,E,R,V*60
$GPGGA,063021.004,2218.1311663,N,11411.3223551,E,4,23,1.0,5.416,M,-2.131,M,0.0,0000*62
$GPESA,063021.004,-0.037,-0.104,-0.422,+0.000,+0.000,+0.000*73
$GPESD,063021.004,0.009,0.010,0.023,0.115,0.135,0.089,0.000,0.000,0.000*7D
$GPRMC,063022.004,A,2218.1311690,N,11411.3223546,E,0.84,346.14,210521,0.0,E,R,V*67
$GPGGA,063022.004,2218.1311690,N,11411.3223546,E,4,23,1.0,5.415,M,-2.131,M,0.0,0000*68
$GPESA,063022.004,-0.056,-0.135,-0.408,+0.000,+0.000,+0.000*7D
$GPESD,063022.004,0.008,0.010,0.024,0.115,0.134,0.089,0.000,0.000,0.000*79
$GPRMC,063023.004,A,2218.1311674,N,11411.3223530,E,0.67,346.18,210521,0.0,E,R,V*6C
$GPGGA,063023.004,2218.1311674,N,11411.3223530,E,4,23,1.0,5.438,M,-2.131,M,0.0,0000*6D
$GPESA,063023.004,-0.012,-0.184,-0.293,+0.000,+0.000,+0.000*72
$GPESD,063023.004,0.009,0.010,0.024,0.115,0.133,0.089,0.000,0.000,0.000*7E
$GPRMC,063024.004,A,2218.1311053,N,11411.3223442,E,1.02,346.52,210521,0.0,E,R,V*60
$GPGGA,063024.004,2218.1311053,N,11411.3223442,E,4,23,1.0,5.424,M,-2.131,M,0.0,0000*60
$GPESA,063024.004,-0.091,-0.385,-0.348,+0.000,+0.000,+0.000*7A
$GPESD,063024.004,0.008,0.010,0.023,0.115,0.133,0.089,0.000,0.000,0.000*7F
$GPRMC,063025.004,A,2218.1304850,N,11411.3222383,E,4.35,72.42,210521,0.0,E,R,V*51
$GPGGA,063025.004,2218.1304850,N,11411.3222383,E,4,23,1.0,5.446,M,-2.131,M,0.0,0000*61
$GPESA,063025.004,-0.434,-2.174,-0.300,+0.000,+0.000,+0.000*72
$GPESD,063025.004,0.009,0.011,0.025,0.119,0.135,0.089,0.000,0.000,0.000*72
$GPRMC,063026.004,A,2218.1290004,N,11411.3217442,E,7.38,71.56,210521,0.0,E,R,V*53
$GPGGA,063026.004,2218.1290004,N,11411.3217442,E,4,23,1.0,5.466,M,-2.131,M,0.0,0000*69
$GPESA,063026.004,-1.117,-3.621,-0.265,+0.000,+0.000,+0.000*70
$GPESD,063026.004,0.009,0.011,0.026,0.115,0.133,0.089,0.000,0.000,0.000*78
$GPRMC,063027.004,A,2218.1267051,N,11411.3207765,E,11.12,74.42,210521,0.0,E,R,V*62
$GPGGA,063027.004,2218.1267051,N,11411.3207765,E,4,23,1.0,5.420,M,-2.131,M,0.0,0000*65
$GPESA,063027.004,-2.484,-5.147,-0.190,+0.000,+0.000,+0.000*75
$GPESD,063027.004,0.008,0.011,0.026,0.116,0.133,0.089,0.000,0.000,0.000*7B
$GPRMC,063028.004,A,2218.1238187,N,11411.3192483,E,13.23,76.75,210521,0.0,E,R,V*6F
$GPGGA,063028.004,2218.1238187,N,11411.3192483,E,5,23,1.0,5.496,M,-2.131,M,0.0,0000*62
$GPESA,063028.004,-3.144,-6.025,-0.367,+0.000,+0.000,+0.000*7E
$GPESD,063028.004,0.017,0.022,0.056,0.122,0.135,0.090,0.000,0.000,0.000*74
$GPRMC,063029.004,A,2218.1203489,N,11411.3171971,E,15.74,77.62,210521,0.0,E,R,V*63
$GPGGA,063029.004,2218.1203489,N,11411.3171971,E,5,22,1.0,5.437,M,-2.131,M,0.0,0000*67
$GPESA,063029.004,-4.096,-6.975,-0.357,+0.000,+0.000,+0.000*79
$GPESD,063029.004,0.016,0.023,0.051,0.116,0.136,0.090,0.000,0.000,0.000*76
$GPRMC,063030.004,A,2218.1170847,N,11411.3143100,E,16.59,78.34,210521,0.0,E,R,V*6D
$GPGGA,063030.004,2218.1170847,N,11411.3143100,E,5,22,1.0,8.503,M,-2.131,M,0.0,0000*62
$GPESA,063030.004,-4.663,-7.140,-0.287,+0.000,+0.000,+0.000*7E
$GPESD,063030.004,0.619,0.478,1.545,0.121,0.137,0.090,0.000,0.000,0.000*79
$GPRMC,063031.004,A,2218.1136660,N,11411.3116926,E,15.96,81.74,210521,0.0,E,R,V*6B
$GPGGA,063031.004,2218.1136660,N,11411.3116926,E,5,22,1.0,9.412,M,-2.131,M,0.0,0000*66
$GPESA,063031.004,-5.213,-6.334,-0.340,+0.000,+0.000,+0.000*77
$GPESD,063031.004,0.501,0.452,1.428,0.120,0.135,0.090,0.000,0.000,0.000*73
$GPRMC,063032.004,A,2218.1101393,N,11411.3083313,E,16.35,82.71,210521,0.0,E,R,V*68
$GPGGA,063032.004,2218.1101393,N,11411.3083313,E,5,21,1.0,8.717,M,-2.131,M,0.0,0000*6D
$GPESA,063032.004,-5.613,-6.257,-0.336,+0.000,+0.000,+0.000*75
$GPESD,063032.004,0.380,0.370,1.181,0.122,0.135,0.094,0.000,0.000,0.000*78
$GPRMC,063033.004,A,2218.1069658,N,11411.3048938,E,16.65,84.99,210521,0.0,E,R,V*65
$GPGGA,063033.004,2218.1069658,N,11411.3048938,E,5,20,1.0,9.022,M,-2.131,M,0.0,0000*64
$GPESA,063033.004,-6.330,-5.764,-0.322,+0.000,+0.000,+0.000*70
$GPESD,063033.004,0.330,0.317,1.012,0.120,0.136,0.091,0.000,0.000,0.000*7C
$GPRMC,063034.004,A,2218.1040137,N,11411.3012263,E,16.08,85.82,210521,0.0,E,R,V*6D
$GPGGA,063034.004,2218.1040137,N,11411.3012263,E,5,20,1.0,9.031,M,-2.131,M,0.0,0000*6E
$GPESA,063034.004,-6.380,-5.259,-0.266,+0.000,+0.000,+0.000*76
$GPESD,063034.004,0.296,0.283,0.904,0.132,0.137,0.093,0.000,0.000,0.000*75
$GPRMC,063035.004,A,2218.1013922,N,11411.2974901,E,15.89,87.43,210521,0.0,E,R,V*64
$GPGGA,063035.004,2218.1013922,N,11411.2974901,E,5,22,1.0,9.318,M,-2.132,M,0.0,0000*6B
$GPESA,063035.004,-6.509,-4.931,-0.365,+0.000,+0.000,+0.000*76
$GPESD,063035.004,0.272,0.264,0.852,0.131,0.141,0.092,0.000,0.000,0.000*76
$GPRMC,063036.004,A,2218.0987997,N,11411.2934595,E,16.49,86.73,210521,0.0,E,R,V*64
$GPGGA,063036.004,2218.0987997,N,11411.2934595,E,5,22,1.0,10.463,M,-2.132,M,0.0,0000*55
$GPESA,063036.004,-6.816,-5.047,-0.232,+0.000,+0.000,+0.000*7C
$GPESD,063036.004,0.283,0.307,1.086,0.137,0.111,0.090,0.000,0.000,0.000*7E
$GPRMC,063037.004,A,2218.0959093,N,11411.2891788,E,17.11,88.35,210521,0.0,E,R,V*6B
$GPGGA,063037.004,2218.0959093,N,11411.2891788,E,5,22,1.0,9.833,M,-2.132,M,0.0,0000*6B
$GPESA,063037.004,-7.242,-4.990,-0.380,+0.000,+0.000,+0.000*7D
$GPESD,063037.004,0.257,0.274,0.869,0.144,0.122,0.090,0.000,0.000,0.000*7F
$GPRMC,063038.004,A,2218.0932789,N,11411.2848565,E,17.32,88.15,210521,0.0,E,R,V*63
$GPGGA,063038.004,2218.0932789,N,11411.2848565,E,5,22,1.0,9.686,M,-2.132,M,0.0,0000*60
$GPESA,063038.004,-7.360,-5.007,-0.330,+0.000,+0.000,+0.000*7E
$GPESD,063038.004,0.243,0.259,0.780,0.169,0.141,0.091,0.000,0.000,0.000*79
$GPRMC,063039.004,A,2218.0907793,N,11411.2805254,E,15.94,89.71,210521,0.0,E,R,V*6E
$GPGGA,063039.004,2218.0907793,N,11411.2805254,E,5,23,1.0,8.967,M,-2.132,M,0.0,0000*60
$GPESA,063039.004,-6.844,-4.494,-0.487,+0.000,+0.000,+0.000*77
$GPESD,063039.004,0.230,0.246,0.709,0.150,0.177,0.092,0.000,0.000,0.000*7F
$GPRMC,063040.004,A,2218.0886937,N,11411.2764816,E,14.49,89.86,210521,0.0,E,R,V*65
$GPGGA,063040.004,2218.0886937,N,11411.2764816,E,5,21,1.0,8.945,M,-2.132,M,0.0,0000*60
$GPESA,063040.004,-6.581,-3.500,-0.184,+0.000,+0.000,+0.000*70
$GPESD,063040.004,0.222,0.236,0.654,0.131,0.164,0.092,0.000,0.000,0.000*79
$GPRMC,063041.004,A,2218.0869193,N,11411.2727418,E,12.99,91.74,210521,0.0,E,R,V*69
$GPGGA,063041.004,2218.0869193,N,11411.2727418,E,5,22,1.0,8.756,M,-2.133,M,0.0,0000*6D
$GPESA,063041.004,-5.915,-3.087,-0.380,+0.000,+0.000,+0.000*7F
$GPESD,063041.004,0.209,0.227,0.606,0.128,0.121,0.088,0.000,0.000,0.000*74
$GPRMC,063042.004,A,2218.0853179,N,11411.2694441,E,11.33,94.34,210521,0.0,E,R,V*60
$GPGGA,063042.004,2218.0853179,N,11411.2694441,E,5,19,1.0,8.037,M,-2.133,M,0.0,0000*6E
$GPESA,063042.004,-5.247,-2.485,-0.524,+0.000,+0.000,+0.000*7F
$GPESD,063042.004,0.204,0.219,0.560,0.120,0.124,0.092,0.000,0.000,0.000*72
$GPRMC,063043.004,A,2218.0841109,N,11411.2668534,E,8.76,94.49,210521,0.0,E,R,V*56
$GPGGA,063043.004,2218.0841109,N,11411.2668534,E,5,18,1.0,7.510,M,-2.133,M,0.0,0000*65
$GPESA,063043.004,-4.031,-1.966,-0.439,+0.000,+0.000,+0.000*72
$GPESD,063043.004,0.200,0.216,0.542,0.112,0.133,0.091,0.000,0.000,0.000*7C
$GPRMC,063044.004,A,2218.0831997,N,11411.2647877,E,5.68,96.00,210521,0.0,E,R,V*53
$GPGGA,063044.004,2218.0831997,N,11411.2647877,E,5,16,1.0,7.493,M,-2.133,M,0.0,0000*69
$GPESA,063044.004,-2.617,-1.252,-0.358,+0.000,+0.000,+0.000*7D
$GPESD,063044.004,0.214,0.211,0.577,0.119,0.140,0.092,0.000,0.000,0.000*73
$GPRMC,063045.004,A,2218.0827035,N,11411.2635744,E,3.15,99.31,210521,0.0,E,R,V*5F
$GPGGA,063045.004,2218.0827035,N,11411.2635744,E,5,18,1.0,7.893,M,-2.133,M,0.0,0000*66
$GPESA,063045.004,-1.386,-0.766,-0.333,+0.000,+0.000,+0.000*7C
$GPESD,063045.004,0.207,0.201,0.558,0.106,0.133,0.090,0.000,0.000,0.000*74
$GPRMC,063046.004,A,2218.0821935,N,11411.2633492,E,2.01,107.69,210521,0.0,E,R,V*62
$GPGGA,063046.004,2218.0821935,N,11411.2633492,E,5,18,1.0,6.938,M,-2.133,M,0.0,0000*65
$GPESA,063046.004,-0.866,-0.437,-0.352,+0.000,+0.000,+0.000*7B
$GPESD,063046.004,0.546,0.469,0.786,0.140,0.213,0.102,0.000,0.000,0.000*75
$GPRMC,063047.004,A,2218.0820357,N,11411.2629694,E,0.99,105.11,210521,0.0,E,R,V*6D
$GPGGA,063047.004,2218.0820357,N,11411.2629694,E,5,17,1.0,7.114,M,-2.133,M,0.0,0000*6C
$GPESA,063047.004,-0.188,-0.398,-0.257,+0.000,+0.000,+0.000*75
$GPESD,063047.004,0.418,0.391,0.671,0.134,0.193,0.098,0.000,0.000,0.000*7D
$GPRMC,063048.004,A,2218.0819895,N,11411.2627897,E,0.86,89.79,210521,0.0,E,R,V*5B
$GPGGA,063048.004,2218.0819895,N,11411.2627897,E,5,18,1.0,7.322,M,-2.133,M,0.0,0000*67
$GPESA,063048.004,-0.132,-0.050,-0.417,+0.000,+0.000,+0.000*7E
$GPESD,063048.004,0.376,0.379,0.604,0.130,0.146,0.094,0.000,0.000,0.000*79
$GPRMC,063049.004,A,2218.0818778,N,11411.2627725,E,1.00,135.25,210521,0.0,E,R,V*61
$GPGGA,063049.004,2218.0818778,N,11411.2627725,E,5,17,1.0,7.119,M,-2.133,M,0.0,0000*68
$GPESA,063049.004,-0.265,-0.384,-0.213,+0.000,+0.000,+0.000*76
$GPESD,063049.004,0.365,0.358,0.619,0.170,0.210,0.100,0.000,0.000,0.000*7D
$GPRMC,063050.004,A,2218.0818695,N,11411.2624330,E,1.02,218.77,210521,0.0,E,R,V*61
$GPGGA,063050.004,2218.0818695,N,11411.2624330,E,5,18,1.0,7.333,M,-2.133,M,0.0,0000*64
$GPESA,063050.004,-0.281,+0.047,-0.443,+0.000,+0.000,+0.000*7D
$GPESD,063050.004,0.365,0.364,0.583,0.132,0.142,0.094,0.000,0.000,0.000*74
$GPRMC,063051.004,A,2218.0816379,N,11411.2626147,E,0.56,114.57,210521,0.0,E,R,V*64
$GPGGA,063051.004,2218.0816379,N,11411.2626147,E,5,22,1.0,6.656,M,-2.133,M,0.0,0000*62
$GPESA,063051.004,+0.157,-0.025,-0.242,+0.000,+0.000,+0.000*77
$GPESD,063051.004,0.339,0.356,0.533,0.118,0.114,0.097,0.000,0.000,0.000*7E
$GPRMC,063052.004,A,2218.0815587,N,11411.2627817,E,0.53,65.76,210521,0.0,E,R,V*5F
$GPGGA,063052.004,2218.0815587,N,11411.2627817,E,5,24,1.0,6.438,M,-2.133,M,0.0,0000*64
$GPESA,063052.004,+0.063,+0.053,-0.260,+0.000,+0.000,+0.000*75
$GPESD,063052.004,0.295,0.318,0.509,0.113,0.111,0.092,0.000,0.000,0.000*72
$GPRMC,063053.004,A,2218.0814832,N,11411.2628142,E,0.64,140.78,210521,0.0,E,R,V*66
$GPGGA,063053.004,2218.0814832,N,11411.2628142,E,5,24,1.0,6.277,M,-2.133,M,0.0,0000*6C
$GPESA,063053.004,+0.018,+0.018,-0.327,+0.000,+0.000,+0.000*75
$GPESD,063053.004,0.291,0.316,0.487,0.107,0.111,0.095,0.000,0.000,0.000*7C
$GPRMC,063054.004,A,2218.0814556,N,11411.2628420,E,0.51,65.55,210521,0.0,E,R,V*50
$GPGGA,063054.004,2218.0814556,N,11411.2628420,E,5,24,1.0,6.056,M,-2.133,M,0.0,0000*64
$GPESA,063054.004,+0.049,-0.024,-0.254,+0.000,+0.000,+0.000*7A
$GPESD,063054.004,0.313,0.335,0.486,0.107,0.111,0.093,0.000,0.000,0.000*76
$GPRMC,063055.004,A,2218.0813494,N,11411.2628842,E,0.86,68.67,210521,0.0,E,R,V*57
$GPGGA,063055.004,2218.0813494,N,11411.2628842,E,5,23,1.0,5.911,M,-2.133,M,0.0,0000*6B
$GPESA,063055.004,-0.241,+0.038,-0.370,+0.000,+0.000,+0.000*7B
$GPESD,063055.004,0.266,0.301,0.479,0.107,0.116,0.094,0.000,0.000,0.000*73
$GPRMC,063056.004,A,2218.0814493,N,11411.2625546,E,1.62,116.92,210521,0.0,E,R,V*69
$GPGGA,063056.004,2218.0814493,N,11411.2625546,E,5,20,1.0,6.017,M,-2.133,M,0.0,0000*63
$GPESA,063056.004,-0.677,+0.334,-0.349,+0.000,+0.000,+0.000*7C
$GPESD,063056.004,0.285,0.307,0.465,0.133,0.180,0.095,0.000,0.000,0.000*7F
$GPRMC,063057.004,A,2218.0814695,N,11411.2621663,E,2.36,114.44,210521,0.0,E,R,V*67
$GPGGA,063057.004,2218.0814695,N,11411.2621663,E,5,18,1.0,5.957,M,-2.133,M,0.0,0000*63
$GPESA,063057.004,-1.177,+0.217,-0.205,+0.000,+0.000,+0.000*72
$GPESD,063057.004,0.255,0.288,0.458,0.129,0.196,0.102,0.000,0.000,0.000*78
$GPRMC,063058.004,A,2218.0812938,N,11411.2610973,E,3.22,129.39,210521,0.0,E,R,V*6A
$GPGGA,063058.004,2218.0812938,N,11411.2610973,E,5,18,1.0,6.313,M,-2.133,M,0.0,0000*67
$GPESA,063058.004,-1.391,+0.859,-0.259,+0.000,+0.000,+0.000*7E
$GPESD,063058.004,0.730,0.689,1.613,0.144,0.202,0.112,0.000,0.000,0.000*7C
$GPRMC,063059.004,A,2218.0821110,N,11411.2602583,E,4.19,179.35,210521,0.0,E,R,V*6F
$GPGGA,063059.004,2218.0821110,N,11411.2602583,E,5,18,1.0,6.209,M,-2.133,M,0.0,0000*6E
$GPESA,063059.004,-0.888,+1.947,-0.247,+0.000,+0.000,+0.000*7D
$GPESD,063059.004,0.443,0.819,1.414,0.146,0.186,0.102,0.000,0.000,0.000*74
$GPRMC,063100.004,A,2218.0831675,N,11411.2598841,E,4.75,237.62,210521,0.0,E,R,V*65
$GPGGA,063100.004,2218.0831675,N,11411.2598841,E,5,19,1.0,5.693,M,-2.133,M,0.0,0000*60
$GPESA,063100.004,+0.590,+2.359,-0.248,+0.000,+0.000,+0.000*7B
$GPESD,063100.004,0.448,0.974,1.831,0.143,0.199,0.106,0.000,0.000,0.000*7C
$GPRMC,063101.004,A,2218.0833920,N,11411.2606697,E,5.16,255.80,210521,0.0,E,R,V*64
$GPGGA,063101.004,2218.0833920,N,11411.2606697,E,5,17,1.0,6.502,M,-2.133,M,0.0,0000*6B
$GPESA,063101.004,+1.699,+2.034,-0.176,+0.000,+0.000,+0.000*77
$GPESD,063101.004,0.418,0.968,1.783,0.143,0.208,0.101,0.000,0.000,0.000*7F
$GPRMC,063102.004,A,2218.0845885,N,11411.2618533,E,6.68,266.87,210521,0.0,E,R,V*67
$GPGGA,063102.004,2218.0845885,N,11411.2618533,E,5,17,1.0,10.274,M,-2.133,M,0.0,0000*54
$GPESA,063102.004,+3.175,+1.290,-0.254,+0.000,+0.000,+0.000*7F
$GPESD,063102.004,0.393,1.064,1.784,0.159,0.266,0.112,0.000,0.000,0.000*7A
$GPRMC,063103.004,A,2218.0868026,N,11411.2639795,E,7.43,269.12,210521,0.0,E,R,V*6E
$GPGGA,063103.004,2218.0868026,N,11411.2639795,E,5,17,1.0,9.922,M,-2.133,M,0.0,0000*66
$GPESA,063103.004,+3.612,+1.228,-0.211,+0.000,+0.000,+0.000*7A
$GPESD,063103.004,0.399,0.817,1.340,0.143,0.205,0.096,0.000,0.000,0.000*73
$GPRMC,063104.004,A,2218.0879410,N,11411.2665210,E,9.51,269.00,210521,0.0,E,R,V*67
$GPGGA,063104.004,2218.0879410,N,11411.2665210,E,5,19,1.0,8.592,M,-2.133,M,0.0,0000*69
$GPESA,063104.004,+4.586,+1.680,-0.234,+0.000,+0.000,+0.000*75
$GPESD,063104.004,0.327,0.609,0.996,0.115,0.144,0.088,0.000,0.000,0.000*7A
$GPRMC,063105.004,A,2218.0890157,N,11411.2694329,E,10.91,269.73,210521,0.0,E,R,V*52
$GPGGA,063105.004,2218.0890157,N,11411.2694329,E,5,20,1.0,8.278,M,-2.133,M,0.0,0000*65
$GPESA,063105.004,+5.279,+1.891,-0.208,+0.000,+0.000,+0.000*73
$GPESD,063105.004,0.294,0.482,0.799,0.116,0.131,0.086,0.000,0.000,0.000*7D
$GPRMC,063106.004,A,2218.0902122,N,11411.2726775,E,11.76,269.19,210521,0.0,E,R,V*58
$GPGGA,063106.004,2218.0902122,N,11411.2726775,E,5,18,1.0,8.264,M,-2.133,M,0.0,0000*6D
$GPESA,063106.004,+5.551,+2.402,-0.127,+0.000,+0.000,+0.000*76
$GPESD,063106.004,0.262,0.406,0.688,0.122,0.129,0.085,0.000,0.000,0.000*77
$GPRMC,063107.004,A,2218.0917674,N,11411.2760479,E,13.24,267.50,210521,0.0,E,R,V*52
$GPGGA,063107.004,2218.0917674,N,11411.2760479,E,5,17,1.0,8.298,M,-2.133,M,0.0,0000*6D
$GPESA,063107.004,+6.108,+3.007,-0.223,+0.000,+0.000,+0.000*7B
$GPESD,063107.004,0.241,0.355,0.617,0.122,0.133,0.083,0.000,0.000,0.000*7D
$GPRMC,063108.004,A,2218.0935252,N,11411.2794138,E,12.83,266.71,210521,0.0,E,R,V*58
$GPGGA,063108.004,2218.0935252,N,11411.2794138,E,5,21,1.0,8.345,M,-2.132,M,0.0,0000*6C
$GPESA,063108.004,+5.721,+3.283,-0.141,+0.000,+0.000,+0.000*73
$GPESD,063108.004,0.227,0.319,0.576,0.125,0.145,0.086,0.000,0.000,0.000*7D
$GPRMC,063109.004,A,2218.0953263,N,11411.2825886,E,12.10,267.83,210521,0.0,E,R,V*54
$GPGGA,063109.004,2218.0953263,N,11411.2825886,E,5,19,1.0,8.413,M,-2.132,M,0.0,0000*69
$GPESA,063109.004,+5.507,+2.900,-0.095,+0.000,+0.000,+0.000*7D
$GPESD,063109.004,0.217,0.299,0.553,0.136,0.182,0.089,0.000,0.000,0.000*77
$GPRMC,063110.004,A,2218.0972368,N,11411.2855391,E,11.88,266.09,210521,0.0,E,R,V*5E
$GPGGA,063110.004,2218.0972368,N,11411.2855391,E,5,21,1.0,8.482,M,-2.132,M,0.0,0000*61
$GPESA,063110.004,+5.071,+3.413,-0.020,+0.000,+0.000,+0.000*71
$GPESD,063110.004,0.208,0.286,0.535,0.128,0.167,0.089,0.000,0.000,0.000*7B
$GPRMC,063111.004,A,2218.0991107,N,11411.2882423,E,10.84,263.70,210521,0.0,E,R,V*5B
$GPGGA,063111.004,2218.0991107,N,11411.2882423,E,5,21,1.0,8.386,M,-2.132,M,0.0,0000*61
$GPESA,063111.004,+4.353,+3.489,-0.070,+0.000,+0.000,+0.000*74
$GPESD,063111.004,0.202,0.312,0.554,0.157,0.177,0.088,0.000,0.000,0.000*73
$GPRMC,063112.004,A,2218.1008948,N,11411.2906971,E,10.12,262.79,210521,0.0,E,R,V*53
$GPGGA,063112.004,2218.1008948,N,11411.2906971,E,5,20,1.0,8.282,M,-2.132,M,0.0,0000*6A
$GPESA,063112.004,+4.010,+3.320,-0.118,+0.000,+0.000,+0.000*78
$GPESD,063112.004,0.197,0.292,0.531,0.128,0.138,0.088,0.000,0.000,0.000*76
$GPRMC,063113.004,A,2218.1027668,N,11411.2928614,E,8.79,261.87,210521,0.0,E,R,V*64
$GPGGA,063113.004,2218.1027668,N,11411.2928614,E,5,21,1.0,8.678,M,-2.132,M,0.0,0000*6B
$GPESA,063113.004,+3.377,+3.004,-0.110,+0.000,+0.000,+0.000*71
$GPESD,063113.004,0.190,0.275,0.511,0.144,0.136,0.087,0.000,0.000,0.000*70
$GPRMC,063114.004,A,2218.1043139,N,11411.2946226,E,7.09,260.00,210521,0.0,E,R,V*69
$GPGGA,063114.004,2218.1043139,N,11411.2946226,E,5,21,1.0,8.650,M,-2.132,M,0.0,0000*6A
$GPESA,063114.004,+2.537,+2.616,-0.093,+0.000,+0.000,+0.000*7B
$GPESD,063114.004,0.185,0.262,0.501,0.155,0.126,0.086,0.000,0.000,0.000*74
$GPRMC,063115.004,A,2218.1055115,N,11411.2959218,E,4.74,259.30,210521,0.0,E,R,V*62
$GPGGA,063115.004,2218.1055115,N,11411.2959218,E,5,21,1.0,8.696,M,-2.132,M,0.0,0000*6B
$GPESA,063115.004,+1.700,+1.746,-0.095,+0.000,+0.000,+0.000*7E
$GPESD,063115.004,0.180,0.252,0.491,0.151,0.132,0.086,0.000,0.000,0.000*7A
$GPRMC,063116.004,A,2218.1062263,N,11411.2967072,E,2.42,254.03,210521,0.0,E,R,V*6A
$GPGGA,063116.004,2218.1062263,N,11411.2967072,E,5,22,1.0,8.726,M,-2.132,M,0.0,0000*64
$GPESA,063116.004,+0.901,+0.837,-0.198,+0.000,+0.000,+0.000*77
$GPESD,063116.004,0.176,0.243,0.482,0.136,0.130,0.085,0.000,0.000,0.000*72
$GPRMC,063117.004,A,2218.1065817,N,11411.2970451,E,1.02,129.45,210521,0.0,E,R,V*6A
$GPGGA,063117.004,2218.1065817,N,11411.2970451,E,5,21,1.0,8.750,M,-2.132,M,0.0,0000*6A
$GPESA,063117.004,+0.353,+0.308,-0.235,+0.000,+0.000,+0.000*78
$GPESD,063117.004,0.171,0.235,0.472,0.137,0.135,0.086,0.000,0.000,0.000*7D
$GPRMC,063118.004,A,2218.1066438,N,11411.2970659,E,0.42,153.25,210521,0.0,E,R,V*63
$GPGGA,063118.004,2218.1066438,N,11411.2970659,E,5,20,1.0,8.672,M,-2.132,M,0.0,0000*6D
$GPESA,063118.004,+0.029,+0.008,-0.212,+0.000,+0.000,+0.000*7F
$GPESD,063118.004,0.166,0.224,0.452,0.129,0.129,0.084,0.000,0.000,0.000*76
$GPRMC,063119.004,A,2218.1066653,N,11411.2970686,E,0.33,169.08,210521,0.0,E,R,V*6F
$GPGGA,063119.004,2218.1066653,N,11411.2970686,E,5,20,1.0,8.630,M,-2.132,M,0.0,0000*67
$GPESA,063119.004,+0.054,+0.028,-0.161,+0.000,+0.000,+0.000*71
$GPESD,063119.004,0.161,0.215,0.434,0.136,0.137,0.085,0.000,0.000,0.000*72
$GPRMC,063120.004,A,2218.1066910,N,11411.2970434,E,0.52,131.34,210521,0.0,E,R,V*63
$GPGGA,063120.004,2218.1066910,N,11411.2970434,E,5,19,1.0,8.594,M,-2.132,M,0.0,0000*69
$GPESA,063120.004,+0.001,-0.051,-0.263,+0.000,+0.000,+0.000*72
$GPESD,063120.004,0.158,0.206,0.421,0.132,0.129,0.084,0.000,0.000,0.000*7E
$GPRMC,063121.004,A,2218.1067152,N,11411.2970150,E,0.69,131.34,210521,0.0,E,R,V*62
$GPGGA,063121.004,2218.1067152,N,11411.2970150,E,5,19,1.0,8.541,M,-2.132,M,0.0,0000*68
$GPESA,063121.004,+0.001,+0.026,-0.356,+0.000,+0.000,+0.000*72
$GPESD,063121.004,0.155,0.199,0.408,0.142,0.136,0.085,0.000,0.000,0.000*74
$GPRMC,063122.004,A,2218.1067293,N,11411.2970281,E,0.61,131.37,210521,0.0,E,R,V*6B
$GPGGA,063122.004,2218.1067293,N,11411.2970281,E,5,19,1.0,8.521,M,-2.132,M,0.0,0000*6C
$GPESA,063122.004,+0.065,-0.095,-0.290,+0.000,+0.000,+0.000*76
$GPESD,063122.004,0.152,0.192,0.397,0.129,0.130,0.084,0.000,0.000,0.000*70
$GPRMC,063123.004,A,2218.1067465,N,11411.2970107,E,0.47,131.25,210521,0.0,E,R,V*6F
$GPGGA,063123.004,2218.1067465,N,11411.2970107,E,5,19,1.0,8.430,M,-2.132,M,0.0,0000*6E
$GPESA,063123.004,+0.055,-0.072,-0.223,+0.000,+0.000,+0.000*75
$GPESD,063123.004,0.148,0.187,0.385,0.129,0.129,0.084,0.000,0.000,0.000*75
$GPRMC,063124.004,A,2218.1067635,N,11411.2970219,E,0.53,340.62,210521,0.0,E,R,V*61
$GPGGA,063124.004,2218.1067635,N,11411.2970219,E,5,20,1.0,8.447,M,-2.132,M,0.0,0000*68
$GPESA,063124.004,+0.025,-0.096,-0.251,+0.000,+0.000,+0.000*7A
$GPESD,063124.004,0.146,0.181,0.373,0.123,0.139,0.087,0.000,0.000,0.000*7B
$GPRMC,063125.004,A,2218.1067768,N,11411.2970082,E,0.45,340.62,210521,0.0,E,R,V*6E
$GPGGA,063125.004,2218.1067768,N,11411.2970082,E,5,20,1.0,8.387,M,-2.132,M,0.0,0000*6B
$GPESA,063125.004,+0.026,-0.008,-0.232,+0.000,+0.000,+0.000*7A
$GPESD,063125.004,0.142,0.176,0.364,0.122,0.118,0.084,0.000,0.000,0.000*71
$GPRMC,063126.004,A,2218.1067872,N,11411.2969871,E,0.49,341.04,210521,0.0,E,R,V*68
$GPGGA,063126.004,2218.1067872,N,11411.2969871,E,5,20,1.0,8.304,M,-2.132,M,0.0,0000*6B
$GPESA,063126.004,+0.040,-0.015,-0.251,+0.000,+0.000,+0.000*70
$GPESD,063126.004,0.140,0.171,0.354,0.121,0.118,0.084,0.000,0.000,0.000*77
$GPRMC,063127.004,A,2218.1067955,N,11411.2969994,E,0.51,340.77,210521,0.0,E,R,V*6B
$GPGGA,063127.004,2218.1067955,N,11411.2969994,E,5,21,1.0,8.313,M,-2.132,M,0.0,0000*63
$GPESA,063127.004,-0.020,-0.071,-0.250,+0.000,+0.000,+0.000*72
$GPESD,063127.004,0.137,0.168,0.346,0.118,0.116,0.084,0.000,0.000,0.000*79
$GPRMC,063128.004,A,2218.1068196,N,11411.2970182,E,0.65,128.53,210521,0.0,E,R,V*66
$GPGGA,063128.004,2218.1068196,N,11411.2970182,E,5,22,1.0,8.319,M,-2.132,M,0.0,0000*6A
$GPESA,063128.004,+0.025,-0.035,-0.334,+0.000,+0.000,+0.000*7D
$GPESD,063128.004,0.135,0.164,0.340,0.117,0.116,0.084,0.000,0.000,0.000*71
$GPRMC,063129.004,A,2218.1068303,N,11411.2969805,E,0.63,128.62,210521,0.0,E,R,V*63
$GPGGA,063129.004,2218.1068303,N,11411.2969805,E,5,22,1.0,8.226,M,-2.132,M,0.0,0000*66
$GPESA,063129.004,+0.079,-0.029,-0.313,+0.000,+0.000,+0.000*7D
$GPESD,063129.004,0.133,0.160,0.331,0.118,0.117,0.084,0.000,0.000,0.000*7A
$GPRMC,063130.004,A,2218.1068531,N,11411.2970042,E,0.78,128.64,210521,0.0,E,R,V*63
$GPGGA,063130.004,2218.1068531,N,11411.2970042,E,5,22,1.0,8.266,M,-2.132,M,0.0,0000*6E
$GPESA,063130.004,+0.071,+0.013,-0.393,+0.000,+0.000,+0.000*7A
$GPESD,063130.004,0.131,0.157,0.326,0.120,0.119,0.084,0.000,0.000,0.000*77
$GPRMC,063131.004,A,2218.1068622,N,11411.2969788,E,0.66,128.66,210521,0.0,E,R,V*67
$GPGGA,063131.004,2218.1068622,N,11411.2969788,E,5,22,1.0,8.175,M,-2.132,M,0.0,0000*66
$GPESA,063131.004,-0.002,-0.096,-0.323,+0.000,+0.000,+0.000*79
$GPESD,063131.004,0.130,0.154,0.321,0.117,0.116,0.083,0.000,0.000,0.000*7F
$GPRMC,063132.004,A,2218.1068864,N,11411.2969904,E,0.65,128.61,210521,0.0,E,R,V*66
$GPGGA,063132.004,2218.1068864,N,11411.2969904,E,5,22,1.0,8.201,M,-2.132,M,0.0,0000*63
$GPESA,063132.004,+0.027,+0.013,-0.331,+0.000,+0.000,+0.000*73
$GPESD,063132.004,0.128,0.151,0.315,0.117,0.123,0.084,0.000,0.000,0.000*76
$GPRMC,063133.004,A,2218.1069021,N,11411.2970022,E,0.61,128.63,210521,0.0,E,R,V*6C
$GPGGA,063133.004,2218.1069021,N,11411.2970022,E,5,22,1.0,8.161,M,-2.132,M,0.0,0000*6A
$GPESA,063133.004,+0.036,-0.030,-0.310,+0.000,+0.000,+0.000*76
$GPESD,063133.004,0.126,0.148,0.310,0.117,0.116,0.083,0.000,0.000,0.000*75
$GPRMC,063134.004,A,2218.1069133,N,11411.2970033,E,0.62,128.61,210521,0.0,E,R,V*68
$GPGGA,063134.004,2218.1069133,N,11411.2970033,E,5,22,1.0,8.132,M,-2.132,M,0.0,0000*69
$GPESA,063134.004,-0.015,-0.028,-0.315,+0.000,+0.000,+0.000*7A
$GPESD,063134.004,0.125,0.145,0.304,0.123,0.116,0.084,0.000,0.000,0.000*79
$GPRMC,063135.004,A,2218.1069153,N,11411.2969998,E,0.68,128.61,210521,0.0,E,R,V*65
$GPGGA,063135.004,2218.1069153,N,11411.2969998,E,5,22,1.0,8.077,M,-2.132,M,0.0,0000*6E
$GPESA,063135.004,-0.041,+0.000,-0.347,+0.000,+0.000,+0.000*71
$GPESD,063135.004,0.123,0.142,0.299,0.123,0.118,0.084,0.000,0.000,0.000*72
$GPRMC,063136.004,A,2218.1069131,N,11411.2969826,E,0.70,128.62,210521,0.0,E,R,V*6C
$GPGGA,063136.004,2218.1069131,N,11411.2969826,E,5,22,1.0,8.049,M,-2.132,M,0.0,0000*60
$GPESA,063136.004,+0.057,-0.016,-0.357,+0.000,+0.000,+0.000*73
$GPESD,063136.004,0.121,0.140,0.293,0.120,0.116,0.083,0.000,0.000,0.000*71
$GPRMC,063137.004,A,2218.1069276,N,11411.2969969,E,0.79,128.61,210521,0.0,E,R,V*6D
$GPGGA,063137.004,2218.1069276,N,11411.2969969,E,5,22,1.0,8.047,M,-2.132,M,0.0,0000*65
$GPESA,063137.004,+0.080,-0.015,-0.399,+0.000,+0.000,+0.000*79
$GPESD,063137.004,0.120,0.138,0.290,0.121,0.116,0.083,0.000,0.000,0.000*7C
$GPRMC,063138.004,A,2218.1069218,N,11411.2970057,E,0.73,128.61,210521,0.0,E,R,V*6C
$GPGGA,063138.004,2218.1069218,N,11411.2970057,E,5,22,1.0,8.013,M,-2.132,M,0.0,0000*6F
$GPESA,063138.004,-0.075,-0.025,-0.369,+0.000,+0.000,+0.000*76
$GPESD,063138.004,0.118,0.135,0.283,0.123,0.123,0.085,0.000,0.000,0.000*75
$GPRMC,063139.004,A,2218.1069139,N,11411.2969981,E,0.78,144.65,210521,0.0,E,R,V*62
$GPGGA,063139.004,2218.1069139,N,11411.2969981,E,5,23,1.0,7.973,M,-2.132,M,0.0,0000*65
$GPESA,063139.004,+0.005,+0.001,-0.402,+0.000,+0.000,+0.000*7C
$GPESD,063139.004,0.117,0.133,0.281,0.123,0.116,0.084,0.000,0.000,0.000*78
$GPRMC,063140.004,A,2218.1069114,N,11411.2970081,E,0.86,144.71,210521,0.0,E,R,V*66
$GPGGA,063140.004,2218.1069114,N,11411.2970081,E,5,23,1.0,7.947,M,-2.132,M,0.0,0000*62
$GPESA,063140.004,+0.023,+0.026,-0.440,+0.000,+0.000,+0.000*75
$GPESD,063140.004,0.115,0.131,0.277,0.121,0.116,0.084,0.000,0.000,0.000*7D
$GPRMC,063141.004,A,2218.1069090,N,11411.2970108,E,0.98,169.49,210521,0.0,E,R,V*61
$GPGGA,063141.004,2218.1069090,N,11411.2970108,E,5,23,1.0,7.925,M,-2.132,M,0.0,0000*6A
$GPESA,063141.004,+0.051,-0.039,-0.502,+0.000,+0.000,+0.000*7E
$GPESD,063141.004,0.114,0.129,0.273,0.122,0.116,0.084,0.000,0.000,0.000*73
$GPRMC,063142.004,A,2218.1069016,N,11411.2970260,E,0.81,169.46,210521,0.0,E,R,V*66
$GPGGA,063142.004,2218.1069016,N,11411.2970260,E,5,23,1.0,7.909,M,-2.132,M,0.0,0000*64
$GPESA,063142.004,+0.031,-0.124,-0.397,+0.000,+0.000,+0.000*7C
$GPESD,063142.004,0.112,0.128,0.269,0.118,0.121,0.084,0.000,0.000,0.000*71
$GPRMC,063143.004,A,2218.1069011,N,11411.2970261,E,0.92,169.43,210521,0.0,E,R,V*66
$GPGGA,063143.004,2218.1069011,N,11411.2970261,E,5,23,1.0,7.878,M,-2.132,M,0.0,0000*64
$GPESA,063143.004,-0.020,-0.067,-0.468,+0.000,+0.000,+0.000*7A
$GPESD,063143.004,0.111,0.126,0.265,0.117,0.121,0.084,0.000,0.000,0.000*7E
$GPRMC,063144.004,A,2218.1069019,N,11411.2970347,E,0.74,174.23,210521,0.0,E,R,V*6E
$GPGGA,063144.004,2218.1069019,N,11411.2970347,E,5,24,1.0,7.892,M,-2.132,M,0.0,0000*6D
$GPESA,063144.004,+0.003,-0.095,-0.370,+0.000,+0.000,+0.000*79
$GPESD,063144.004,0.109,0.124,0.261,0.118,0.115,0.083,0.000,0.000,0.000*79
$GPRMC,063145.004,A,2218.1068906,N,11411.2970481,E,0.98,169.42,210521,0.0,E,R,V*6D
$GPGGA,063145.004,2218.1068906,N,11411.2970481,E,5,23,1.0,7.845,M,-2.132,M,0.0,0000*6A
$GPESA,063145.004,+0.195,+0.072,-0.460,+0.000,+0.000,+0.000*7F
$GPESD,063145.004,0.107,0.123,0.258,0.122,0.116,0.083,0.000,0.000,0.000*71
$GPRMC,063146.004,A,2218.1070080,N,11411.2971854,E,1.11,129.78,210521,0.0,E,R,V*68
$GPGGA,063146.004,2218.1070080,N,11411.2971854,E,5,22,1.0,7.827,M,-2.132,M,0.0,0000*67
$GPESA,063146.004,+0.243,+0.222,-0.464,+0.000,+0.000,+0.000*77
$GPESD,063146.004,0.107,0.121,0.254,0.124,0.130,0.085,0.000,0.000,0.000*78
$GPRMC,063147.004,A,2218.1074299,N,11411.2976536,E,3.49,245.55,210521,0.0,E,R,V*60
$GPGGA,063147.004,2218.1074299,N,11411.2976536,E,5,22,1.0,7.851,M,-2.132,M,0.0,0000*67
$GPESA,063147.004,+1.106,+1.343,-0.450,+0.000,+0.000,+0.000*75
$GPESD,063147.004,0.105,0.120,0.253,0.142,0.126,0.085,0.000,0.000,0.000*7A
$GPRMC,063148.004,A,2218.1083452,N,11411.2986390,E,5.86,251.28,210521,0.0,E,R,V*69
$GPGGA,063148.004,2218.1083452,N,11411.2986390,E,5,22,1.0,7.747,M,-2.132,M,0.0,0000*6C
$GPESA,063148.004,+1.996,+2.201,-0.509,+0.000,+0.000,+0.000*72
$GPESD,063148.004,0.104,0.119,0.254,0.136,0.122,0.084,0.000,0.000,0.000*7F
$GPRMC,063149.004,A,2218.1096972,N,11411.3000267,E,7.81,252.91,210521,0.0,E,R,V*68
$GPGGA,063149.004,2218.1096972,N,11411.3000267,E,5,22,1.0,7.624,M,-2.132,M,0.0,0000*6D
$GPESA,063149.004,+2.707,+2.908,-0.583,+0.000,+0.000,+0.000*76
$GPESD,063149.004,0.103,0.118,0.249,0.133,0.118,0.086,0.000,0.000,0.000*7A
$GPRMC,063150.004,A,2218.1115053,N,11411.3017427,E,8.81,254.08,210521,0.0,E,R,V*6D
$GPGGA,063150.004,2218.1115053,N,11411.3017427,E,5,22,1.0,7.627,M,-2.132,M,0.0,0000*62
$GPESA,063150.004,+2.901,+3.451,-0.448,+0.000,+0.000,+0.000*70
$GPESD,063150.004,0.103,0.118,0.253,0.150,0.124,0.084,0.000,0.000,0.000*71
$GPRMC,063151.004,A,2218.1137005,N,11411.3035820,E,10.26,252.17,210521,0.0,E,R,V*58
$GPGGA,063151.004,2218.1137005,N,11411.3035820,E,5,22,1.0,7.605,M,-2.132,M,0.0,0000*6B
$GPESA,063151.004,+3.166,+4.188,-0.565,+0.000,+0.000,+0.000*71
$GPESD,063151.004,0.102,0.118,0.253,0.125,0.134,0.086,0.000,0.000,0.000*70
$GPRMC,063152.004,A,2218.1162614,N,11411.3055329,E,11.67,252.52,210521,0.0,E,R,V*5C
$GPGGA,063152.004,2218.1162614,N,11411.3055329,E,5,21,1.0,7.485,M,-2.132,M,0.0,0000*63
$GPESA,063152.004,+3.411,+4.915,-0.479,+0.000,+0.000,+0.000*77
$GPESD,063152.004,0.100,0.116,0.247,0.120,0.133,0.085,0.000,0.000,0.000*7B
$GPRMC,063153.004,A,2218.1192428,N,11411.3074561,E,12.64,250.33,210521,0.0,E,R,V*53
$GPGGA,063153.004,2218.1192428,N,11411.3074561,E,5,21,1.0,7.402,M,-2.132,M,0.0,0000*66
$GPESA,063153.004,+3.184,+5.650,-0.438,+0.000,+0.000,+0.000*75
$GPESD,063153.004,0.099,0.116,0.246,0.124,0.134,0.086,0.000,0.000,0.000*7A
$GPRMC,063154.004,A,2218.1224346,N,11411.3092505,E,12.89,247.33,210521,0.0,E,R,V*5A
$GPGGA,063154.004,2218.1224346,N,11411.3092505,E,5,21,1.0,7.326,M,-2.131,M,0.0,0000*68
$GPESA,063154.004,+2.859,+5.961,-0.530,+0.000,+0.000,+0.000*7E
$GPESD,063154.004,0.097,0.114,0.242,0.127,0.134,0.086,0.000,0.000,0.000*76
$GPRMC,063155.004,A,2218.1258298,N,11411.3108323,E,13.11,246.13,210521,0.0,E,R,V*51
$GPGGA,063155.004,2218.1258298,N,11411.3108323,E,5,21,1.0,7.246,M,-2.131,M,0.0,0000*67
$GPESA,063155.004,+2.586,+6.213,-0.456,+0.000,+0.000,+0.000*7C
$GPESD,063155.004,0.095,0.113,0.239,0.137,0.143,0.087,0.000,0.000,0.000*7E
$GPRMC,063156.004,A,2218.1292915,N,11411.3121937,E,12.77,243.92,210521,0.0,E,R,V*53
$GPGGA,063156.004,2218.1292915,N,11411.3121937,E,5,21,1.0,7.081,M,-2.132,M,0.0,0000*62
$GPESA,063156.004,+2.173,+6.182,-0.441,+0.000,+0.000,+0.000*7C
$GPESD,063156.004,0.093,0.112,0.237,0.122,0.136,0.086,0.000,0.000,0.000*73
$GPRMC,063157.004,A,2218.1326154,N,11411.3132567,E,11.88,238.21,210521,0.0,E,R,V*5D
