$GPRMC,062845.004,A,2024.7683636,N,13039.1973966,E,523.14,267.60,210521,0.0,E,D,V*72
$GPGGA,062845.004,2024.7683636,N,13039.1973966,E,2,26,1.0,-1292509.009,M,37.666,M,0.0,0000*5F
$GPESA,062845.004,+123.915,+237.496,+25.892,+0.000,+0.000,+0.000*4F
$GPESD,062845.004,0.000,0.000,0.000,0.000,0.000,0.000,0.000,0.000,0.000*7C
$GPRMC,062846.004,A,2024.8581555,N,13039.4632101,E,521.94,267.60,210521,0.0,E,D,V*75
$GPGGA,062846.004,2024.8581555,N,13039.4632101,E,2,26,1.0,-1293023.175,M,37.668,M,0.0,0000*5A
$GPESA,062846.004,+123.635,+236.949,+25.824,+0.000,+0.000,+0.000*42
$GPESD,062846.004,0.000,0.000,0.000,0.000,0.000,0.000,0.000,0.000,0.000*7F
$GPRMC,062847.004,A,1702.1995755,N,12806.3773715,E,175.21,261.33,210521,0.0,E,D,V*78
$GPGGA,062847.004,1702.1995755,N,12806.3773715,E,2,26,1.0,-219028.006,M,42.960,M,0.0,0000*64
$GPESA,062847.004,+69.184,+56.110,-13.759,+0.000,+0.000,+0.000*47
$GPESD,062847.004,0.000,0.000,0.000,0.000,0.000,0.000,0.000,0.000,0.000*7E
$GPRMC,062848.004,A,1702.1267632,N,12806.4123731,E,175.24,261.33,210521,0.0,E,D,V*76
$GPGGA,062848.004,1702.1267632,N,12806.4123731,E,2,26,1.0,-218985.374,M,42.963,M,0.0,0000*65
$GPESA,062848.004,+69.207,+56.108,-13.774,+0.000,+0.000,+0.000*46
$GPESD,062848.004,0.000,0.000,0.000,0.000,0.000,0.000,0.000,0.000,0.000*71
$GPRMC,062849.004,A,1702.2302329,N,12806.1281267,E,175.08,261.18,210521,0.0,E,D,V*76
$GPGGA,062849.004,1702.2302329,N,12806.1281267,E,2,26,1.0,-220085.878,M,42.958,M,0.0,0000*6F
$GPESA,062849.004,+68.997,+56.191,-13.939,+0.000,+0.000,+0.000*43
$GPESD,062849.004,0.000,0.000,0.000,0.000,0.000,0.000,0.000,0.000,0.000*70
$GPRMC,062850.004,A,2025.2189545,N,13040.5243309,E,523.35,267.62,210521,0.0,E,D,V*78
$GPGGA,062850.004,2025.2189545,N,13040.5243309,E,2,26,1.0,-1295086.928,M,37.674,M,0.0,0000*58
$GPESA,062850.004,+123.784,+237.673,+26.029,+0.000,+0.000,+0.000*4F
$GPESD,062850.004,0.000,0.000,0.000,0.000,0.000,0.000,0.000,0.000,0.000*78
$GPRMC,062851.004,A,1331.4196366,N,11903.8906684,E,513.85,244.41,210521,0.0,E,D,V*70
$GPGGA,062851.004,1331.4196366,N,11903.8906684,E,2,26,1.0,-839235.858,M,35.995,M,0.0,0000*6B
$GPESA,062851.004,+144.751,+204.150,-85.144,+0.000,+0.000,+0.000*44
$GPESD,062851.004,0.000,0.000,0.000,0.000,0.000,0.000,0.000,0.000,0.000*79
$GPRMC,062852.004,A,1701.7843182,N,12806.5246472,E,174.02,261.00,210521,0.0,E,D,V*78
$GPGGA,062852.004,1701.7843182,N,12806.5246472,E,2,26,1.0,-218761.890,M,42.974,M,0.0,0000*6D
$GPESA,062852.004,+68.153,+56.354,-13.941,+0.000,+0.000,+0.000*4D
$GPESD,062852.004,0.000,0.000,0.000,0.000,0.000,0.000,0.000,0.000,0.000*7A
$GPRMC,062853.004,A,1701.7127493,N,12806.5548501,E,173.38,260.89,210521,0.0,E,D,V*75
$GPGGA,062853.004,1701.7127493,N,12806.5548501,E,2,26,1.0,-218731.861,M,42.977,M,0.0,0000*66
$GPESA,062853.004,+67.621,+56.465,-13.937,+0.000,+0.000,+0.000*45
$GPESD,062853.004,0.000,0.000,0.000,0.000,0.000,0.000,0.000,0.000,0.000*7B
$GPRMC,062854.004,A,1701.6291322,N,12806.5865788,E,173.67,260.75,210521,0.0,E,D,V*78
$GPGGA,062854.004,1701.6291322,N,12806.5865788,E,2,26,1.0,-218671.067,M,42.980,M,0.0,0000*61
$GPESA,062854.004,+67.536,+56.763,-14.098,+0.000,+0.000,+0.000*49
$GPESD,062854.004,0.000,0.000,0.000,0.000,0.000,0.000,0.000,0.000,0.000*7C
$GPRMC,062855.004,A,1658.9981400,N,12812.8402460,E,173.65,260.97,210521,0.0,E,D,V*78
$GPGGA,062855.004,1658.9981400,N,12812.8402460,E,2,26,1.0,-198257.866,M,43.102,M,0.0,0000*6E
$GPESA,062855.004,+68.281,+55.842,-14.148,+0.000,+0.000,+0.000*4F
$GPESD,062855.004,0.000,0.000,0.000,0.000,0.000,0.000,0.000,0.000,0.000*7D
$GPRMC,062856.004,A,1658.9137141,N,12812.8650420,E,175.06,261.35,210521,0.0,E,D,V*75
$GPGGA,062856.004,1658.9137141,N,12812.8650420,E,2,26,1.0,-198212.783,M,43.105,M,0.0,0000*6B
$GPESA,062856.004,+69.001,+56.230,-13.701,+0.000,+0.000,+0.000*47
$GPESD,062856.004,0.000,0.000,0.000,0.000,0.000,0.000,0.000,0.000,0.000*7E
$GPRMC,062857.004,A,1701.2311795,N,12828.9752576,E,142.60,174.60,210521,0.0,E,D,V*71
$GPGGA,062857.004,1701.2311795,N,12828.9752576,E,2,27,1.0,-165553.866,M,43.104,M,0.0,0000*68
$GPESA,062857.004,-16.307,+9.432,-70.899,+0.000,+0.000,+0.000*78
$GPESD,062857.004,0.000,0.000,0.000,0.000,0.000,0.000,0.000,0.000,0.000*7F
$GPRMC,062858.004,A,1701.1635689,N,12829.0299943,E,142.93,174.67,210521,0.0,E,D,V*79
$GPGGA,062858.004,1701.1635689,N,12829.0299943,E,2,27,1.0,-165475.757,M,43.107,M,0.0,0000*60
$GPESA,062858.004,-16.577,+9.886,-70.949,+0.000,+0.000,+0.000*79
$GPESD,062858.004,0.000,0.000,0.000,0.000,0.000,0.000,0.000,0.000,0.000*70
$GPRMC,062859.004,A,1701.0963399,N,12829.0842232,E,142.85,175.43,210521,0.0,E,D,V*70
$GPGGA,062859.004,1701.0963399,N,12829.0842232,E,2,27,1.0,-165398.373,M,43.109,M,0.0,0000*61
$GPESA,062859.004,-16.196,+10.979,-70.838,+0.000,+0.000,+0.000*4D
$GPESD,062859.004,0.000,0.000,0.000,0.000,0.000,0.000,0.000,0.000,0.000*71
$GPRMC,062900.004,A,1704.1861284,N,12819.8949733,E,257.79,123.04,210521,0.0,E,D,V*76
$GPGGA,062900.004,1704.1861284,N,12819.8949733,E,2,26,1.0,-194535.352,M,42.964,M,0.0,0000*6C
$GPESA,062900.004,-104.506,-46.806,-66.900,+0.000,+0.000,+0.000*7E
$GPESD,062900.004,0.000,0.000,0.000,0.000,0.000,0.000,0.000,0.000,0.000*7C
$GPRMC,062901.004,A,1704.1212368,N,12819.9382283,E,258.47,123.27,210521,0.0,E,D,V*7B
$GPGGA,062901.004,1704.1212368,N,12819.9382283,E,2,26,1.0,-194486.087,M,42.966,M,0.0,0000*62
$GPESA,062901.004,-104.894,-46.276,-67.357,+0.000,+0.000,+0.000*7D
$GPESD,062901.004,0.000,0.000,0.000,0.000,0.000,0.000,0.000,0.000,0.000*7D
$GPRMC,062902.004,A,1704.0565625,N,12819.9812180,E,342.83,137.14,210521,0.0,E,D,V*77
$GPGGA,062902.004,1704.0565625,N,12819.9812180,E,2,26,1.0,-194437.041,M,42.968,M,0.0,0000*67
$GPESA,062902.004,-120.236,-41.285,-122.243,+0.000,+0.000,+0.000*45
$GPESD,062902.004,0.000,0.000,0.000,0.000,0.000,0.000,0.000,0.000,0.000*7E
$GPRMC,062903.004,A,1658.3298429,N,12813.0319460,E,176.51,260.24,210521,0.0,E,D,V*76
$GPGGA,062903.004,1658.3298429,N,12813.0319460,E,2,26,1.0,-197912.178,M,43.128,M,0.0,0000*61
$GPESA,062903.004,+67.053,+59.492,-14.488,+0.000,+0.000,+0.000*4B
$GPESD,062903.004,0.000,0.000,0.000,0.000,0.000,0.000,0.000,0.000,0.000*7F
$GPRMC,062904.004,A,1658.2477970,N,12813.0552531,E,177.32,260.48,210521,0.0,E,D,V*74
$GPGGA,062904.004,1658.2477970,N,12813.0552531,E,2,26,1.0,-197870.623,M,43.131,M,0.0,0000*69
$GPESA,062904.004,+67.130,+60.150,-14.024,+0.000,+0.000,+0.000*4B
$GPESD,062904.004,0.000,0.000,0.000,0.000,0.000,0.000,0.000,0.000,0.000*78
$GPRMC,062905.004,A,1707.0290712,N,12812.4100984,E,138.81,219.21,210521,0.0,E,D,V*7F
$GPGGA,062905.004,1707.0290712,N,12812.4100984,E,2,26,1.0,-219505.951,M,42.833,M,0.0,0000*6A
$GPESA,062905.004,+24.527,+41.808,-52.443,+0.000,+0.000,+0.000*4F
$GPESD,062905.004,0.000,0.000,0.000,0.000,0.000,0.000,0.000,0.000,0.000*79
$GPRMC,062906.004,A,2032.0184931,N,12938.2138159,E,549.99,110.59,210521,0.0,E,D,V*75
$GPGGA,062906.004,2032.0184931,N,12938.2138159,E,2,25,1.0,-1368038.653,M,36.819,M,0.0,0000*56
$GPESA,062906.004,-118.767,-221.982,-129.129,+0.000,+0.000,+0.000*77
$GPESD,062906.004,0.000,0.000,0.000,0.000,0.000,0.000,0.000,0.000,0.000*7A
$GPRMC,062907.004,A,2050.5824593,N,12851.8664451,E,232.23,163.34,210521,0.0,E,D,V*70
$GPGGA,062907.004,2050.5824593,N,12851.8664451,E,2,25,1.0,-1440853.646,M,36.054,M,0.0,0000*5B
$GPESA,062907.004,-69.340,+33.522,-91.330,+0.000,+0.000,+0.000*49
$GPESD,062907.004,0.000,0.000,0.000,0.000,0.000,0.000,0.000,0.000,0.000*7B
$GPRMC,062908.004,A,1058.0549730,N,11123.8830814,E,364.07,216.36,210521,0.0,E,D,V*76
$GPGGA,062908.004,1058.0549730,N,11123.8830814,E,2,23,1.0,-1304228.626,M,13.729,M,0.0,0000*51
$GPESA,062908.004,+31.959,+158.333,-94.802,+0.000,+0.000,+0.000*7A
$GPESD,062908.004,0.000,0.000,0.000,0.000,0.000,0.000,0.000,0.000,0.000*74
$GPRMC,062909.004,A,1057.8261759,N,11123.8619763,E,363.92,216.57,210521,0.0,E,D,V*74
$GPGGA,062909.004,1057.8261759,N,11123.8619763,E,2,23,1.0,-1304360.317,M,13.738,M,0.0,0000*55
$GPESA,062909.004,+32.524,+158.244,-94.612,+0.000,+0.000,+0.000*70
$GPESD,062909.004,0.000,0.000,0.000,0.000,0.000,0.000,0.000,0.000,0.000*75
$GPRMC,062910.004,A,1127.7851166,N,12419.9458333,E,424.81,192.41,210521,0.0,E,D,V*70
$GPGGA,062910.004,1127.7851166,N,12419.9458333,E,2,22,1.0,-721996.967,M,61.183,M,0.0,0000*61
$GPESA,062910.004,-24.527,+114.816,-184.325,+0.000,+0.000,+0.000*4E
$GPESD,062910.004,0.000,0.000,0.000,0.000,0.000,0.000,0.000,0.000,0.000*7D
$GPRMC,062911.004,A,2153.0176541,N,10333.5422389,E,371.07,180.10,210521,0.0,E,D,V*78
$GPGGA,062911.004,2153.0176541,N,10333.5422389,E,2,21,1.0,-1370518.054,M,-31.432,M,0.0,0000*71
$GPESA,062911.004,-39.964,+166.725,-83.940,+0.000,+0.000,+0.000*7D
$GPESD,062911.004,0.000,0.000,0.000,0.000,0.000,0.000,0.000,0.000,0.000*7C
$GPRMC,062912.004,A,2153.0809639,N,10333.5677807,E,369.46,179.55,210521,0.0,E,D,V*72
$GPGGA,062912.004,2153.0809639,N,10333.5677807,E,2,21,1.0,-1370623.488,M,-31.431,M,0.0,0000*7D
$GPESA,062912.004,-41.091,+165.597,-83.747,+0.000,+0.000,+0.000*73
$GPESD,062912.004,0.000,0.000,0.000,0.000,0.000,0.000,0.000,0.000,0.000*7F
$GPRMC,062913.004,A,2153.1432747,N,10333.5968986,E,346.50,236.25,210521,0.0,E,D,V*72
$GPGGA,062913.004,2153.1432747,N,10333.5968986,E,2,21,1.0,-1370728.961,M,-31.430,M,0.0,0000*79
$GPESA,062913.004,+69.970,+162.784,-19.492,+0.000,+0.000,+0.000*77
$GPESD,062913.004,0.000,0.000,0.000,0.000,0.000,0.000,0.000,0.000,0.000*7E
$GPRMC,062914.004,A,1133.4593863,N,12419.4950799,E,478.11,234.70,210521,0.0,E,D,V*7C
$GPGGA,062914.004,1133.4593863,N,12419.4950799,E,2,22,1.0,-725118.241,M,60.792,M,0.0,0000*62
$GPESA,062914.004,+62.921,+217.252,-96.639,+0.000,+0.000,+0.000*74
$GPESD,062914.004,0.000,0.000,0.000,0.000,0.000,0.000,0.000,0.000,0.000*79
$GPRMC,062915.004,A,2141.0134763,N,10247.8179104,E,451.83,208.35,210521,0.0,E,D,V*75
$GPGGA,062915.004,2141.0134763,N,10247.8179104,E,2,22,1.0,-1363914.485,M,-32.927,M,0.0,0000*72
$GPESA,062915.004,-3.178,+232.338,-6.101,+0.000,+0.000,+0.000*7F
$GPESD,062915.004,0.000,0.000,0.000,0.000,0.000,0.000,0.000,0.000,0.000*78
$GPRMC,062916.004,A,2141.0716609,N,10247.8843247,E,449.73,208.33,210521,0.0,E,D,V*79
$GPGGA,062916.004,2141.0716609,N,10247.8843247,E,2,22,1.0,-1364025.126,M,-32.926,M,0.0,0000*7F
$GPESA,062916.004,-3.171,+231.256,-6.125,+0.000,+0.000,+0.000*79
$GPESD,062916.004,0.000,0.000,0.000,0.000,0.000,0.000,0.000,0.000,0.000*7B
$GPRMC,062917.004,A,1219.2871426,N,11217.0054556,E,617.10,221.11,210521,0.0,E,D,V*74
$GPGGA,062917.004,1219.2871426,N,11217.0054556,E,2,23,1.0,-1334867.199,M,13.728,M,0.0,0000*55
$GPESA,062917.004,+3.778,+307.455,-78.992,+0.000,+0.000,+0.000*4D
$GPESD,062917.004,0.000,0.000,0.000,0.000,0.000,0.000,0.000,0.000,0.000*7A
$GPRMC,062918.004,A,1104.9742308,N,12424.0569298,E,406.56,220.18,210521,0.0,E,D,V*78
$GPGGA,062918.004,1104.9742308,N,12424.0569298,E,2,22,1.0,-701421.171,M,62.904,M,0.0,0000*6D
$GPESA,062918.004,+21.036,+174.184,-113.849,+0.000,+0.000,+0.000*4B
$GPESD,062918.004,0.000,0.000,0.000,0.000,0.000,0.000,0.000,0.000,0.000*75
$GPRMC,062919.004,A,3528.0807107,N,10557.7083641,E,420.60,59.15,210521,0.0,E,D,V*4A
$GPGGA,062919.004,3528.0807107,N,10557.7083641,E,2,22,1.0,-505523.769,M,-37.310,M,0.0,0000*47
$GPESA,062919.004,-167.990,-55.113,+124.743,+0.000,+0.000,+0.000*47
$GPESD,062919.004,0.000,0.000,0.000,0.000,0.000,0.000,0.000,0.000,0.000*74
$GPRMC,062920.004,A,3527.0910577,N,10551.5719278,E,831.79,77.69,210521,0.0,E,D,V*46
$GPGGA,062920.004,3527.0910577,N,10551.5719278,E,2,22,1.0,-508698.484,M,-37.576,M,0.0,0000*40
$GPESA,062920.004,-365.336,+73.600,+210.283,+0.000,+0.000,+0.000*41
$GPESD,062920.004,0.000,0.000,0.000,0.000,0.000,0.000,0.000,0.000,0.000*7E
$GPRMC,062921.004,A,3525.9990471,N,10544.7949757,E,829.86,78.05,210521,0.0,E,D,V*4A
$GPGGA,062921.004,3525.9990471,N,10544.7949757,E,2,22,1.0,-512160.871,M,-37.864,M,0.0,0000*43
$GPESA,062921.004,-361.621,+82.956,+211.203,+0.000,+0.000,+0.000*4C
$GPESD,062921.004,0.000,0.000,0.000,0.000,0.000,0.000,0.000,0.000,0.000*7F
$GPRMC,062922.004,A,3524.8310626,N,10537.4083150,E,828.20,78.31,210521,0.0,E,D,V*48
$GPGGA,062922.004,3524.8310626,N,10537.4083150,E,2,22,1.0,-515825.563,M,-38.173,M,0.0,0000*4A
$GPESA,062922.004,-358.571,+90.009,+211.785,+0.000,+0.000,+0.000*48
$GPESD,062922.004,0.000,0.000,0.000,0.000,0.000,0.000,0.000,0.000,0.000*7C
$GPRMC,062923.004,A,3521.7250104,N,10519.9042973,E,827.04,78.79,210521,0.0,E,D,V*41
$GPGGA,062923.004,3521.7250104,N,10519.9042973,E,2,22,1.0,-525202.199,M,-38.880,M,0.0,0000*4E
$GPESA,062923.004,-354.199,+101.767,+212.620,+0.000,+0.000,+0.000*7C
$GPESD,062923.004,0.000,0.000,0.000,0.000,0.000,0.000,0.000,0.000,0.000*7D
$GPRMC,062924.004,A,0807.5952776,N,12416.8456365,E,735.55,253.37,210521,0.0,E,D,V*7C
$GPGGA,062924.004,0807.5952776,N,12416.8456365,E,2,22,1.0,-623729.719,M,70.077,M,0.0,0000*6C
$GPESA,062924.004,+274.287,+239.511,-102.897,+0.000,+0.000,+0.000*7F
$GPESD,062924.004,0.000,0.000,0.000,0.000,0.000,0.000,0.000,0.000,0.000*7A
$GPRMC,062925.004,A,2354.0777625,N,09739.8568924,E,406.10,171.50,210521,0.0,E,D,V*7E
$GPGGA,062925.004,2354.0777625,N,09739.8568924,E,2,23,1.0,-1667321.303,M,-43.770,M,0.0,0000*70
$GPESA,062925.004,-47.529,+189.784,-73.266,+0.000,+0.000,+0.000*7C
$GPESD,062925.004,0.000,0.000,0.000,0.000,0.000,0.000,0.000,0.000,0.000*7B
$GPRMC,062926.004,A,0311.7568382,N,12933.2689629,E,797.51,199.04,210521,0.0,E,D,V*7E
$GPGGA,062926.004,0311.7568382,N,12933.2689629,E,2,22,1.0,-281666.008,M,70.111,M,0.0,0000*67
$GPESA,062926.004,+4.411,+194.530,-361.198,+0.000,+0.000,+0.000*77
$GPESD,062926.004,0.000,0.000,0.000,0.000,0.000,0.000,0.000,0.000,0.000*78
$GPRMC,062927.004,A,0312.2290315,N,12933.6510449,E,640.31,236.67,210521,0.0,E,D,V*7A
$GPGGA,062927.004,0312.2290315,N,12933.6510449,E,2,22,1.0,-281120.646,M,70.134,M,0.0,0000*63
$GPESA,062927.004,+207.011,+181.559,-180.800,+0.000,+0.000,+0.000*7D
$GPESD,062927.004,0.000,0.000,0.000,0.000,0.000,0.000,0.000,0.000,0.000*79
$GPRMC,062928.004,A,0312.7012784,N,12934.0326572,E,796.38,198.87,210521,0.0,E,D,V*75
$GPGGA,062928.004,0312.7012784,N,12934.0326572,E,2,22,1.0,-280575.575,M,70.156,M,0.0,0000*64
$GPESA,062928.004,+3.026,+194.110,-360.779,+0.000,+0.000,+0.000*70
$GPESD,062928.004,0.000,0.000,0.000,0.000,0.000,0.000,0.000,0.000,0.000*76
$GPRMC,062929.004,A,1217.5652223,N,10953.0506149,E,271.86,165.56,210521,0.0,E,D,V*75
$GPGGA,062929.004,1217.5652223,N,10953.0506149,E,2,21,1.0,-1279025.305,M,5.003,M,0.0,0000*65
$GPESA,062929.004,-61.288,+84.362,-93.203,+0.000,+0.000,+0.000*45
$GPESD,062929.004,0.000,0.000,0.000,0.000,0.000,0.000,0.000,0.000,0.000*77
$GPRMC,062930.004,A,1204.2933591,N,11010.1537962,E,437.37,203.27,210521,0.0,E,D,V*78
$GPGGA,062930.004,1204.2933591,N,11010.1537962,E,2,22,1.0,-1285313.263,M,6.234,M,0.0,0000*61
$GPESA,062930.004,-14.019,+203.962,-93.967,+0.000,+0.000,+0.000*7B
$GPESD,062930.004,0.000,0.000,0.000,0.000,0.000,0.000,0.000,0.000,0.000*7F
$GPRMC,062931.004,A,1240.1797315,N,11013.0876492,E,423.22,198.97,210521,0.0,E,D,V*73
$GPGGA,062931.004,1240.1797315,N,11013.0876492,E,2,21,1.0,-1290040.018,M,4.871,M,0.0,0000*64
$GPESA,062931.004,-25.199,+197.083,-89.032,+0.000,+0.000,+0.000*7B
$GPESD,062931.004,0.000,0.000,0.000,0.000,0.000,0.000,0.000,0.000,0.000*7E
$GPRMC,062932.004,A,1417.6424160,N,12335.2519215,E,395.72,250.79,210521,0.0,E,D,V*7B
$GPGGA,062932.004,1417.6424160,N,12335.2519215,E,2,19,1.0,-659950.671,M,49.097,M,0.0,0000*67
$GPESA,062932.004,+131.035,+145.471,-55.769,+0.000,+0.000,+0.000*43
$GPESD,062932.004,0.000,0.000,0.000,0.000,0.000,0.000,0.000,0.000,0.000*7D
$GPRMC,062933.004,A,2006.4001089,N,10414.1351442,E,526.06,107.60,210521,0.0,E,D,V*75
$GPGGA,062933.004,2006.4001089,N,10414.1351442,E,2,18,1.0,-1496049.344,M,-29.449,M,0.0,0000*72
$GPESA,062933.004,-251.310,+99.087,-16.286,+0.000,+0.000,+0.000*7B
$GPESD,062933.004,0.000,0.000,0.000,0.000,0.000,0.000,0.000,0.000,0.000*7C
$GPRMC,062934.004,A,1933.3425489,N,12344.0300417,E,727.12,116.77,210521,0.0,E,D,V*7A
$GPGGA,062934.004,1933.3425489,N,12344.0300417,E,2,19,1.0,-1510964.017,M,31.246,M,0.0,0000*5D
$GPESA,062934.004,-313.654,-131.511,-155.726,+0.000,+0.000,+0.000*78
$GPESD,062934.004,0.000,0.000,0.000,0.000,0.000,0.000,0.000,0.000,0.000*7B
$GPRMC,062935.004,A,1438.5242569,N,12531.0097342,E,282.21,110.89,210521,0.0,E,D,V*70
$GPGGA,062935.004,1438.5242569,N,12531.0097342,E,2,20,1.0,-478901.620,M,44.361,M,0.0,0000*69
$GPESA,062935.004,+12.727,-133.070,-56.643,+0.000,+0.000,+0.000*78
$GPESD,062935.004,0.000,0.000,0.000,0.000,0.000,0.000,0.000,0.000,0.000*7A
$GPRMC,062936.004,A,1616.3160543,N,10954.3468337,E,102.72,76.52,210521,0.0,E,D,V*42
$GPGGA,062936.004,1616.3160543,N,10954.3468337,E,2,19,1.0,-1289445.371,M,-6.934,M,0.0,0000*4F
$GPESA,062936.004,-39.547,-34.406,+6.694,+0.000,+0.000,+0.000*7A
$GPESD,062936.004,0.000,0.000,0.000,0.000,0.000,0.000,0.000,0.000,0.000*79
$GPRMC,062937.004,A,1350.3251802,N,11657.3563013,E,117.85,201.79,210521,0.0,E,D,V*78
$GPGGA,062937.004,1350.3251802,N,11657.3563013,E,2,21,1.0,-1425283.367,M,30.095,M,0.0,0000*58
$GPESA,062937.004,+4.349,+38.305,-46.794,+0.000,+0.000,+0.000*76
$GPESD,062937.004,0.000,0.000,0.000,0.000,0.000,0.000,0.000,0.000,0.000*78
$GPRMC,062938.004,A,1803.6228378,N,11545.6093835,E,200.70,79.33,210521,0.0,E,D,V*48
$GPGGA,062938.004,1803.6228378,N,11545.6093835,E,2,22,1.0,-1402758.629,M,12.220,M,0.0,0000*52
$GPESA,062938.004,-89.652,-47.625,+18.827,+0.000,+0.000,+0.000*46
$GPESD,062938.004,0.000,0.000,0.000,0.000,0.000,0.000,0.000,0.000,0.000*77
$GPRMC,062939.004,A,1349.9580827,N,11657.8066053,E,241.57,239.30,210521,0.0,E,D,V*7E
$GPGGA,062939.004,1349.9580827,N,11657.8066053,E,2,23,1.0,-1425648.010,M,30.142,M,0.0,0000*5E
$GPESA,062939.004,+84.055,+69.783,-59.237,+0.000,+0.000,+0.000*42
$GPESD,062939.004,0.000,0.000,0.000,0.000,0.000,0.000,0.000,0.000,0.000*76
$GPRMC,062940.004,A,1614.3978690,N,10959.4099182,E,275.28,155.89,210521,0.0,E,D,V*7B
$GPGGA,062940.004,1614.3978690,N,10959.4099182,E,2,22,1.0,-1292221.523,M,-6.657,M,0.0,0000*41
$GPESA,062940.004,-80.792,+73.185,-90.396,+0.000,+0.000,+0.000*46
$GPESD,062940.004,0.000,0.000,0.000,0.000,0.000,0.000,0.000,0.000,0.000*78
$GPRMC,062941.004,A,1128.7818523,N,11243.6462218,E,211.73,212.98,210521,0.0,E,D,V*75
$GPGGA,062941.004,1128.7818523,N,11243.6462218,E,2,23,1.0,-1343162.486,M,17.878,M,0.0,0000*5B
$GPESA,062941.004,+50.006,+33.834,-90.655,+0.000,+0.000,+0.000*4B
$GPESD,062941.004,0.000,0.000,0.000,0.000,0.000,0.000,0.000,0.000,0.000*79
$GPRMC,062942.004,A,2440.0494217,N,11731.7810582,E,160.43,15.64,210521,0.0,E,D,V*4D
$GPGGA,062942.004,2440.0494217,N,11731.7810582,E,2,24,1.0,-2442351.496,M,7.398,M,0.0,0000*66
$GPESA,062942.004,-8.699,-31.078,+75.961,+0.000,+0.000,+0.000*72
$GPESD,062942.004,0.000,0.000,0.000,0.000,0.000,0.000,0.000,0.000,0.000*7A
$GPRMC,062943.004,A,1613.9632635,N,12829.3599780,E,521.39,72.73,210521,0.0,E,D,V*4E
$GPGGA,062943.004,1613.9632635,N,12829.3599780,E,2,23,1.0,-391722.820,M,44.854,M,0.0,0000*6F
$GPESA,062943.004,-55.855,-261.768,+17.384,+0.000,+0.000,+0.000*71
$GPESD,062943.004,0.000,0.000,0.000,0.000,0.000,0.000,0.000,0.000,0.000*7B
$GPRMC,062944.004,A,2502.7966192,N,11748.7654866,E,172.15,16.81,210521,0.0,E,D,V*4A
$GPGGA,062944.004,2502.7966192,N,11748.7654866,E,2,24,1.0,-2475670.757,M,8.120,M,0.0,0000*6B
$GPESA,062944.004,-6.127,-43.266,+77.032,+0.000,+0.000,+0.000*7D
$GPESD,062944.004,0.000,0.000,0.000,0.000,0.000,0.000,0.000,0.000,0.000*7C
$GPRMC,062945.004,A,2503.0433958,N,11749.1911359,E,172.82,16.37,210521,0.0,E,D,V*43
$GPGGA,062945.004,2503.0433958,N,11749.1911359,E,2,24,1.0,-2476495.683,M,8.140,M,0.0,0000*65
$GPESA,062945.004,-5.244,-43.740,+77.224,+0.000,+0.000,+0.000*7D
$GPESD,062945.004,0.000,0.000,0.000,0.000,0.000,0.000,0.000,0.000,0.000*7D
$GPRMC,062946.004,A,1613.8047404,N,12803.4699019,E,525.51,89.57,210521,0.0,E,D,V*4D
$GPGGA,062946.004,1613.8047404,N,12803.4699019,E,2,24,1.0,-433980.099,M,44.765,M,0.0,0000*6D
$GPESA,062946.004,-123.158,-238.700,-30.698,+0.000,+0.000,+0.000*49
$GPESD,062946.004,0.000,0.000,0.000,0.000,0.000,0.000,0.000,0.000,0.000*7E
$GPRMC,062947.004,A,1613.7455759,N,12803.7202554,E,523.94,89.68,210521,0.0,E,D,V*45
$GPGGA,062947.004,1613.7455759,N,12803.7202554,E,2,24,1.0,-433820.500,M,44.768,M,0.0,0000*65
$GPESA,062947.004,-122.673,-237.979,-31.100,+0.000,+0.000,+0.000*4F
$GPESD,062947.004,0.000,0.000,0.000,0.000,0.000,0.000,0.000,0.000,0.000*7F
$GPRMC,062948.004,A,2456.1388224,N,11811.6144161,E,464.20,342.24,210521,0.0,E,D,V*77
$GPGGA,062948.004,2456.1388224,N,11811.6144161,E,2,23,1.0,-2482164.204,M,9.657,M,0.0,0000*67
$GPESA,062948.004,+125.726,-82.745,+185.401,+0.000,+0.000,+0.000*41
$GPESD,062948.004,0.000,0.000,0.000,0.000,0.000,0.000,0.000,0.000,0.000*70
$GPRMC,062949.004,A,1614.2062162,N,12740.1676945,E,455.02,208.80,210521,0.0,E,D,V*70
$GPGGA,062949.004,1614.2062162,N,12740.1676945,E,2,22,1.0,-472445.851,M,44.597,M,0.0,0000*65
$GPESA,062949.004,-117.743,+202.057,+10.165,+0.000,+0.000,+0.000*46
$GPESD,062949.004,0.000,0.000,0.000,0.000,0.000,0.000,0.000,0.000,0.000*71
$GPRMC,062950.004,A,1614.1476944,N,12740.4316182,E,455.85,208.95,210521,0.0,E,D,V*78
$GPGGA,062950.004,1614.1476944,N,12740.4316182,E,2,22,1.0,-472265.436,M,44.601,M,0.0,0000*63
$GPESA,062950.004,-117.680,+202.606,+9.864,+0.000,+0.000,+0.000*72
$GPESD,062950.004,0.000,0.000,0.000,0.000,0.000,0.000,0.000,0.000,0.000*79
$GPRMC,062951.004,A,2455.0458782,N,11809.9079812,E,464.38,342.49,210521,0.0,E,D,V*78
$GPGGA,062951.004,2455.0458782,N,11809.9079812,E,2,23,1.0,-2481214.482,M,9.575,M,0.0,0000*66
$GPESA,062951.004,+125.458,-84.625,+184.855,+0.000,+0.000,+0.000*4E
$GPESD,062951.004,0.000,0.000,0.000,0.000,0.000,0.000,0.000,0.000,0.000*78
$GPRMC,062952.004,A,2454.6767075,N,11809.3328713,E,461.00,342.73,210521,0.0,E,D,V*78
$GPGGA,062952.004,2454.6767075,N,11809.3328713,E,2,23,1.0,-2480888.241,M,9.547,M,0.0,0000*67
$GPESA,062952.004,+123.901,-84.787,+183.587,+0.000,+0.000,+0.000*46
$GPESD,062952.004,0.000,0.000,0.000,0.000,0.000,0.000,0.000,0.000,0.000*7B
$GPRMC,062953.004,A,2807.0920301,N,12320.9153019,E,267.58,5.61,210521,0.0,E,D,V*7C
$GPGGA,062953.004,2807.0920301,N,12320.9153019,E,2,23,1.0,-2788728.526,M,20.636,M,0.0,0000*5B
$GPESA,062953.004,+45.767,-92.524,+91.067,+0.000,+0.000,+0.000*4D
$GPESD,062953.004,0.000,0.000,0.000,0.000,0.000,0.000,0.000,0.000,0.000*7A
$GPRMC,062954.004,A,2807.9311733,N,12322.4204838,E,267.79,5.54,210521,0.0,E,D,V*7F
$GPGGA,062954.004,2807.9311733,N,12322.4204838,E,2,23,1.0,-2790294.742,M,20.703,M,0.0,0000*51
$GPESA,062954.004,+45.815,-92.264,+91.468,+0.000,+0.000,+0.000*48
$GPESD,062954.004,0.000,0.000,0.000,0.000,0.000,0.000,0.000,0.000,0.000*7D
$GPRMC,062955.004,A,2808.2352507,N,12322.9669350,E,269.14,5.42,210521,0.0,E,D,V*7D
$GPGGA,062955.004,2808.2352507,N,12322.9669350,E,2,23,1.0,-2791097.742,M,20.727,M,0.0,0000*57
$GPESA,062955.004,+46.568,-92.963,+91.434,+0.000,+0.000,+0.000*48
$GPESD,062955.004,0.000,0.000,0.000,0.000,0.000,0.000,0.000,0.000,0.000*7C
$GPRMC,062956.004,A,2808.9754041,N,12324.2950384,E,268.76,5.29,210521,0.0,E,D,V*79
$GPGGA,062956.004,2808.9754041,N,12324.2950384,E,2,23,1.0,-2792521.725,M,20.786,M,0.0,0000*5A
$GPESA,062956.004,+47.892,-94.180,+89.182,+0.000,+0.000,+0.000*40
$GPESD,062956.004,0.000,0.000,0.000,0.000,0.000,0.000,0.000,0.000,0.000*7F
$GPRMC,062957.004,A,2819.6579388,N,12343.1946442,E,281.79,4.75,210521,0.0,E,D,V*74
$GPGGA,062957.004,2819.6579388,N,12343.1946442,E,2,23,1.0,-2807865.491,M,21.596,M,0.0,0000*57
$GPESA,062957.004,+51.884,-97.901,+93.481,+0.000,+0.000,+0.000*4E
$GPESD,062957.004,0.000,0.000,0.000,0.000,0.000,0.000,0.000,0.000,0.000*7E
$GPRMC,062958.004,A,2809.8976377,N,12325.9510990,E,269.32,5.44,210521,0.0,E,D,V*78
$GPGGA,062958.004,2809.8976377,N,12325.9510990,E,2,23,1.0,-2794572.737,M,20.859,M,0.0,0000*5F
$GPESA,062958.004,+46.700,-93.098,+91.366,+0.000,+0.000,+0.000*45
$GPESD,062958.004,0.000,0.000,0.000,0.000,0.000,0.000,0.000,0.000,0.000*71
$GPRMC,062959.004,A,2810.2811753,N,12326.6396971,E,269.20,5.44,210521,0.0,E,D,V*71
$GPGGA,062959.004,2810.2811753,N,12326.6396971,E,2,23,1.0,-2795487.433,M,20.890,M,0.0,0000*5D
$GPESA,062959.004,+46.678,-93.032,+91.351,+0.000,+0.000,+0.000*4E
$GPESD,062959.004,0.000,0.000,0.000,0.000,0.000,0.000,0.000,0.000,0.000*70
$GPRMC,063000.004,A,1612.1770621,N,12821.1074231,E,238.93,113.47,210521,0.0,E,D,V*77
$GPGGA,063000.004,1612.1770621,N,12821.1074231,E,2,24,1.0,-407299.500,M,44.890,M,0.0,0000*65
$GPESA,063000.004,-119.990,+25.428,-7.977,+0.000,+0.000,+0.000*4D
$GPESD,063000.004,0.000,0.000,0.000,0.000,0.000,0.000,0.000,0.000,0.000*74
$GPRMC,063001.004,A,1612.1056192,N,12821.4515433,E,465.80,91.12,210521,0.0,E,D,V*4E
$GPGGA,063001.004,1612.1056192,N,12821.4515433,E,2,24,1.0,-406962.035,M,44.894,M,0.0,0000*62
$GPESA,063001.004,-123.228,-203.499,-28.701,+0.000,+0.000,+0.000*45
$GPESD,063001.004,0.000,0.000,0.000,0.000,0.000,0.000,0.000,0.000,0.000*75
$GPRMC,063002.004,A,1612.8459171,N,12807.5933815,E,526.20,89.76,210521,0.0,E,D,V*40
$GPGGA,063002.004,1612.8459171,N,12807.5933815,E,2,24,1.0,-431223.837,M,44.816,M,0.0,0000*61
$GPESA,063002.004,-123.424,-238.868,-31.420,+0.000,+0.000,+0.000*4E
$GPESD,063002.004,0.000,0.000,0.000,0.000,0.000,0.000,0.000,0.000,0.000*76
$GPRMC,063003.004,A,1612.7847284,N,12807.8604514,E,526.13,89.73,210521,0.0,E,D,V*4B
$GPGGA,063003.004,1612.7847284,N,12807.8604514,E,2,24,1.0,-431034.693,M,44.820,M,0.0,0000*6E
$GPESA,063003.004,-123.414,-238.853,-31.253,+0.000,+0.000,+0.000*46
$GPESD,063003.004,0.000,0.000,0.000,0.000,0.000,0.000,0.000,0.000,0.000*77
$GPRMC,063004.004,A,1612.7234685,N,12808.1285520,E,526.83,89.72,210521,0.0,E,D,V*43
$GPGGA,063004.004,1612.7234685,N,12808.1285520,E,2,24,1.0,-430843.680,M,44.823,M,0.0,0000*66
$GPESA,063004.004,-123.784,-239.082,-31.187,+0.000,+0.000,+0.000*44
$GPESD,063004.004,0.000,0.000,0.000,0.000,0.000,0.000,0.000,0.000,0.000*70
$GPRMC,063005.004,A,1612.6619190,N,12808.3980112,E,526.67,89.72,210521,0.0,E,D,V*48
$GPGGA,063005.004,1612.6619190,N,12808.3980112,E,2,24,1.0,-430650.119,M,44.826,M,0.0,0000*69
$GPESA,063005.004,-123.712,-239.022,-31.184,+0.000,+0.000,+0.000*43
$GPESD,063005.004,0.000,0.000,0.000,0.000,0.000,0.000,0.000,0.000,0.000*71
$GPRMC,063006.004,A,1612.6000787,N,12808.6690407,E,527.39,89.81,210521,0.0,E,D,V*49
$GPGGA,063006.004,1612.6000787,N,12808.6690407,E,2,24,1.0,-430453.622,M,44.830,M,0.0,0000*67
$GPESA,063006.004,-123.956,-239.266,-31.578,+0.000,+0.000,+0.000*4B
$GPESD,063006.004,0.000,0.000,0.000,0.000,0.000,0.000,0.000,0.000,0.000*72
$GPRMC,063007.004,A,1612.5383085,N,12808.9414466,E,527.45,89.71,210521,0.0,E,D,V*44
$GPGGA,063007.004,1612.5383085,N,12808.9414466,E,2,24,1.0,-430254.994,M,44.833,M,0.0,0000*6E
$GPESA,063007.004,-123.872,-239.399,-31.173,+0.000,+0.000,+0.000*43
$GPESD,063007.004,0.000,0.000,0.000,0.000,0.000,0.000,0.000,0.000,0.000*73
$GPRMC,063008.004,A,1612.4762357,N,12809.2153885,E,527.30,89.73,210521,0.0,E,D,V*40
$GPGGA,063008.004,1612.4762357,N,12809.2153885,E,2,24,1.0,-430053.555,M,44.836,M,0.0,0000*6B
$GPESA,063008.004,-123.781,-239.346,-31.278,+0.000,+0.000,+0.000*45
$GPESD,063008.004,0.000,0.000,0.000,0.000,0.000,0.000,0.000,0.000,0.000*7C
$GPRMC,063009.004,A,1612.4138899,N,12809.4904269,E,527.58,89.73,210521,0.0,E,D,V*4B
$GPGGA,063009.004,1612.4138899,N,12809.4904269,E,2,24,1.0,-429849.792,M,44.840,M,0.0,0000*6D
$GPESA,063009.004,-123.861,-239.466,-31.280,+0.000,+0.000,+0.000*47
$GPESD,063009.004,0.000,0.000,0.000,0.000,0.000,0.000,0.000,0.000,0.000*7D
$GPRMC,063010.004,A,2647.0094099,N,12115.3514004,E,899.55,331.73,210521,0.0,E,D,V*79
$GPGGA,063010.004,2647.0094099,N,12115.3514004,E,2,23,1.0,-2680192.909,M,15.875,M,0.0,0000*5F
$GPESA,063010.004,+311.653,-95.858,+328.384,+0.000,+0.000,+0.000*48
$GPESD,063010.004,0.000,0.000,0.000,0.000,0.000,0.000,0.000,0.000,0.000*75
$GPRMC,063011.004,A,2448.2338770,N,11759.3243308,E,456.38,344.95,210521,0.0,E,D,V*7B
$GPGGA,063011.004,2448.2338770,N,11759.3243308,E,2,23,1.0,-2475685.535,M,9.042,M,0.0,0000*68
$GPESA,063011.004,+118.165,-95.626,+178.931,+0.000,+0.000,+0.000*44
$GPESD,063011.004,0.000,0.000,0.000,0.000,0.000,0.000,0.000,0.000,0.000*74
$GPRMC,063012.004,A,2447.8832704,N,11758.7795917,E,455.50,344.96,210521,0.0,E,D,V*7E
$GPGGA,063012.004,2447.8832704,N,11758.7795917,E,2,23,1.0,-2475387.101,M,9.011,M,0.0,0000*61
$GPESA,063012.004,+118.027,-95.854,+178.302,+0.000,+0.000,+0.000*41
$GPESD,063012.004,0.000,0.000,0.000,0.000,0.000,0.000,0.000,0.000,0.000*77
$GPRMC,063013.004,A,2447.4975909,N,11758.1793846,E,456.50,345.09,210521,0.0,E,D,V*73
$GPGGA,063013.004,2447.4975909,N,11758.1793846,E,2,23,1.0,-2475023.027,M,8.978,M,0.0,0000*67
$GPESA,063013.004,+117.979,-96.626,+178.595,+0.000,+0.000,+0.000*4D
$GPESD,063013.004,0.000,0.000,0.000,0.000,0.000,0.000,0.000,0.000,0.000*76
$GPRMC,063014.004,A,1612.0990200,N,12810.8899859,E,528.55,89.80,210521,0.0,E,D,V*45
$GPGGA,063014.004,1612.0990200,N,12810.8899859,E,2,24,1.0,-428787.232,M,44.856,M,0.0,0000*69
$GPESA,063014.004,-124.120,-239.855,-31.584,+0.000,+0.000,+0.000*4F
$GPESD,063014.004,0.000,0.000,0.000,0.000,0.000,0.000,0.000,0.000,0.000*71
$GPRMC,063015.004,A,1613.5202505,N,12805.7076781,E,388.56,261.20,210521,0.0,E,D,V*7B
$GPGGA,063015.004,1613.5202505,N,12805.7076781,E,2,23,1.0,-440754.392,M,44.784,M,0.0,0000*6A
$GPESA,063015.004,+73.065,+186.053,+1.728,+0.000,+0.000,+0.000*45
$GPESD,063015.004,0.000,0.000,0.000,0.000,0.000,0.000,0.000,0.000,0.000*70
$GPRMC,063016.004,A,1613.2892639,N,12806.2375673,E,808.24,252.76,210521,0.0,E,D,V*7F
$GPGGA,063016.004,1613.2892639,N,12806.2375673,E,2,23,1.0,-439746.534,M,44.795,M,0.0,0000*6C
$GPESA,063016.004,-119.131,+393.301,+63.298,+0.000,+0.000,+0.000*45
$GPESD,063016.004,0.000,0.000,0.000,0.000,0.000,0.000,0.000,0.000,0.000*73
$GPRMC,063017.004,A,1611.9075684,N,12811.7502364,E,495.05,86.46,210521,0.0,E,D,V*45
$GPGGA,063017.004,1611.9075684,N,12811.7502364,E,2,24,1.0,-428112.646,M,44.867,M,0.0,0000*61
$GPESA,063017.004,-93.554,-235.765,-22.873,+0.000,+0.000,+0.000*71
$GPESD,063017.004,0.000,0.000,0.000,0.000,0.000,0.000,0.000,0.000,0.000*72
$GPRMC,063018.004,A,1611.8434242,N,12812.0405044,E,495.18,86.59,210521,0.0,E,D,V*45
$GPGGA,063018.004,1611.8434242,N,12812.0405044,E,2,24,1.0,-427881.577,M,44.870,M,0.0,0000*68
$GPESA,063018.004,-93.611,-235.763,-23.395,+0.000,+0.000,+0.000*78
$GPESD,063018.004,0.000,0.000,0.000,0.000,0.000,0.000,0.000,0.000,0.000*7D
$GPRMC,063019.004,A,1611.7789629,N,12812.3328582,E,495.57,86.52,210521,0.0,E,D,V*43
$GPGGA,063019.004,1611.7789629,N,12812.3328582,E,2,24,1.0,-427646.658,M,44.874,M,0.0,0000*61
$GPESA,063019.004,-93.831,-235.920,-23.098,+0.000,+0.000,+0.000*72
$GPESD,063019.004,0.000,0.000,0.000,0.000,0.000,0.000,0.000,0.000,0.000*7C
$GPRMC,063020.004,A,1611.7144290,N,12812.6270030,E,495.70,86.49,210521,0.0,E,D,V*42
$GPGGA,063020.004,1611.7144290,N,12812.6270030,E,2,24,1.0,-427408.690,M,44.877,M,0.0,0000*60
$GPESA,063020.004,-93.854,-235.999,-22.949,+0.000,+0.000,+0.000*7D
$GPESD,063020.004,0.000,0.000,0.000,0.000,0.000,0.000,0.000,0.000,0.000*76
$GPRMC,063021.004,A,2445.1313114,N,11754.5189801,E,456.39,345.90,210521,0.0,E,D,V*72
$GPGGA,063021.004,2445.1313114,N,11754.5189801,E,2,23,1.0,-2473436.013,M,8.775,M,0.0,0000*6B
$GPESA,063021.004,+116.413,-101.178,+177.022,+0.000,+0.000,+0.000*79
$GPESD,063021.004,0.000,0.000,0.000,0.000,0.000,0.000,0.000,0.000,0.000*77
$GPRMC,063022.004,A,2444.8054327,N,11754.0137093,E,453.56,346.14,210521,0.0,E,D,V*7B
$GPGGA,063022.004,2444.8054327,N,11754.0137093,E,2,23,1.0,-2473179.851,M,8.747,M,0.0,0000*60
$GPESA,063022.004,+115.059,-101.395,+175.849,+0.000,+0.000,+0.000*75
$GPESD,063022.004,0.000,0.000,0.000,0.000,0.000,0.000,0.000,0.000,0.000*74
$GPRMC,063023.004,A,2444.4153240,N,11753.4069454,E,453.79,346.18,210521,0.0,E,D,V*77
$GPGGA,063023.004,2444.4153240,N,11753.4069454,E,2,23,1.0,-2472802.940,M,8.713,M,0.0,0000*69
$GPESA,063023.004,+114.991,-101.651,+175.905,+0.000,+0.000,+0.000*7C
$GPESD,063023.004,0.000,0.000,0.000,0.000,0.000,0.000,0.000,0.000,0.000*75
$GPRMC,063024.004,A,2444.1476687,N,11752.9940666,E,453.24,346.52,210521,0.0,E,D,V*73
$GPGGA,063024.004,2444.1476687,N,11752.9940666,E,2,23,1.0,-2472655.430,M,8.690,M,0.0,0000*67
$GPESA,063024.004,+114.017,-102.911,+175.429,+0.000,+0.000,+0.000*77
$GPESD,063024.004,0.000,0.000,0.000,0.000,0.000,0.000,0.000,0.000,0.000*72
$GPRMC,063025.004,A,2443.9245101,N,11752.6526054,E,457.92,346.72,210521,0.0,E,D,V*7D
$GPGGA,063025.004,2443.9245101,N,11752.6526054,E,2,23,1.0,-2472592.516,M,8.672,M,0.0,0000*63
$GPESA,063025.004,+114.997,-105.448,+176.496,+0.000,+0.000,+0.000*76
$GPESD,063025.004,0.000,0.000,0.000,0.000,0.000,0.000,0.000,0.000,0.000*73
$GPRMC,063026.004,A,2443.6809450,N,11752.2801672,E,458.87,347.29,210521,0.0,E,D,V*78
$GPGGA,063026.004,2443.6809450,N,11752.2801672,E,2,23,1.0,-2472493.191,M,8.651,M,0.0,0000*68
$GPESA,063026.004,+114.031,-108.363,+176.008,+0.000,+0.000,+0.000*70
$GPESD,063026.004,0.000,0.000,0.000,0.000,0.000,0.000,0.000,0.000,0.000*70
$GPRMC,063027.004,A,2443.3725926,N,11751.8065626,E,454.85,348.02,210521,0.0,E,D,V*7B
$GPGGA,063027.004,2443.3725926,N,11751.8065626,E,2,23,1.0,-2472275.739,M,8.625,M,0.0,0000*6A
$GPESA,063027.004,+110.949,-109.661,+174.412,+0.000,+0.000,+0.000*78
$GPESD,063027.004,0.000,0.000,0.000,0.000,0.000,0.000,0.000,0.000,0.000*71
$GPRMC,063028.004,A,1609.7678629,N,12747.7827026,E,500.94,86.85,210521,0.0,E,D,V*4B
$GPGGA,063028.004,1609.7678629,N,12747.7827026,E,2,23,1.0,-464518.173,M,44.822,M,0.0,0000*64
$GPESA,063028.004,-101.654,-235.689,-23.026,+0.000,+0.000,+0.000*4E
$GPESD,063028.004,0.000,0.000,0.000,0.000,0.000,0.000,0.000,0.000,0.000*7E
$GPRMC,063029.004,A,1131.1102475,N,11206.4521510,E,604.40,161.63,210521,0.0,E,D,V*74
$GPGGA,063029.004,1131.1102475,N,11206.4521510,E,2,22,1.0,-1337933.000,M,15.217,M,0.0,0000*5C
$GPESA,063029.004,-123.037,+43.633,-282.199,+0.000,+0.000,+0.000*44
$GPESD,063029.004,0.000,0.000,0.000,0.000,0.000,0.000,0.000,0.000,0.000*7F
$GPRMC,063030.004,A,1459.8004724,N,13730.1910048,E,543.13,85.37,210521,0.0,E,D,V*43
$GPGGA,063030.004,1459.8004724,N,13730.1910048,E,2,22,1.0,125893.066,M,51.618,M,0.0,0000*4A
$GPESA,063030.004,-44.659,-274.987,-21.408,+0.000,+0.000,+0.000*74
$GPESD,063030.004,0.000,0.000,0.000,0.000,0.000,0.000,0.000,0.000,0.000*77
$GPRMC,063031.004,A,1500.3497984,N,13728.6168757,E,523.90,87.53,210521,0.0,E,D,V*43
$GPGGA,063031.004,1500.3497984,N,13728.6168757,E,2,22,1.0,119437.264,M,51.590,M,0.0,0000*49
$GPESA,063031.004,-55.099,-262.506,-26.363,+0.000,+0.000,+0.000*70
$GPESD,063031.004,0.000,0.000,0.000,0.000,0.000,0.000,0.000,0.000,0.000*76
$GPRMC,063032.004,A,1231.9421164,N,11143.2706311,E,280.27,176.29,210521,0.0,E,D,V*71
$GPGGA,063032.004,1231.9421164,N,11143.2706311,E,2,21,1.0,-1335425.792,M,10.664,M,0.0,0000*5A
$GPESA,063032.004,-43.320,+86.818,-106.652,+0.000,+0.000,+0.000*7D
$GPESD,063032.004,0.000,0.000,0.000,0.000,0.000,0.000,0.000,0.000,0.000*75
$GPRMC,063033.004,A,2411.1878963,N,11936.1149859,E,655.41,40.37,210521,0.0,E,D,V*44
$GPGGA,063033.004,2411.1878963,N,11936.1149859,E,2,20,1.0,-2495420.913,M,15.717,M,0.0,0000*55
$GPESA,063033.004,-203.468,+105.769,+247.183,+0.000,+0.000,+0.000*79
$GPESD,063033.004,0.000,0.000,0.000,0.000,0.000,0.000,0.000,0.000,0.000*74
$GPRMC,063034.004,A,2411.2428235,N,11936.1598690,E,654.51,40.49,210521,0.0,E,D,V*4B
$GPGGA,063034.004,2411.2428235,N,11936.1598690,E,2,20,1.0,-2495871.944,M,15.718,M,0.0,0000*56
$GPESA,063034.004,-203.063,+110.360,+244.867,+0.000,+0.000,+0.000*78
$GPESD,063034.004,0.000,0.000,0.000,0.000,0.000,0.000,0.000,0.000,0.000*73
$GPRMC,063035.004,A,1126.6742904,N,11128.3746279,E,914.00,131.10,210521,0.0,E,D,V*79
$GPGGA,063035.004,1126.6742904,N,11128.3746279,E,2,22,1.0,-1324108.945,M,12.602,M,0.0,0000*57
$GPESA,063035.004,-373.140,+237.776,-159.114,+0.000,+0.000,+0.000*7E
$GPESD,063035.004,0.000,0.000,0.000,0.000,0.000,0.000,0.000,0.000,0.000*72
$GPRMC,063036.004,A,1910.2729426,N,12642.0356894,E,1288.77,121.73,210521,0.0,E,D,V*4F
$GPGGA,063036.004,1910.2729426,N,12642.0356894,E,2,21,1.0,-1373360.210,M,37.205,M,0.0,0000*58
$GPESA,063036.004,-640.287,+65.653,-159.030,+0.000,+0.000,+0.000*44
$GPESD,063036.004,0.000,0.000,0.000,0.000,0.000,0.000,0.000,0.000,0.000*71
$GPRMC,063037.004,A,1640.6629690,N,12511.5304573,E,300.22,53.47,210521,0.0,E,D,V*4E
$GPGGA,063037.004,1640.6629690,N,12511.5304573,E,2,22,1.0,-565153.447,M,43.358,M,0.0,0000*65
$GPESA,063037.004,-120.511,+35.446,+89.857,+0.000,+0.000,+0.000*7C
$GPESD,063037.004,0.000,0.000,0.000,0.000,0.000,0.000,0.000,0.000,0.000*70
$GPRMC,063038.004,A,1804.4580349,N,13058.4253806,E,306.55,114.39,210521,0.0,E,D,V*75
$GPGGA,063038.004,1804.4580349,N,13058.4253806,E,2,22,1.0,-1013742.749,M,41.659,M,0.0,0000*5B
$GPESA,063038.004,-107.096,-93.676,-68.015,+0.000,+0.000,+0.000*70
$GPESD,063038.004,0.000,0.000,0.000,0.000,0.000,0.000,0.000,0.000,0.000*7F
$GPRMC,063039.004,A,1008.9420065,N,11135.0058854,E,456.89,158.95,210521,0.0,E,D,V*74
$GPGGA,063039.004,1008.9420065,N,11135.0058854,E,2,23,1.0,-1317372.953,M,16.859,M,0.0,0000*5F
$GPESA,063039.004,-123.027,+113.012,-165.344,+0.000,+0.000,+0.000*7D
$GPESD,063039.004,0.000,0.000,0.000,0.000,0.000,0.000,0.000,0.000,0.000*7E
$GPRMC,063040.004,A,0504.4368749,N,12656.4884252,E,653.16,103.37,210521,0.0,E,D,V*7A
$GPGGA,063040.004,0504.4368749,N,12656.4884252,E,2,21,1.0,-591844.308,M,53.572,M,0.0,0000*62
$GPESA,063040.004,-282.117,-166.643,-74.467,+0.000,+0.000,+0.000*48
$GPESD,063040.004,0.000,0.000,0.000,0.000,0.000,0.000,0.000,0.000,0.000*70
$GPRMC,063041.004,A,1654.2910143,N,13249.5112143,E,338.66,120.20,210521,0.0,E,D,V*74
$GPGGA,063041.004,1654.2910143,N,13249.5112143,E,2,22,1.0,-58832.715,M,44.548,M,0.0,0000*51
$GPESA,063041.004,-130.444,-80.692,-82.618,+0.000,+0.000,+0.000*76
$GPESD,063041.004,0.000,0.000,0.000,0.000,0.000,0.000,0.000,0.000,0.000*71
$GPRMC,063042.004,A,2208.4798317,N,11055.0144045,E,325.40,103.26,210521,0.0,E,D,V*71
$GPGGA,063042.004,2208.4798317,N,11055.0144045,E,2,19,1.0,-2010877.168,M,-14.091,M,0.0,0000*79
$GPESA,063042.004,-165.736,-11.330,-20.656,+0.000,+0.000,+0.000*74
$GPESD,063042.004,0.000,0.000,0.000,0.000,0.000,0.000,0.000,0.000,0.000*72
$GPRMC,063043.004,A,2135.3484338,N,12607.9767744,E,325.42,111.19,210521,0.0,E,D,V*7E
$GPGGA,063043.004,2135.3484338,N,12607.9767744,E,2,18,1.0,-742436.049,M,31.517,M,0.0,0000*62
$GPESA,063043.004,-139.346,-73.855,-56.169,+0.000,+0.000,+0.000*79
$GPESD,063043.004,0.000,0.000,0.000,0.000,0.000,0.000,0.000,0.000,0.000*73
$GPRMC,063044.004,A,0929.9775193,N,11059.0763676,E,511.05,115.59,210521,0.0,E,D,V*7B
$GPGGA,063044.004,0929.9775193,N,11059.0763676,E,2,17,1.0,-1297900.227,M,16.124,M,0.0,0000*55
$GPESA,063044.004,-235.488,+100.674,-59.414,+0.000,+0.000,+0.000*4A
$GPESD,063044.004,0.000,0.000,0.000,0.000,0.000,0.000,0.000,0.000,0.000*74
$GPRMC,063045.004,A,2135.5812704,N,12621.4119267,E,296.55,91.70,210521,0.0,E,D,V*4D
$GPGGA,063045.004,2135.5812704,N,12621.4119267,E,2,18,1.0,-633766.215,M,31.903,M,0.0,0000*6B
$GPESA,063045.004,-33.466,-142.999,-41.292,+0.000,+0.000,+0.000*72
$GPESD,063045.004,0.000,0.000,0.000,0.000,0.000,0.000,0.000,0.000,0.000*75
$GPRMC,063046.004,A,1700.5465167,N,12831.4064627,E,502.99,84.22,210521,0.0,E,D,V*4F
$GPGGA,063046.004,1700.5465167,N,12831.4064627,E,2,18,1.0,-523511.914,M,43.138,M,0.0,0000*6F
$GPESA,063046.004,-61.604,-249.919,-26.505,+0.000,+0.000,+0.000*78
$GPESD,063046.004,0.000,0.000,0.000,0.000,0.000,0.000,0.000,0.000,0.000*76
$GPRMC,063047.004,A,1710.7690537,N,13015.1781681,E,371.45,89.79,210521,0.0,E,D,V*4E
$GPGGA,063047.004,1710.7690537,N,13015.1781681,E,2,17,1.0,-919321.874,M,43.435,M,0.0,0000*6E
$GPESA,063047.004,-94.074,-165.185,-19.494,+0.000,+0.000,+0.000*77
$GPESD,063047.004,0.000,0.000,0.000,0.000,0.000,0.000,0.000,0.000,0.000*77
$GPRMC,063048.004,A,1300.6862274,N,11257.0634966,E,547.40,135.25,210521,0.0,E,D,V*71
$GPGGA,063048.004,1300.6862274,N,11257.0634966,E,2,18,1.0,-1366207.850,M,14.853,M,0.0,0000*59
$GPESA,063048.004,-224.033,+124.564,-116.605,+0.000,+0.000,+0.000*7E
$GPESD,063048.004,0.000,0.000,0.000,0.000,0.000,0.000,0.000,0.000,0.000*78
$GPRMC,063049.004,A,1243.0284771,N,11356.2616630,E,167.48,218.77,210521,0.0,E,D,V*79
$GPGGA,063049.004,1243.0284771,N,11356.2616630,E,2,17,1.0,-1384331.008,M,19.814,M,0.0,0000*58
$GPESA,063049.004,+46.970,+26.282,-67.278,+0.000,+0.000,+0.000*44
$GPESD,063049.004,0.000,0.000,0.000,0.000,0.000,0.000,0.000,0.000,0.000*79
$GPRMC,063050.004,A,1221.8023286,N,12243.0290401,E,981.49,114.57,210521,0.0,E,D,V*7D
$GPGGA,063050.004,1221.8023286,N,12243.0290401,E,2,18,1.0,-944051.267,M,53.128,M,0.0,0000*6E
$GPESA,063050.004,-465.484,-96.266,-170.300,+0.000,+0.000,+0.000*47
$GPESD,063050.004,0.000,0.000,0.000,0.000,0.000,0.000,0.000,0.000,0.000*71
$GPRMC,063051.004,A,0919.2221342,N,11130.4798348,E,771.58,137.81,210521,0.0,E,D,V*72
$GPGGA,063051.004,0919.2221342,N,11130.4798348,E,2,22,1.0,-1309845.334,M,19.158,M,0.0,0000*52
$GPESA,063051.004,-291.700,+211.013,-167.158,+0.000,+0.000,+0.000*76
$GPESD,063051.004,0.000,0.000,0.000,0.000,0.000,0.000,0.000,0.000,0.000*70
$GPRMC,063052.004,A,1805.5896604,N,12958.4581912,E,395.05,65.76,210521,0.0,E,D,V*48
$GPGGA,063052.004,1805.5896604,N,12958.4581912,E,2,24,1.0,-405931.636,M,41.265,M,0.0,0000*69
$GPESA,063052.004,-174.040,-27.705,+101.215,+0.000,+0.000,+0.000*43
$GPESD,063052.004,0.000,0.000,0.000,0.000,0.000,0.000,0.000,0.000,0.000*73
$GPRMC,063053.004,A,1805.5112134,N,12958.7378316,E,486.20,140.78,210521,0.0,E,D,V*7F
$GPGGA,063053.004,1805.5112134,N,12958.7378316,E,2,24,1.0,-405614.689,M,41.268,M,0.0,0000*65
$GPESA,063053.004,-221.036,+89.892,-74.986,+0.000,+0.000,+0.000*77
$GPESD,063053.004,0.000,0.000,0.000,0.000,0.000,0.000,0.000,0.000,0.000*72
$GPRMC,063054.004,A,1805.4318421,N,12959.0209376,E,395.39,65.55,210521,0.0,E,D,V*43
$GPGGA,063054.004,1805.4318421,N,12959.0209376,E,2,24,1.0,-405296.686,M,41.270,M,0.0,0000*65
$GPESA,063054.004,-173.808,-28.305,+101.806,+0.000,+0.000,+0.000*45
$GPESD,063054.004,0.000,0.000,0.000,0.000,0.000,0.000,0.000,0.000,0.000*75
$GPRMC,063055.004,A,1800.1235174,N,12941.7637319,E,417.54,68.67,210521,0.0,E,D,V*4D
$GPGGA,063055.004,1800.1235174,N,12941.7637319,E,2,23,1.0,-426441.654,M,41.434,M,0.0,0000*62
$GPESA,063055.004,-35.645,-210.753,+21.246,+0.000,+0.000,+0.000*73
$GPESD,063055.004,0.000,0.000,0.000,0.000,0.000,0.000,0.000,0.000,0.000*74
$GPRMC,063056.004,A,3254.1413302,N,12725.7570210,E,1364.93,116.92,210521,0.0,E,D,V*49
$GPGGA,063056.004,3254.1413302,N,12725.7570210,E,2,20,1.0,-3076091.655,M,27.070,M,0.0,0000*50
$GPESA,063056.004,-700.671,+26.474,-37.660,+0.000,+0.000,+0.000*70
$GPESD,063056.004,0.000,0.000,0.000,0.000,0.000,0.000,0.000,0.000,0.000*77
$GPRMC,063057.004,A,1927.6746027,N,12554.3362502,E,418.04,81.15,210521,0.0,E,D,V*47
$GPGGA,063057.004,1927.6746027,N,12554.3362502,E,2,18,1.0,-913322.676,M,35.541,M,0.0,0000*61
$GPESA,063057.004,-59.156,-205.904,-18.807,+0.000,+0.000,+0.000*75
$GPESD,063057.004,0.000,0.000,0.000,0.000,0.000,0.000,0.000,0.000,0.000*76
$GPRMC,063058.004,A,1927.0702604,N,12554.3197387,E,414.84,81.41,210521,0.0,E,D,V*4F
$GPGGA,063058.004,1927.0702604,N,12554.3197387,E,2,18,1.0,-913809.625,M,35.564,M,0.0,0000*6F
$GPESA,063058.004,-59.213,-204.124,-19.268,+0.000,+0.000,+0.000*71
$GPESD,063058.004,0.000,0.000,0.000,0.000,0.000,0.000,0.000,0.000,0.000*79
$GPRMC,063059.004,A,1926.4583750,N,12554.3030489,E,415.64,81.17,210521,0.0,E,D,V*49
$GPGGA,063059.004,1926.4583750,N,12554.3030489,E,2,18,1.0,-914300.415,M,35.587,M,0.0,0000*6C
$GPESA,063059.004,-58.604,-204.775,-18.823,+0.000,+0.000,+0.000*75
$GPESD,063059.004,0.000,0.000,0.000,0.000,0.000,0.000,0.000,0.000,0.000*78
$GPRMC,063100.004,A,1212.8087421,N,11245.3439223,E,186.79,210.48,210521,0.0,E,D,V*7C
$GPGGA,063100.004,1212.8087421,N,11245.3439223,E,2,19,1.0,-1360700.560,M,15.983,M,0.0,0000*5E
$GPESA,063100.004,+42.338,+24.115,-82.822,+0.000,+0.000,+0.000*4B
$GPESD,063100.004,0.000,0.000,0.000,0.000,0.000,0.000,0.000,0.000,0.000*75
$GPRMC,063101.004,A,2350.8140541,N,12120.3044284,E,368.67,109.34,210521,0.0,E,D,V*79
$GPGGA,063101.004,2350.8140541,N,12120.3044284,E,2,17,1.0,-2536415.442,M,21.708,M,0.0,0000*52
$GPESA,063101.004,-120.596,-121.357,-81.854,+0.000,+0.000,+0.000*4F
$GPESD,063101.004,0.000,0.000,0.000,0.000,0.000,0.000,0.000,0.000,0.000*74
$GPRMC,063102.004,A,2348.2753350,N,12115.9387509,E,368.12,109.58,210521,0.0,E,D,V*71
$GPGGA,063102.004,2348.2753350,N,12115.9387509,E,2,17,1.0,-2532103.963,M,22.445,M,0.0,0000*53
$GPESA,063102.004,-117.909,-122.646,-83.185,+0.000,+0.000,+0.000*43
$GPESD,063102.004,0.000,0.000,0.000,0.000,0.000,0.000,0.000,0.000,0.000*77
$GPRMC,063103.004,A,2304.1404412,N,11935.1701659,E,547.29,122.43,210521,0.0,E,D,V*76
$GPGGA,063103.004,2304.1404412,N,11935.1701659,E,2,18,1.0,-2434413.262,M,17.534,M,0.0,0000*53
$GPESA,063103.004,-266.237,+77.574,-48.701,+0.000,+0.000,+0.000*79
$GPESD,063103.004,0.000,0.000,0.000,0.000,0.000,0.000,0.000,0.000,0.000*76
$GPRMC,063104.004,A,2104.5535638,N,10926.5704709,E,348.39,124.74,210521,0.0,E,D,V*72
$GPGGA,063104.004,2104.5535638,N,10926.5704709,E,2,19,1.0,-1841901.074,M,-17.154,M,0.0,0000*75
$GPESA,063104.004,-155.863,+78.162,-41.479,+0.000,+0.000,+0.000*7F
$GPESD,063104.004,0.000,0.000,0.000,0.000,0.000,0.000,0.000,0.000,0.000*71
$GPRMC,063105.004,A,1623.1418403,N,13234.2803575,E,354.77,260.29,210521,0.0,E,D,V*73
$GPGGA,063105.004,1623.1418403,N,13234.2803575,E,2,19,1.0,-13075.971,M,45.593,M,0.0,0000*55
$GPESA,063105.004,+98.041,+152.917,-17.722,+0.000,+0.000,+0.000*7D
$GPESD,063105.004,0.000,0.000,0.000,0.000,0.000,0.000,0.000,0.000,0.000*70
$GPRMC,063106.004,A,0331.8706117,N,12847.3909396,E,1354.65,158.11,210521,0.0,E,D,V*4D
$GPGGA,063106.004,0331.8706117,N,12847.3909396,E,2,18,1.0,-362340.841,M,66.191,M,0.0,0000*6E
$GPESA,063106.004,-491.440,+411.214,-273.949,+0.000,+0.000,+0.000*79
$GPESD,063106.004,0.000,0.000,0.000,0.000,0.000,0.000,0.000,0.000,0.000*73
$GPRMC,063107.004,A,3130.9668925,N,12247.6841529,E,708.71,147.31,210521,0.0,E,D,V*78
$GPGGA,063107.004,3130.9668925,N,12247.6841529,E,2,18,1.0,-2947721.862,M,15.001,M,0.0,0000*5F
$GPESA,063107.004,-270.634,+59.001,-237.073,+0.000,+0.000,+0.000*4E
$GPESD,063107.004,0.000,0.000,0.000,0.000,0.000,0.000,0.000,0.000,0.000*72
$GPRMC,063108.004,A,1813.0428830,N,12854.9575327,E,506.97,124.54,210521,0.0,E,D,V*70
$GPGGA,063108.004,1813.0428830,N,12854.9575327,E,2,21,1.0,-1160319.368,M,40.968,M,0.0,0000*59
$GPESA,063108.004,-202.314,-91.120,-137.067,+0.000,+0.000,+0.000*45
$GPESD,063108.004,0.000,0.000,0.000,0.000,0.000,0.000,0.000,0.000,0.000*7D
$GPRMC,063109.004,A,1618.9130642,N,12255.2144119,E,317.80,133.88,210521,0.0,E,D,V*74
$GPGGA,063109.004,1618.9130642,N,12255.2144119,E,2,19,1.0,-777797.015,M,33.575,M,0.0,0000*6F
$GPESA,063109.004,-133.705,-3.578,-94.014,+0.000,+0.000,+0.000*4F
$GPESD,063109.004,0.000,0.000,0.000,0.000,0.000,0.000,0.000,0.000,0.000*7C
$GPRMC,063110.004,A,1121.9371392,N,11133.3883571,E,237.37,207.52,210521,0.0,E,D,V*7B
$GPGGA,063110.004,1121.9371392,N,11133.3883571,E,2,21,1.0,-1331383.500,M,13.217,M,0.0,0000*51
$GPESA,063110.004,+40.134,+51.262,-103.313,+0.000,+0.000,+0.000*76
$GPESD,063110.004,0.000,0.000,0.000,0.000,0.000,0.000,0.000,0.000,0.000*74
$GPRMC,063111.004,A,2003.2165887,N,11007.0101344,E,392.28,125.82,210521,0.0,E,D,V*73
$GPGGA,063111.004,2003.2165887,N,11007.0101344,E,2,20,1.0,-1779163.004,M,-12.385,M,0.0,0000*75
$GPESA,063111.004,-179.675,+54.289,-74.128,+0.000,+0.000,+0.000*73
$GPESD,063111.004,0.000,0.000,0.000,0.000,0.000,0.000,0.000,0.000,0.000*75
$GPRMC,063112.004,A,1607.5562176,N,12814.9162745,E,355.77,89.30,210521,0.0,E,D,V*4D
$GPGGA,063112.004,1607.5562176,N,12814.9162745,E,2,20,1.0,-433774.377,M,45.041,M,0.0,0000*6B
$GPESA,063112.004,-131.990,-126.760,-2.824,+0.000,+0.000,+0.000*7C
$GPESD,063112.004,0.000,0.000,0.000,0.000,0.000,0.000,0.000,0.000,0.000*76
$GPRMC,063113.004,A,1623.1553810,N,13058.7555540,E,380.75,136.36,210521,0.0,E,D,V*74
$GPGGA,063113.004,1623.1553810,N,13058.7555540,E,2,21,1.0,-198838.666,M,45.214,M,0.0,0000*6E
$GPESA,063113.004,-168.111,+6.355,-100.329,+0.000,+0.000,+0.000*72
$GPESD,063113.004,0.000,0.000,0.000,0.000,0.000,0.000,0.000,0.000,0.000*77
$GPRMC,063114.004,A,1417.1867812,N,12518.3815410,E,329.88,159.30,210521,0.0,E,D,V*79
$GPGGA,063114.004,1417.1867812,N,12518.3815410,E,2,21,1.0,-507858.480,M,44.239,M,0.0,0000*6D
$GPESA,063114.004,-69.060,-6.248,-154.891,+0.000,+0.000,+0.000*40
$GPESD,063114.004,0.000,0.000,0.000,0.000,0.000,0.000,0.000,0.000,0.000*70
$GPRMC,063115.004,A,1417.0748886,N,12518.4019666,E,329.13,158.85,210521,0.0,E,D,V*7B
$GPGGA,063115.004,1417.0748886,N,12518.4019666,E,2,21,1.0,-507984.951,M,44.243,M,0.0,0000*6E
$GPESA,063115.004,-69.336,-7.727,-154.276,+0.000,+0.000,+0.000*4F
$GPESD,063115.004,0.000,0.000,0.000,0.000,0.000,0.000,0.000,0.000,0.000*71
$GPRMC,063116.004,A,1619.3431167,N,13054.5084053,E,418.16,129.08,210521,0.0,E,D,V*76
$GPGGA,063116.004,1619.3431167,N,13054.5084053,E,2,22,1.0,-197682.469,M,45.346,M,0.0,0000*64
$GPESA,063116.004,-103.713,-123.600,-142.282,+0.000,+0.000,+0.000*7D
$GPESD,063116.004,0.000,0.000,0.000,0.000,0.000,0.000,0.000,0.000,0.000*72
$GPRMC,063117.004,A,1758.0012915,N,13056.9049377,E,784.88,129.45,210521,0.0,E,D,V*7A
$GPGGA,063117.004,1758.0012915,N,13056.9049377,E,2,21,1.0,-1022121.146,M,41.863,M,0.0,0000*53
$GPESA,063117.004,-379.243,+44.106,-131.402,+0.000,+0.000,+0.000*4E
$GPESD,063117.004,0.000,0.000,0.000,0.000,0.000,0.000,0.000,0.000,0.000*73
$GPRMC,063118.004,A,1425.1567023,N,12533.4977488,E,606.98,153.25,210521,0.0,E,D,V*7E
$GPGGA,063118.004,1425.1567023,N,12533.4977488,E,2,20,1.0,-488555.531,M,44.743,M,0.0,0000*69
$GPESA,063118.004,-226.988,+118.099,-178.983,+0.000,+0.000,+0.000*70
$GPESD,063118.004,0.000,0.000,0.000,0.000,0.000,0.000,0.000,0.000,0.000*7C
$GPRMC,063119.004,A,1425.0527787,N,12533.5336607,E,608.67,169.08,210521,0.0,E,D,V*70
$GPGGA,063119.004,1425.0527787,N,12533.5336607,E,2,20,1.0,-488658.267,M,44.747,M,0.0,0000*61
$GPESA,063119.004,-194.501,+206.083,-133.217,+0.000,+0.000,+0.000*78
$GPESD,063119.004,0.000,0.000,0.000,0.000,0.000,0.000,0.000,0.000,0.000*7D
$GPRMC,063120.004,A,1812.2274932,N,11551.9839387,E,349.83,131.34,210521,0.0,E,D,V*7B
$GPGGA,063120.004,1812.2274932,N,11551.9839387,E,2,19,1.0,-1416524.768,M,12.246,M,0.0,0000*5B
$GPESA,063120.004,-155.245,+70.177,-57.988,+0.000,+0.000,+0.000*7F
$GPESD,063120.004,0.000,0.000,0.000,0.000,0.000,0.000,0.000,0.000,0.000*77
$GPRMC,063121.004,A,1812.2547161,N,11552.0199895,E,349.89,131.34,210521,0.0,E,D,V*78
$GPGGA,063121.004,1812.2547161,N,11552.0199895,E,2,19,1.0,-1416667.361,M,12.247,M,0.0,0000*5A
$GPESA,063121.004,-155.288,+70.139,-58.020,+0.000,+0.000,+0.000*71
$GPESD,063121.004,0.000,0.000,0.000,0.000,0.000,0.000,0.000,0.000,0.000*76
$GPRMC,063122.004,A,1812.2819750,N,11552.0558779,E,350.08,131.37,210521,0.0,E,D,V*7F
$GPGGA,063122.004,1812.2819750,N,11552.0558779,E,2,19,1.0,-1416810.098,M,12.248,M,0.0,0000*5B
$GPESA,063122.004,-155.346,+70.142,-58.167,+0.000,+0.000,+0.000*7F
$GPESD,063122.004,0.000,0.000,0.000,0.000,0.000,0.000,0.000,0.000,0.000*75
$GPRMC,063123.004,A,1812.3092538,N,11552.0917362,E,350.47,131.25,210521,0.0,E,D,V*79
$GPGGA,063123.004,1812.3092538,N,11552.0917362,E,2,19,1.0,-1416952.836,M,12.249,M,0.0,0000*5F
$GPESA,063123.004,-155.665,+70.104,-57.971,+0.000,+0.000,+0.000*78
$GPESD,063123.004,0.000,0.000,0.000,0.000,0.000,0.000,0.000,0.000,0.000*74
$GPRMC,063124.004,A,1625.6945055,N,13052.7345607,E,300.83,340.62,210521,0.0,E,D,V*7D
$GPGGA,063124.004,1625.6945055,N,13052.7345607,E,2,20,1.0,-221695.570,M,45.124,M,0.0,0000*69
$GPESA,063124.004,+117.353,-92.387,+40.539,+0.000,+0.000,+0.000*7C
$GPESD,063124.004,0.000,0.000,0.000,0.000,0.000,0.000,0.000,0.000,0.000*73
$GPRMC,063125.004,A,1625.6031020,N,13053.0285780,E,300.02,341.04,210521,0.0,E,D,V*79
$GPGGA,063125.004,1625.6031020,N,13053.0285780,E,2,20,1.0,-221407.233,M,45.127,M,0.0,0000*6F
$GPESA,063125.004,+116.633,-92.681,+40.361,+0.000,+0.000,+0.000*77
$GPESD,063125.004,0.000,0.000,0.000,0.000,0.000,0.000,0.000,0.000,0.000*72
$GPRMC,063126.004,A,1625.5119169,N,13053.3217195,E,300.20,340.77,210521,0.0,E,D,V*71
$GPGGA,063126.004,1625.5119169,N,13053.3217195,E,2,20,1.0,-221120.397,M,45.130,M,0.0,0000*6B
$GPESA,063126.004,+116.976,-92.495,+40.153,+0.000,+0.000,+0.000*7E
$GPESD,063126.004,0.000,0.000,0.000,0.000,0.000,0.000,0.000,0.000,0.000*71
$GPRMC,063127.004,A,1040.2059231,N,11116.0329513,E,1204.57,128.53,210521,0.0,E,D,V*40
$GPGGA,063127.004,1040.2059231,N,11116.0329513,E,2,21,1.0,-1322627.480,M,13.996,M,0.0,0000*50
$GPESA,063127.004,-499.283,+309.260,-197.701,+0.000,+0.000,+0.000*7D
$GPESD,063127.004,0.000,0.000,0.000,0.000,0.000,0.000,0.000,0.000,0.000*70
$GPRMC,063128.004,A,1037.3907956,N,11130.0288544,E,1212.20,128.62,210521,0.0,E,D,V*4F
$GPGGA,063128.004,1037.3907956,N,11130.0288544,E,2,22,1.0,-1327868.904,M,15.145,M,0.0,0000*58
$GPESA,063128.004,-503.291,+309.208,-199.952,+0.000,+0.000,+0.000*7B
$GPESD,063128.004,0.000,0.000,0.000,0.000,0.000,0.000,0.000,0.000,0.000*7F
$GPRMC,063129.004,A,1037.2089599,N,11130.0304480,E,1211.66,128.64,210521,0.0,E,D,V*44
$GPGGA,063129.004,1037.2089599,N,11130.0304480,E,2,22,1.0,-1328018.510,M,15.154,M,0.0,0000*5D
$GPESA,063129.004,-502.962,+309.192,-199.938,+0.000,+0.000,+0.000*70
$GPESD,063129.004,0.000,0.000,0.000,0.000,0.000,0.000,0.000,0.000,0.000*7E
$GPRMC,063130.004,A,1037.1896924,N,11130.1269650,E,1211.93,128.64,210521,0.0,E,D,V*4D
$GPGGA,063130.004,1037.1896924,N,11130.1269650,E,2,22,1.0,-1328225.549,M,15.162,M,0.0,0000*5B
$GPESA,063130.004,-503.066,+309.283,-199.963,+0.000,+0.000,+0.000*79
$GPESD,063130.004,0.000,0.000,0.000,0.000,0.000,0.000,0.000,0.000,0.000*76
$GPRMC,063131.004,A,1037.1483972,N,11130.2122201,E,1212.12,128.66,210521,0.0,E,D,V*40
$GPGGA,063131.004,1037.1483972,N,11130.2122201,E,2,22,1.0,-1328425.528,M,15.170,M,0.0,0000*5C
$GPESA,063131.004,-503.135,+309.215,-200.200,+0.000,+0.000,+0.000*7D
$GPESD,063131.004,0.000,0.000,0.000,0.000,0.000,0.000,0.000,0.000,0.000*77
$GPRMC,063132.004,A,1037.0740075,N,11130.2791168,E,1212.36,128.61,210521,0.0,E,D,V*43
$GPGGA,063132.004,1037.0740075,N,11130.2791168,E,2,22,1.0,-1328614.122,M,15.178,M,0.0,0000*58
$GPESA,063132.004,-503.346,+309.423,-199.727,+0.000,+0.000,+0.000*78
$GPESD,063132.004,0.000,0.000,0.000,0.000,0.000,0.000,0.000,0.000,0.000*74
$GPRMC,063133.004,A,1037.1081659,N,11130.4138878,E,1212.79,128.63,210521,0.0,E,D,V*43
$GPGGA,063133.004,1037.1081659,N,11130.4138878,E,2,22,1.0,-1328842.569,M,15.186,M,0.0,0000*56
$GPESA,063133.004,-503.491,+309.448,-200.017,+0.000,+0.000,+0.000*7E
$GPESD,063133.004,0.000,0.000,0.000,0.000,0.000,0.000,0.000,0.000,0.000*75
$GPRMC,063134.004,A,1037.0243875,N,11130.4770328,E,1213.88,128.61,210521,0.0,E,D,V*40
$GPGGA,063134.004,1037.0243875,N,11130.4770328,E,2,22,1.0,-1329028.258,M,15.195,M,0.0,0000*5A
$GPESA,063134.004,-504.028,+309.632,-200.128,+0.000,+0.000,+0.000*7A
$GPESD,063134.004,0.000,0.000,0.000,0.000,0.000,0.000,0.000,0.000,0.000*72
$GPRMC,063135.004,A,1036.8266422,N,11130.4690652,E,1213.50,128.61,210521,0.0,E,D,V*43
$GPGGA,063135.004,1036.8266422,N,11130.4690652,E,2,22,1.0,-1329172.336,M,15.204,M,0.0,0000*50
$GPESA,063135.004,-503.852,+309.566,-200.063,+0.000,+0.000,+0.000*75
$GPESD,063135.004,0.000,0.000,0.000,0.000,0.000,0.000,0.000,0.000,0.000*73
$GPRMC,063136.004,A,1036.6337292,N,11130.4645558,E,1213.47,128.62,210521,0.0,E,D,V*42
$GPGGA,063136.004,1036.6337292,N,11130.4645558,E,2,22,1.0,-1329318.375,M,15.212,M,0.0,0000*5A
$GPESA,063136.004,-503.756,+309.690,-200.069,+0.000,+0.000,+0.000*7D
$GPESD,063136.004,0.000,0.000,0.000,0.000,0.000,0.000,0.000,0.000,0.000*70
$GPRMC,063137.004,A,1036.3370738,N,11130.3956446,E,1214.22,128.61,210521,0.0,E,D,V*43
$GPGGA,063137.004,1036.3370738,N,11130.3956446,E,2,22,1.0,-1329426.267,M,15.221,M,0.0,0000*54
$GPESA,063137.004,-504.104,+309.798,-200.225,+0.000,+0.000,+0.000*79
$GPESD,063137.004,0.000,0.000,0.000,0.000,0.000,0.000,0.000,0.000,0.000*71
$GPRMC,063138.004,A,1035.9560728,N,11130.2763289,E,1213.83,128.59,210521,0.0,E,D,V*48
$GPGGA,063138.004,1035.9560728,N,11130.2763289,E,2,22,1.0,-1329504.181,M,15.231,M,0.0,0000*53
$GPESA,063138.004,-503.908,+309.917,-199.904,+0.000,+0.000,+0.000*77
$GPESD,063138.004,0.000,0.000,0.000,0.000,0.000,0.000,0.000,0.000,0.000*7E
$GPRMC,063139.004,A,0649.3448553,N,13547.9852167,E,793.35,144.65,210521,0.0,E,D,V*7D
$GPGGA,063139.004,0649.3448553,N,13547.9852167,E,2,23,1.0,419425.591,M,63.355,M,0.0,0000*4E
$GPESA,063139.004,-252.121,-76.110,-311.798,+0.000,+0.000,+0.000*4D
$GPESD,063139.004,0.000,0.000,0.000,0.000,0.000,0.000,0.000,0.000,0.000*7F
$GPRMC,063140.004,A,0649.4725319,N,13547.9103299,E,794.01,144.71,210521,0.0,E,D,V*7E
$GPGGA,063140.004,0649.4725319,N,13547.9103299,E,2,23,1.0,419294.283,M,63.347,M,0.0,0000*43
$GPESA,063140.004,-252.195,-75.813,-312.249,+0.000,+0.000,+0.000*4F
$GPESD,063140.004,0.000,0.000,0.000,0.000,0.000,0.000,0.000,0.000,0.000*71
$GPRMC,063141.004,A,0649.6293718,N,13547.8794331,E,720.46,169.49,210521,0.0,E,D,V*72
$GPGGA,063141.004,0649.6293718,N,13547.8794331,E,2,23,1.0,419260.593,M,63.337,M,0.0,0000*4D
$GPESA,063141.004,-96.970,+0.279,-357.728,+0.000,+0.000,+0.000*46
$GPESD,063141.004,0.000,0.000,0.000,0.000,0.000,0.000,0.000,0.000,0.000*70
$GPRMC,063142.004,A,0649.7929786,N,13547.8588208,E,719.94,169.46,210521,0.0,E,D,V*73
$GPGGA,063142.004,0649.7929786,N,13547.8588208,E,2,23,1.0,419249.644,M,63.327,M,0.0,0000*45
$GPESA,063142.004,-97.120,+0.156,-357.408,+0.000,+0.000,+0.000*46
$GPESD,063142.004,0.000,0.000,0.000,0.000,0.000,0.000,0.000,0.000,0.000*73
$GPRMC,063143.004,A,0649.9259771,N,13547.7913610,E,719.68,169.43,210521,0.0,E,D,V*72
$GPGGA,063143.004,0649.9259771,N,13547.7913610,E,2,23,1.0,419134.465,M,63.318,M,0.0,0000*46
$GPESA,063143.004,-97.078,-0.048,-357.279,+0.000,+0.000,+0.000*43
$GPESD,063143.004,0.000,0.000,0.000,0.000,0.000,0.000,0.000,0.000,0.000*72
$GPRMC,063144.004,A,0441.6369832,N,12936.7302667,E,231.89,174.23,210521,0.0,E,D,V*71
$GPGGA,063144.004,0441.6369832,N,12936.7302667,E,2,24,1.0,-309628.927,M,69.100,M,0.0,0000*63
$GPESA,063144.004,-55.387,+51.358,-92.333,+0.000,+0.000,+0.000*4C
$GPESD,063144.004,0.000,0.000,0.000,0.000,0.000,0.000,0.000,0.000,0.000*75
$GPRMC,063145.004,A,0650.2226734,N,13547.7029376,E,720.02,169.42,210521,0.0,E,D,V*7C
$GPGGA,063145.004,0650.2226734,N,13547.7029376,E,2,23,1.0,419006.809,M,63.300,M,0.0,0000*40
$GPESA,063145.004,-97.159,-0.090,-357.442,+0.000,+0.000,+0.000*4C
$GPESD,063145.004,0.000,0.000,0.000,0.000,0.000,0.000,0.000,0.000,0.000*74
$GPRMC,063146.004,A,1412.5305203,N,12619.3014569,E,358.06,129.78,210521,0.0,E,D,V*75
$GPGGA,063146.004,1412.5305203,N,12619.3014569,E,2,22,1.0,-397395.586,M,47.063,M,0.0,0000*65
$GPESA,063146.004,-154.514,-20.286,-98.204,+0.000,+0.000,+0.000*7F
$GPESD,063146.004,0.000,0.000,0.000,0.000,0.000,0.000,0.000,0.000,0.000*77
$GPRMC,063147.004,A,1412.4089493,N,12619.4359659,E,359.59,133.92,210521,0.0,E,D,V*74
$GPGGA,063147.004,1412.4089493,N,12619.4359659,E,2,22,1.0,-397294.822,M,47.073,M,0.0,0000*62
$GPESA,063147.004,-149.482,-13.725,-108.111,+0.000,+0.000,+0.000*4F
$GPESD,063147.004,0.000,0.000,0.000,0.000,0.000,0.000,0.000,0.000,0.000*76
$GPRMC,063148.004,A,1632.7147811,N,12507.5943794,E,327.65,134.50,210521,0.0,E,D,V*7E
$GPGGA,063148.004,1632.7147811,N,12507.5943794,E,2,22,1.0,-569709.033,M,43.603,M,0.0,0000*6C
$GPESA,063148.004,-140.521,+0.852,-93.083,+0.000,+0.000,+0.000*43
$GPESD,063148.004,0.000,0.000,0.000,0.000,0.000,0.000,0.000,0.000,0.000*79
$GPRMC,063149.004,A,1632.6866207,N,12507.6658986,E,407.92,137.41,210521,0.0,E,D,V*7C
$GPGGA,063149.004,1632.6866207,N,12507.6658986,E,2,22,1.0,-569633.907,M,43.604,M,0.0,0000*61
$GPESA,063149.004,-174.015,+17.643,-115.950,+0.000,+0.000,+0.000*47
