$GPRMC,062844.004,A,2218.0950461,N,11411.4195481,E,0.21,0.00,210521,0.0,E,A,V*77
$GPGGA,062844.004,2218.0950461,N,11411.4195481,E,1,19,1.0,1.339,M,-2.124,M,0.0,0000*65
$GPESA,062844.004,+0.070,+0.021,-0.077,+0.000,+0.000,+0.000*78
$GPESD,062844.004,0.000,0.000,0.000,0.000,0.000,0.000,0.000,0.000,0.000*7D
$GPRMC,062845.004,A,2218.0947321,N,11411.4197807,E,0.36,0.00,210521,0.0,E,A,V*75
$GPGGA,062845.004,2218.0947321,N,11411.4197807,E,1,19,1.0,0.727,M,-2.124,M,0.0,0000*6B
$GPESA,062845.004,+0.078,+0.062,+0.154,+0.000,+0.000,+0.000*70
$GPESD,062845.004,0.000,0.000,0.000,0.000,0.000,0.000,0.000,0.000,0.000*7C
$GPRMC,062846.004,A,2218.0951423,N,11411.4195211,E,0.24,267.60,210521,0.0,E,A,V*7D
$GPGGA,062846.004,2218.0951423,N,11411.4195211,E,1,19,1.0,1.865,M,-2.124,M,0.0,0000*6D
$GPESA,062846.004,+0.010,-0.035,+0.119,+0.000,+0.000,+0.000*70
$GPESD,062846.004,0.000,0.000,0.000,0.000,0.000,0.000,0.000,0.000,0.000*7F
$GPRMC,062847.004,A,2218.0954738,N,11411.4192187,E,0.30,267.60,210521,0.0,E,A,V*7E
$GPGGA,062847.004,2218.0954738,N,11411.4192187,E,1,19,1.0,2.343,M,-2.124,M,0.0,0000*67
$GPESA,062847.004,+0.058,-0.009,+0.140,+0.000,+0.000,+0.000*7E
$GPESD,062847.004,0.000,0.000,0.000,0.000,0.000,0.000,0.000,0.000,0.000*7E
$GPRMC,062848.004,A,2218.0950696,N,11411.4194238,E,0.10,261.33,210521,0.0,E,A,V*73
$GPGGA,062848.004,2218.0950696,N,11411.4194238,E,1,19,1.0,1.239,M,-2.124,M,0.0,0000*67
$GPESA,062848.004,+0.033,-0.028,+0.032,+0.000,+0.000,+0.000*7B
$GPESD,062848.004,0.000,0.000,0.000,0.000,0.000,0.000,0.000,0.000,0.000*71
$GPRMC,062849.004,A,2218.0951016,N,11411.4194483,E,0.35,261.33,210521,0.0,E,A,V*7C
$GPGGA,062849.004,2218.0951016,N,11411.4194483,E,1,19,1.0,1.296,M,-2.124,M,0.0,0000*6A
$GPESA,062849.004,-0.123,+0.110,-0.074,+0.000,+0.000,+0.000*74
$GPESD,062849.004,0.000,0.000,0.000,0.000,0.000,0.000,0.000,0.000,0.000*70
$GPRMC,062850.004,A,2218.0951391,N,11411.4193198,E,1.01,261.18,210521,0.0,E,A,V*7F
$GPGGA,062850.004,2218.0951391,N,11411.4193198,E,1,19,1.0,1.284,M,-2.124,M,0.0,0000*65
$GPESA,062850.004,-0.483,+0.137,+0.136,+0.000,+0.000,+0.000*77
$GPESD,062850.004,0.000,0.000,0.000,0.000,0.000,0.000,0.000,0.000,0.000*78
$GPRMC,062851.004,A,2218.0950827,N,11411.4188673,E,1.74,267.62,210521,0.0,E,A,V*78
$GPGGA,062851.004,2218.0950827,N,11411.4188673,E,1,19,1.0,1.154,M,-2.124,M,0.0,0000*65
$GPESA,062851.004,-0.877,-0.024,-0.182,+0.000,+0.000,+0.000*7D
$GPESD,062851.004,0.000,0.000,0.000,0.000,0.000,0.000,0.000,0.000,0.000*79
$GPRMC,062852.004,A,2218.0954656,N,11411.4179462,E,2.48,106.01,210521,0.0,E,A,V*76
$GPGGA,062852.004,2218.0954656,N,11411.4179462,E,1,19,1.0,2.135,M,-2.124,M,0.0,0000*62
$GPESA,062852.004,-1.269,+0.091,-0.100,+0.000,+0.000,+0.000*78
$GPESD,062852.004,0.000,0.000,0.000,0.000,0.000,0.000,0.000,0.000,0.000*7A
$GPRMC,062853.004,A,2218.0956245,N,11411.4172326,E,2.84,112.35,210521,0.0,E,A,V*7D
$GPGGA,062853.004,2218.0956245,N,11411.4172326,E,1,19,1.0,2.067,M,-2.124,M,0.0,0000*6D
$GPESA,062853.004,-1.248,+0.745,+0.118,+0.000,+0.000,+0.000*7B
$GPESD,062853.004,0.000,0.000,0.000,0.000,0.000,0.000,0.000,0.000,0.000*7B
$GPRMC,062854.004,A,2218.0961201,N,11411.4166701,E,2.80,154.63,210521,0.0,E,A,V*7F
$GPGGA,062854.004,2218.0961201,N,11411.4166701,E,1,19,1.0,1.867,M,-2.124,M,0.0,0000*61
$GPESA,062854.004,-0.783,+1.207,+0.083,+0.000,+0.000,+0.000*7E
$GPESD,062854.004,0.000,0.000,0.000,0.000,0.000,0.000,0.000,0.000,0.000*7C
$GPRMC,062855.004,A,2218.0967766,N,11411.4162726,E,3.04,166.56,210521,0.0,E,A,V*77
$GPGGA,062855.004,2218.0967766,N,11411.4162726,E,1,19,1.0,1.614,M,-2.124,M,0.0,0000*69
$GPESA,062855.004,-0.780,+1.353,-0.074,+0.000,+0.000,+0.000*72
$GPESD,062855.004,0.000,0.000,0.000,0.000,0.000,0.000,0.000,0.000,0.000*7D
$GPRMC,062856.004,A,2218.0974827,N,11411.4158337,E,3.20,159.48,210521,0.0,E,A,V*74
$GPGGA,062856.004,2218.0974827,N,11411.4158337,E,1,19,1.0,1.310,M,-2.124,M,0.0,0000*6E
$GPESA,062856.004,-0.748,+1.420,+0.368,+0.000,+0.000,+0.000*7E
$GPESD,062856.004,0.000,0.000,0.000,0.000,0.000,0.000,0.000,0.000,0.000*7E
$GPRMC,062857.004,A,2218.0983074,N,11411.4156722,E,3.46,164.70,210521,0.0,E,A,V*78
$GPGGA,062857.004,2218.0983074,N,11411.4156722,E,1,20,1.0,2.296,M,-2.124,M,0.0,0000*61
$GPESA,062857.004,-0.907,+1.527,-0.075,+0.000,+0.000,+0.000*75
$GPESD,062857.004,0.000,0.000,0.000,0.000,0.000,0.000,0.000,0.000,0.000*7F
$GPRMC,062858.004,A,2218.0992410,N,11411.4151748,E,4.49,183.68,210521,0.0,E,A,V*72
$GPGGA,062858.004,2218.0992410,N,11411.4151748,E,1,20,1.0,2.278,M,-2.124,M,0.0,0000*63
$GPESA,062858.004,-0.898,+2.128,+0.056,+0.000,+0.000,+0.000*72
$GPESD,062858.004,0.000,0.000,0.000,0.000,0.000,0.000,0.000,0.000,0.000*70
$GPRMC,062859.004,A,2218.1001477,N,11411.4145327,E,5.95,175.01,210521,0.0,E,A,V*7E
$GPGGA,062859.004,2218.1001477,N,11411.4145327,E,1,20,1.0,1.335,M,-2.125,M,0.0,0000*63
$GPESA,062859.004,-1.350,+2.750,-0.038,+0.000,+0.000,+0.000*7A
$GPESD,062859.004,0.000,0.000,0.000,0.000,0.000,0.000,0.000,0.000,0.000*71
$GPRMC,062900.004,A,2218.1019749,N,11411.4136014,E,7.29,186.53,210521,0.0,E,A,V*7D
$GPGGA,062900.004,2218.1019749,N,11411.4136014,E,1,19,1.0,2.240,M,-2.125,M,0.0,0000*64
$GPESA,062900.004,-1.382,+3.489,-0.060,+0.000,+0.000,+0.000*73
$GPESD,062900.004,0.000,0.000,0.000,0.000,0.000,0.000,0.000,0.000,0.000*7C
$GPRMC,062901.004,A,2218.1035719,N,11411.4128029,E,8.63,178.83,210521,0.0,E,A,V*7B
$GPGGA,062901.004,2218.1035719,N,11411.4128029,E,1,19,1.0,1.050,M,-2.125,M,0.0,0000*6F
$GPESA,062901.004,-1.851,+4.022,-0.321,+0.000,+0.000,+0.000*73
$GPESD,062901.004,0.000,0.000,0.000,0.000,0.000,0.000,0.000,0.000,0.000*7D
$GPRMC,062902.004,A,2218.1060846,N,11411.4115660,E,9.55,185.11,210521,0.0,E,A,V*75
$GPGGA,062902.004,2218.1060846,N,11411.4115660,E,1,19,1.0,1.790,M,-2.125,M,0.0,0000*67
$GPESA,062902.004,-1.866,+4.543,+0.091,+0.000,+0.000,+0.000*78
$GPESD,062902.004,0.000,0.000,0.000,0.000,0.000,0.000,0.000,0.000,0.000*7E
$GPRMC,062903.004,A,2218.1085011,N,11411.4099148,E,10.55,184.55,210521,0.0,E,A,V*44
$GPGGA,062903.004,2218.1085011,N,11411.4099148,E,1,19,1.0,0.506,M,-2.125,M,0.0,0000*63
$GPESA,062903.004,-2.063,+5.018,-0.144,+0.000,+0.000,+0.000*72
$GPESD,062903.004,0.000,0.000,0.000,0.000,0.000,0.000,0.000,0.000,0.000*7F
$GPRMC,062904.004,A,2218.1112788,N,11411.4086093,E,11.65,172.85,210521,0.0,E,A,V*44
$GPGGA,062904.004,2218.1112788,N,11411.4086093,E,1,19,1.0,0.374,M,-2.125,M,0.0,0000*66
$GPESA,062904.004,-2.696,+5.349,+0.154,+0.000,+0.000,+0.000*79
$GPESD,062904.004,0.000,0.000,0.000,0.000,0.000,0.000,0.000,0.000,0.000*78
$GPRMC,062905.004,A,2218.1144485,N,11411.4072334,E,12.32,178.94,210521,0.0,E,A,V*46
$GPGGA,062905.004,2218.1144485,N,11411.4072334,E,1,18,1.0,0.659,M,-2.125,M,0.0,0000*64
$GPESA,062905.004,-2.634,+5.763,+0.187,+0.000,+0.000,+0.000*72
$GPESD,062905.004,0.000,0.000,0.000,0.000,0.000,0.000,0.000,0.000,0.000*79
$GPRMC,062906.004,A,2218.1175732,N,11411.4053008,E,12.62,178.34,210521,0.0,E,A,V*48
$GPGGA,062906.004,2218.1175732,N,11411.4053008,E,1,17,1.0,1.173,M,-2.126,M,0.0,0000*67
$GPESA,062906.004,-2.726,+5.892,-0.030,+0.000,+0.000,+0.000*79
$GPESD,062906.004,0.000,0.000,0.000,0.000,0.000,0.000,0.000,0.000,0.000*7A
$GPRMC,062907.004,A,2218.1208648,N,11411.4042681,E,12.41,177.79,210521,0.0,E,A,V*4C
$GPGGA,062907.004,2218.1208648,N,11411.4042681,E,1,18,1.0,0.140,M,-2.126,M,0.0,0000*6A
$GPESA,062907.004,-2.693,+5.784,+0.196,+0.000,+0.000,+0.000*74
$GPESD,062907.004,0.000,0.000,0.000,0.000,0.000,0.000,0.000,0.000,0.000*7B
$GPRMC,062908.004,A,2218.1237579,N,11411.4023653,E,11.90,178.10,210521,0.0,E,A,V*49
$GPGGA,062908.004,2218.1237579,N,11411.4023653,E,1,17,1.0,0.765,M,-2.126,M,0.0,0000*6E
$GPESA,062908.004,-2.582,+5.550,-0.121,+0.000,+0.000,+0.000*79
$GPESD,062908.004,0.000,0.000,0.000,0.000,0.000,0.000,0.000,0.000,0.000*74
$GPRMC,062909.004,A,2218.1267695,N,11411.4008013,E,11.62,175.54,210521,0.0,E,A,V*47
$GPGGA,062909.004,2218.1267695,N,11411.4008013,E,1,17,1.0,1.057,M,-2.126,M,0.0,0000*67
$GPESA,062909.004,-2.596,+5.379,+0.180,+0.000,+0.000,+0.000*7D
$GPESD,062909.004,0.000,0.000,0.000,0.000,0.000,0.000,0.000,0.000,0.000*75
$GPRMC,062910.004,A,2218.1296405,N,11411.3992026,E,11.18,173.29,210521,0.0,E,A,V*40
$GPGGA,062910.004,2218.1296405,N,11411.3992026,E,1,16,1.0,1.456,M,-2.126,M,0.0,0000*65
$GPESA,062910.004,-2.589,+5.134,-0.015,+0.000,+0.000,+0.000*7B
$GPESD,062910.004,0.000,0.000,0.000,0.000,0.000,0.000,0.000,0.000,0.000*7D
$GPRMC,062911.004,A,2218.1324578,N,11411.3973343,E,11.51,169.52,210521,0.0,E,A,V*47
$GPGGA,062911.004,2218.1324578,N,11411.3973343,E,1,16,1.0,2.240,M,-2.127,M,0.0,0000*6B
$GPESA,062911.004,-2.856,+5.172,-0.423,+0.000,+0.000,+0.000*76
$GPESD,062911.004,0.000,0.000,0.000,0.000,0.000,0.000,0.000,0.000,0.000*7C
$GPRMC,062912.004,A,2218.1345924,N,11411.3958491,E,10.79,142.05,210521,0.0,E,A,V*47
$GPGGA,062912.004,2218.1345924,N,11411.3958491,E,1,16,1.0,1.423,M,-2.127,M,0.0,0000*6B
$GPESA,062912.004,-3.730,+4.103,-0.224,+0.000,+0.000,+0.000*7D
$GPESD,062912.004,0.000,0.000,0.000,0.000,0.000,0.000,0.000,0.000,0.000*7F
$GPRMC,062913.004,A,2218.1368828,N,11411.3936540,E,10.17,119.83,210521,0.0,E,A,V*49
$GPGGA,062913.004,2218.1368828,N,11411.3936540,E,1,16,1.0,0.081,M,-2.127,M,0.0,0000*60
$GPESA,062913.004,-4.313,+2.960,+0.146,+0.000,+0.000,+0.000*74
$GPESD,062913.004,0.000,0.000,0.000,0.000,0.000,0.000,0.000,0.000,0.000*7E
$GPRMC,062914.004,A,2218.1375920,N,11411.3912309,E,9.57,111.32,210521,0.0,E,A,V*78
$GPGGA,062914.004,2218.1375920,N,11411.3912309,E,1,16,1.0,0.554,M,-2.127,M,0.0,0000*62
$GPESA,062914.004,-4.640,+1.647,-0.105,+0.000,+0.000,+0.000*78
$GPESD,062914.004,0.000,0.000,0.000,0.000,0.000,0.000,0.000,0.000,0.000*79
$GPRMC,062915.004,A,2218.1388228,N,11411.3886568,E,9.14,101.82,210521,0.0,E,A,V*78
$GPGGA,062915.004,2218.1388228,N,11411.3886568,E,1,17,1.0,-0.675,M,-2.127,M,0.0,0000*43
$GPESA,062915.004,-4.690,+0.307,-0.037,+0.000,+0.000,+0.000*74
$GPESD,062915.004,0.000,0.000,0.000,0.000,0.000,0.000,0.000,0.000,0.000*78
$GPRMC,062916.004,A,2218.1382191,N,11411.3859465,E,8.90,96.78,210521,0.0,E,A,V*49
$GPGGA,062916.004,2218.1382191,N,11411.3859465,E,1,17,1.0,0.100,M,-2.127,M,0.0,0000*6D
$GPESA,062916.004,-4.522,-0.708,-0.072,+0.000,+0.000,+0.000*71
$GPESD,062916.004,0.000,0.000,0.000,0.000,0.000,0.000,0.000,0.000,0.000*7B
$GPRMC,062917.004,A,2218.1382799,N,11411.3834215,E,8.80,92.00,210521,0.0,E,A,V*46
$GPGGA,062917.004,2218.1382799,N,11411.3834215,E,1,16,1.0,-1.246,M,-2.128,M,0.0,0000*4B
$GPESA,062917.004,-4.183,-1.725,-0.113,+0.000,+0.000,+0.000*77
$GPESD,062917.004,0.000,0.000,0.000,0.000,0.000,0.000,0.000,0.000,0.000*7A
$GPRMC,062918.004,A,2218.1370894,N,11411.3810974,E,8.84,86.26,210521,0.0,E,A,V*49
$GPGGA,062918.004,2218.1370894,N,11411.3810974,E,1,16,1.0,-0.870,M,-2.128,M,0.0,0000*4F
$GPESA,062918.004,-3.852,-2.422,+0.060,+0.000,+0.000,+0.000*7E
$GPESD,062918.004,0.000,0.000,0.000,0.000,0.000,0.000,0.000,0.000,0.000*75
$GPRMC,062919.004,A,2218.1345665,N,11411.3775358,E,8.70,86.28,210521,0.0,E,A,V*43
$GPGGA,062919.004,2218.1345665,N,11411.3775358,E,1,17,1.0,3.162,M,-2.128,M,0.0,0000*65
$GPESA,062919.004,-3.816,-2.333,+0.081,+0.000,+0.000,+0.000*77
$GPESD,062919.004,0.000,0.000,0.000,0.000,0.000,0.000,0.000,0.000,0.000*74
$GPRMC,062920.004,A,2218.1338910,N,11411.3761656,E,9.10,87.25,210521,0.0,E,A,V*4B
$GPGGA,062920.004,2218.1338910,N,11411.3761656,E,1,17,1.0,1.577,M,-2.128,M,0.0,0000*64
$GPESA,062920.004,-3.860,-2.647,-0.102,+0.000,+0.000,+0.000*76
$GPESD,062920.004,0.000,0.000,0.000,0.000,0.000,0.000,0.000,0.000,0.000*7E
$GPRMC,062921.004,A,2218.1328926,N,11411.3743268,E,8.47,87.01,210521,0.0,E,A,V*42
$GPGGA,062921.004,2218.1328926,N,11411.3743268,E,1,17,1.0,0.703,M,-2.128,M,0.0,0000*68
$GPESA,062921.004,-3.698,-2.302,+0.004,+0.000,+0.000,+0.000*7B
$GPESD,062921.004,0.000,0.000,0.000,0.000,0.000,0.000,0.000,0.000,0.000*7F
$GPRMC,062922.004,A,2218.1310287,N,11411.3718119,E,7.88,86.01,210521,0.0,E,A,V*4C
$GPGGA,062922.004,2218.1310287,N,11411.3718119,E,1,17,1.0,2.320,M,-2.128,M,0.0,0000*6C
$GPESA,062922.004,-3.361,-2.262,+0.020,+0.000,+0.000,+0.000*7A
$GPESD,062922.004,0.000,0.000,0.000,0.000,0.000,0.000,0.000,0.000,0.000*7C
$GPRMC,062923.004,A,2218.1301864,N,11411.3702576,E,7.19,86.48,210521,0.0,E,A,V*49
$GPGGA,062923.004,2218.1301864,N,11411.3702576,E,1,17,1.0,1.734,M,-2.128,M,0.0,0000*6E
$GPESA,062923.004,-3.003,-2.158,-0.062,+0.000,+0.000,+0.000*76
$GPESD,062923.004,0.000,0.000,0.000,0.000,0.000,0.000,0.000,0.000,0.000*7D
$GPRMC,062924.004,A,2218.1295841,N,11411.3702199,E,6.47,86.43,210521,0.0,E,A,V*41
$GPGGA,062924.004,2218.1295841,N,11411.3702199,E,1,17,1.0,-2.259,M,-2.128,M,0.0,0000*47
$GPESA,062924.004,-2.582,-2.096,-0.134,+0.000,+0.000,+0.000*7D
$GPESD,062924.004,0.000,0.000,0.000,0.000,0.000,0.000,0.000,0.000,0.000*7A
$GPRMC,062925.004,A,2218.1282976,N,11411.3675678,E,6.55,85.24,210521,0.0,E,A,V*4B
$GPGGA,062925.004,2218.1282976,N,11411.3675678,E,1,18,1.0,1.243,M,-2.128,M,0.0,0000*66
$GPESA,062925.004,-2.694,-2.021,-0.008,+0.000,+0.000,+0.000*7A
$GPESD,062925.004,0.000,0.000,0.000,0.000,0.000,0.000,0.000,0.000,0.000*7B
$GPRMC,062926.004,A,2218.1267648,N,11411.3652333,E,6.99,84.11,210521,0.0,E,A,V*49
$GPGGA,062926.004,2218.1267648,N,11411.3652333,E,1,17,1.0,1.584,M,-2.128,M,0.0,0000*60
$GPESA,062926.004,-2.877,-2.158,+0.067,+0.000,+0.000,+0.000*7A
$GPESD,062926.004,0.000,0.000,0.000,0.000,0.000,0.000,0.000,0.000,0.000*78
$GPRMC,062927.004,A,2218.1254102,N,11411.3639985,E,8.15,82.46,210521,0.0,E,A,V*45
$GPGGA,062927.004,2218.1254102,N,11411.3639985,E,1,17,1.0,-0.223,M,-2.128,M,0.0,0000*44
$GPESA,062927.004,-3.370,-2.489,+0.221,+0.000,+0.000,+0.000*7F
$GPESD,062927.004,0.000,0.000,0.000,0.000,0.000,0.000,0.000,0.000,0.000*79
$GPRMC,062928.004,A,2218.1243853,N,11411.3614951,E,8.79,88.57,210521,0.0,E,A,V*47
$GPGGA,062928.004,2218.1243853,N,11411.3614951,E,1,17,1.0,0.945,M,-2.128,M,0.0,0000*60
$GPESA,062928.004,-3.958,-2.188,-0.032,+0.000,+0.000,+0.000*72
$GPESD,062928.004,0.000,0.000,0.000,0.000,0.000,0.000,0.000,0.000,0.000*76
$GPRMC,062929.004,A,2218.1231621,N,11411.3592785,E,9.99,88.80,210521,0.0,E,A,V*47
$GPGGA,062929.004,2218.1231621,N,11411.3592785,E,1,15,1.0,0.957,M,-2.129,M,0.0,0000*65
$GPESA,062929.004,-4.792,-1.836,+0.234,+0.000,+0.000,+0.000*71
$GPESD,062929.004,0.000,0.000,0.000,0.000,0.000,0.000,0.000,0.000,0.000*77
$GPRMC,062930.004,A,2218.1222710,N,11411.3566250,E,10.35,90.78,210521,0.0,E,A,V*78
$GPGGA,062930.004,2218.1222710,N,11411.3566250,E,1,15,1.0,0.074,M,-2.129,M,0.0,0000*62
$GPESA,062930.004,-5.208,-1.013,+0.420,+0.000,+0.000,+0.000*72
$GPESD,062930.004,0.000,0.000,0.000,0.000,0.000,0.000,0.000,0.000,0.000*7F
$GPRMC,062931.004,A,2218.1220834,N,11411.3534778,E,10.53,97.60,210521,0.0,E,A,V*74
$GPGGA,062931.004,2218.1220834,N,11411.3534778,E,1,15,1.0,-0.266,M,-2.129,M,0.0,0000*4C
$GPESA,062931.004,-5.415,-0.097,+0.156,+0.000,+0.000,+0.000*70
$GPESD,062931.004,0.000,0.000,0.000,0.000,0.000,0.000,0.000,0.000,0.000*7E
$GPRMC,062932.004,A,2218.1224943,N,11411.3495853,E,11.23,104.21,210521,0.0,E,A,V*46
$GPGGA,062932.004,2218.1224943,N,11411.3495853,E,1,15,1.0,-0.827,M,-2.129,M,0.0,0000*49
$GPESA,062932.004,-5.662,+1.152,+0.098,+0.000,+0.000,+0.000*7D
$GPESD,062932.004,0.000,0.000,0.000,0.000,0.000,0.000,0.000,0.000,0.000*7D
$GPRMC,062933.004,A,2218.1246146,N,11411.3472885,E,11.50,109.96,210521,0.0,E,A,V*49
$GPGGA,062933.004,2218.1246146,N,11411.3472885,E,1,14,1.0,2.776,M,-2.129,M,0.0,0000*66
$GPESA,062933.004,-5.428,+2.346,+0.223,+0.000,+0.000,+0.000*76
$GPESD,062933.004,0.000,0.000,0.000,0.000,0.000,0.000,0.000,0.000,0.000*7C
$GPRMC,062934.004,A,2218.1254451,N,11411.3435704,E,12.98,110.92,210521,0.0,E,A,V*40
$GPGGA,062934.004,2218.1254451,N,11411.3435704,E,1,15,1.0,-0.291,M,-2.130,M,0.0,0000*4E
$GPESA,062934.004,-5.444,+3.763,+0.908,+0.000,+0.000,+0.000*7B
$GPESD,062934.004,0.000,0.000,0.000,0.000,0.000,0.000,0.000,0.000,0.000*7B
$GPRMC,062935.004,A,2218.1266853,N,11411.3399098,E,11.92,121.50,210521,0.0,E,A,V*48
$GPGGA,062935.004,2218.1266853,N,11411.3399098,E,1,16,1.0,-2.763,M,-2.130,M,0.0,0000*4A
$GPESA,062935.004,-5.158,+3.315,-0.110,+0.000,+0.000,+0.000*70
$GPESD,062935.004,0.000,0.000,0.000,0.000,0.000,0.000,0.000,0.000,0.000*7A
$GPRMC,062936.004,A,2218.1282336,N,11411.3367764,E,11.57,119.34,210521,0.0,E,A,V*4C
$GPGGA,062936.004,2218.1282336,N,11411.3367764,E,1,16,1.0,-2.451,M,-2.130,M,0.0,0000*4C
$GPESA,062936.004,-4.975,+3.266,+0.114,+0.000,+0.000,+0.000*72
$GPESD,062936.004,0.000,0.000,0.000,0.000,0.000,0.000,0.000,0.000,0.000*79
$GPRMC,062937.004,A,2218.1301886,N,11411.3344062,E,10.39,119.77,210521,0.0,E,A,V*49
$GPGGA,062937.004,2218.1301886,N,11411.3344062,E,1,16,1.0,-3.074,M,-2.130,M,0.0,0000*45
$GPESA,062937.004,-4.406,+3.019,+0.150,+0.000,+0.000,+0.000*70
$GPESD,062937.004,0.000,0.000,0.000,0.000,0.000,0.000,0.000,0.000,0.000*78
$GPRMC,062938.004,A,2218.1312247,N,11411.3322657,E,8.55,112.72,210521,0.0,E,A,V*7E
$GPGGA,062938.004,2218.1312247,N,11411.3322657,E,1,16,1.0,-2.525,M,-2.130,M,0.0,0000*4F
$GPESA,062938.004,-3.636,+2.427,+0.468,+0.000,+0.000,+0.000*7F
$GPESD,062938.004,0.000,0.000,0.000,0.000,0.000,0.000,0.000,0.000,0.000*77
$GPRMC,062939.004,A,2218.1321055,N,11411.3301158,E,6.61,113.39,210521,0.0,E,A,V*70
$GPGGA,062939.004,2218.1321055,N,11411.3301158,E,1,16,1.0,-3.198,M,-2.131,M,0.0,0000*44
$GPESA,062939.004,-3.056,+1.493,+0.055,+0.000,+0.000,+0.000*78
$GPESD,062939.004,0.000,0.000,0.000,0.000,0.000,0.000,0.000,0.000,0.000*76
$GPRMC,062940.004,A,2218.1324700,N,11411.3286973,E,4.53,125.31,210521,0.0,E,A,V*7D
$GPGGA,062940.004,2218.1324700,N,11411.3286973,E,1,16,1.0,-1.773,M,-2.131,M,0.0,0000*46
$GPESA,062940.004,-2.102,+0.855,-0.526,+0.000,+0.000,+0.000*77
$GPESD,062940.004,0.000,0.000,0.000,0.000,0.000,0.000,0.000,0.000,0.000*78
$GPRMC,062941.004,A,2218.1333097,N,11411.3274463,E,3.16,109.00,210521,0.0,E,A,V*78
$GPGGA,062941.004,2218.1333097,N,11411.3274463,E,1,17,1.0,1.340,M,-2.131,M,0.0,0000*61
$GPESA,062941.004,-1.477,+0.676,+0.103,+0.000,+0.000,+0.000*78
$GPESD,062941.004,0.000,0.000,0.000,0.000,0.000,0.000,0.000,0.000,0.000*79
$GPRMC,062942.004,A,2218.1334464,N,11411.3264905,E,3.56,108.26,210521,0.0,E,A,V*79
$GPGGA,062942.004,2218.1334464,N,11411.3264905,E,1,17,1.0,-0.295,M,-2.131,M,0.0,0000*44
$GPESA,062942.004,-1.795,+0.352,-0.099,+0.000,+0.000,+0.000*73
$GPESD,062942.004,0.000,0.000,0.000,0.000,0.000,0.000,0.000,0.000,0.000*7A
$GPRMC,062943.004,A,2218.1331670,N,11411.3254511,E,3.67,97.13,210521,0.0,E,A,V*43
$GPGGA,062943.004,2218.1331670,N,11411.3254511,E,1,17,1.0,-1.264,M,-2.131,M,0.0,0000*42
$GPESA,062943.004,-1.864,-0.305,-0.048,+0.000,+0.000,+0.000*7B
$GPESD,062943.004,0.000,0.000,0.000,0.000,0.000,0.000,0.000,0.000,0.000*7B
$GPRMC,062944.004,A,2218.1326922,N,11411.3245876,E,3.53,87.81,210521,0.0,E,A,V*4B
$GPGGA,062944.004,2218.1326922,N,11411.3245876,E,1,17,1.0,-2.058,M,-2.131,M,0.0,0000*49
$GPESA,062944.004,-1.395,-1.154,-0.126,+0.000,+0.000,+0.000*77
$GPESD,062944.004,0.000,0.000,0.000,0.000,0.000,0.000,0.000,0.000,0.000*7C
$GPRMC,062945.004,A,2218.1318679,N,11411.3244755,E,2.97,81.75,210521,0.0,E,A,V*4D
$GPGGA,062945.004,2218.1318679,N,11411.3244755,E,1,17,1.0,-4.004,M,-2.131,M,0.0,0000*44
$GPESA,062945.004,-0.810,-1.288,-0.147,+0.000,+0.000,+0.000*74
$GPESD,062945.004,0.000,0.000,0.000,0.000,0.000,0.000,0.000,0.000,0.000*7D
$GPRMC,062946.004,A,2218.1313642,N,11411.3240188,E,2.15,53.76,210521,0.0,E,A,V*49
$GPGGA,062946.004,2218.1313642,N,11411.3240188,E,1,17,1.0,-3.262,M,-2.131,M,0.0,0000*43
$GPESA,062946.004,-0.228,-1.070,+0.150,+0.000,+0.000,+0.000*73
$GPESD,062946.004,0.000,0.000,0.000,0.000,0.000,0.000,0.000,0.000,0.000*7E
$GPRMC,062947.004,A,2218.1311575,N,11411.3238064,E,0.86,95.51,210521,0.0,E,A,V*46
$GPGGA,062947.004,2218.1311575,N,11411.3238064,E,1,17,1.0,-2.794,M,-2.131,M,0.0,0000*46
$GPESA,062947.004,-0.052,-0.204,-0.391,+0.000,+0.000,+0.000*74
$GPESD,062947.004,0.000,0.000,0.000,0.000,0.000,0.000,0.000,0.000,0.000*7F
$GPRMC,062948.004,A,2218.1312496,N,11411.3236714,E,0.24,89.68,210521,0.0,E,A,V*47
$GPGGA,062948.004,2218.1312496,N,11411.3236714,E,1,17,1.0,-1.615,M,-2.131,M,0.0,0000*43
$GPESA,062948.004,+0.051,+0.096,-0.063,+0.000,+0.000,+0.000*7F
$GPESD,062948.004,0.000,0.000,0.000,0.000,0.000,0.000,0.000,0.000,0.000*70
$GPRMC,062949.004,A,2218.1313604,N,11411.3238035,E,0.12,342.24,210521,0.0,E,A,V*7D
$GPGGA,062949.004,2218.1313604,N,11411.3238035,E,1,17,1.0,-1.468,M,-2.131,M,0.0,0000*48
$GPESA,062949.004,+0.004,-0.058,+0.024,+0.000,+0.000,+0.000*7F
$GPESD,062949.004,0.000,0.000,0.000,0.000,0.000,0.000,0.000,0.000,0.000*71
$GPRMC,062950.004,A,2218.1314907,N,11411.3236035,E,0.53,208.80,210521,0.0,E,A,V*74
$GPGGA,062950.004,2218.1314907,N,11411.3236035,E,1,17,1.0,-0.494,M,-2.131,M,0.0,0000*47
$GPESA,062950.004,-0.007,-0.069,-0.266,+0.000,+0.000,+0.000*72
$GPESD,062950.004,0.000,0.000,0.000,0.000,0.000,0.000,0.000,0.000,0.000*79
$GPRMC,062951.004,A,2218.1314156,N,11411.3237597,E,0.58,208.95,210521,0.0,E,A,V*7A
$GPGGA,062951.004,2218.1314156,N,11411.3237597,E,1,17,1.0,-0.655,M,-2.131,M,0.0,0000*49
$GPESA,062951.004,+0.034,-0.017,-0.297,+0.000,+0.000,+0.000*72
$GPESD,062951.004,0.000,0.000,0.000,0.000,0.000,0.000,0.000,0.000,0.000*78
$GPRMC,062952.004,A,2218.1314782,N,11411.3237954,E,0.74,342.49,210521,0.0,E,A,V*75
$GPGGA,062952.004,2218.1314782,N,11411.3237954,E,1,17,1.0,-0.975,M,-2.131,M,0.0,0000*4B
$GPESA,062952.004,-0.001,-0.116,-0.360,+0.000,+0.000,+0.000*78
$GPESD,062952.004,0.000,0.000,0.000,0.000,0.000,0.000,0.000,0.000,0.000*7B
$GPRMC,062953.004,A,2218.1315459,N,11411.3238405,E,0.28,342.73,210521,0.0,E,A,V*76
$GPGGA,062953.004,2218.1315459,N,11411.3238405,E,1,17,1.0,-0.760,M,-2.131,M,0.0,0000*42
$GPESA,062953.004,-0.074,-0.098,-0.076,+0.000,+0.000,+0.000*78
$GPESD,062953.004,0.000,0.000,0.000,0.000,0.000,0.000,0.000,0.000,0.000*7A
$GPRMC,062954.004,A,2218.1314816,N,11411.3238473,E,0.37,5.61,210521,0.0,E,A,V*7B
$GPGGA,062954.004,2218.1314816,N,11411.3238473,E,1,17,1.0,-1.175,M,-2.131,M,0.0,0000*41
$GPESA,062954.004,+0.087,+0.099,+0.137,+0.000,+0.000,+0.000*70
$GPESD,062954.004,0.000,0.000,0.000,0.000,0.000,0.000,0.000,0.000,0.000*7D
$GPRMC,062955.004,A,2218.1314656,N,11411.3239074,E,0.29,5.54,210521,0.0,E,A,V*7B
$GPGGA,062955.004,2218.1314656,N,11411.3239074,E,1,17,1.0,-1.076,M,-2.131,M,0.0,0000*4A
$GPESA,062955.004,-0.010,-0.020,-0.147,+0.000,+0.000,+0.000*7C
$GPESD,062955.004,0.000,0.000,0.000,0.000,0.000,0.000,0.000,0.000,0.000*7C
$GPRMC,062956.004,A,2218.1314854,N,11411.3239389,E,0.21,5.42,210521,0.0,E,A,V*7A
$GPGGA,062956.004,2218.1314854,N,11411.3239389,E,1,17,1.0,-0.925,M,-2.131,M,0.0,0000*4A
$GPESA,062956.004,-0.086,+0.023,+0.058,+0.000,+0.000,+0.000*7C
$GPESD,062956.004,0.000,0.000,0.000,0.000,0.000,0.000,0.000,0.000,0.000*7F
$GPRMC,062957.004,A,2218.1314549,N,11411.3239615,E,0.31,5.29,210521,0.0,E,A,V*76
$GPGGA,062957.004,2218.1314549,N,11411.3239615,E,1,17,1.0,-1.052,M,-2.131,M,0.0,0000*42
$GPESA,062957.004,-0.039,+0.143,+0.053,+0.000,+0.000,+0.000*75
$GPESD,062957.004,0.000,0.000,0.000,0.000,0.000,0.000,0.000,0.000,0.000*7E
$GPRMC,062958.004,A,2218.1314936,N,11411.3239643,E,0.14,4.75,210521,0.0,E,A,V*71
$GPGGA,062958.004,2218.1314936,N,11411.3239643,E,1,17,1.0,-1.078,M,-2.131,M,0.0,0000*42
$GPESA,062958.004,+0.015,-0.060,-0.035,+0.000,+0.000,+0.000*72
$GPESD,062958.004,0.000,0.000,0.000,0.000,0.000,0.000,0.000,0.000,0.000*71
$GPRMC,062959.004,A,2218.1314398,N,11411.3239976,E,0.19,5.44,210521,0.0,E,A,V*79
$GPGGA,062959.004,2218.1314398,N,11411.3239976,E,1,17,1.0,-1.352,M,-2.131,M,0.0,0000*4F
$GPESA,062959.004,-0.075,-0.051,+0.039,+0.000,+0.000,+0.000*7B
$GPESD,062959.004,0.000,0.000,0.000,0.000,0.000,0.000,0.000,0.000,0.000*70
$GPRMC,063000.004,A,2218.1314878,N,11411.3240053,E,0.16,5.44,210521,0.0,E,A,V*77
$GPGGA,063000.004,2218.1314878,N,11411.3240053,E,1,17,1.0,-1.194,M,-2.131,M,0.0,0000*46
$GPESA,063000.004,-0.014,+0.022,+0.079,+0.000,+0.000,+0.000*7E
$GPESD,063000.004,0.000,0.000,0.000,0.000,0.000,0.000,0.000,0.000,0.000*74
$GPRMC,063001.004,A,2218.1314554,N,11411.3241037,E,0.47,113.47,210521,0.0,E,A,V*77
$GPGGA,063001.004,2218.1314554,N,11411.3241037,E,1,17,1.0,-1.427,M,-2.131,M,0.0,0000*4A
$GPESA,063001.004,+0.042,-0.048,-0.232,+0.000,+0.000,+0.000*7B
$GPESD,063001.004,0.000,0.000,0.000,0.000,0.000,0.000,0.000,0.000,0.000*75
$GPRMC,063002.004,A,2218.1314650,N,11411.3241273,E,0.45,91.12,210521,0.0,E,A,V*48
$GPGGA,063002.004,2218.1314650,N,11411.3241273,E,1,17,1.0,-1.214,M,-2.131,M,0.0,0000*4A
$GPESA,063002.004,-0.056,-0.093,-0.203,+0.000,+0.000,+0.000*7F
$GPESD,063002.004,0.000,0.000,0.000,0.000,0.000,0.000,0.000,0.000,0.000*76
$GPRMC,063003.004,A,2218.1315379,N,11411.3241743,E,0.26,89.76,210521,0.0,E,A,V*4E
$GPGGA,063003.004,2218.1315379,N,11411.3241743,E,1,17,1.0,-1.036,M,-2.131,M,0.0,0000*40
$GPESA,063003.004,-0.022,+0.061,-0.115,+0.000,+0.000,+0.000*72
$GPESD,063003.004,0.000,0.000,0.000,0.000,0.000,0.000,0.000,0.000,0.000*77
$GPRMC,063004.004,A,2218.1314749,N,11411.3241902,E,0.16,89.73,210521,0.0,E,A,V*42
$GPGGA,063004.004,2218.1314749,N,11411.3241902,E,1,17,1.0,-1.606,M,-2.131,M,0.0,0000*4F
$GPESA,063004.004,+0.030,-0.037,+0.066,+0.000,+0.000,+0.000*76
$GPESD,063004.004,0.000,0.000,0.000,0.000,0.000,0.000,0.000,0.000,0.000*70
$GPRMC,063005.004,A,2218.1315235,N,11411.3241690,E,0.39,89.72,210521,0.0,E,A,V*44
$GPGGA,063005.004,2218.1315235,N,11411.3241690,E,1,17,1.0,-1.521,M,-2.131,M,0.0,0000*43
$GPESA,063005.004,+0.004,+0.023,+0.198,+0.000,+0.000,+0.000*73
$GPESD,063005.004,0.000,0.000,0.000,0.000,0.000,0.000,0.000,0.000,0.000*71
$GPRMC,063006.004,A,2218.1314822,N,11411.3241472,E,0.46,89.72,210521,0.0,E,A,V*4C
$GPGGA,063006.004,2218.1314822,N,11411.3241472,E,1,17,1.0,-1.488,M,-2.131,M,0.0,0000*41
$GPESA,063006.004,+0.035,-0.060,-0.224,+0.000,+0.000,+0.000*71
$GPESD,063006.004,0.000,0.000,0.000,0.000,0.000,0.000,0.000,0.000,0.000*72
$GPRMC,063007.004,A,2218.1315382,N,11411.3241619,E,0.31,89.81,210521,0.0,E,A,V*4E
$GPGGA,063007.004,2218.1315382,N,11411.3241619,E,1,17,1.0,-1.487,M,-2.131,M,0.0,0000*40
$GPESA,063007.004,+0.037,+0.082,+0.131,+0.000,+0.000,+0.000*79
$GPESD,063007.004,0.000,0.000,0.000,0.000,0.000,0.000,0.000,0.000,0.000*73
$GPRMC,063008.004,A,2218.1314713,N,11411.3240704,E,0.15,89.71,210521,0.0,E,A,V*49
$GPGGA,063008.004,2218.1314713,N,11411.3240704,E,1,17,1.0,-1.467,M,-2.131,M,0.0,0000*40
$GPESA,063008.004,+0.005,+0.077,-0.015,+0.000,+0.000,+0.000*7C
$GPESD,063008.004,0.000,0.000,0.000,0.000,0.000,0.000,0.000,0.000,0.000*7C
$GPRMC,063009.004,A,2218.1314143,N,11411.3239777,E,0.20,89.73,210521,0.0,E,A,V*45
$GPGGA,063009.004,2218.1314143,N,11411.3239777,E,1,17,1.0,-1.416,M,-2.131,M,0.0,0000*4E
$GPESA,063009.004,-0.037,+0.048,+0.085,+0.000,+0.000,+0.000*79
$GPESD,063009.004,0.000,0.000,0.000,0.000,0.000,0.000,0.000,0.000,0.000*7D
$GPRMC,063010.004,A,2218.1313755,N,11411.3238731,E,0.30,89.73,210521,0.0,E,A,V*49
$GPGGA,063010.004,2218.1313755,N,11411.3238731,E,1,17,1.0,-1.541,M,-2.131,M,0.0,0000*40
$GPESA,063010.004,-0.011,-0.070,-0.137,+0.000,+0.000,+0.000*76
$GPESD,063010.004,0.000,0.000,0.000,0.000,0.000,0.000,0.000,0.000,0.000*75
$GPRMC,063011.004,A,2218.1314901,N,11411.3237770,E,0.39,331.73,210521,0.0,E,A,V*73
$GPGGA,063011.004,2218.1314901,N,11411.3237770,E,1,17,1.0,-0.788,M,-2.131,M,0.0,0000*45
$GPESA,063011.004,-0.015,+0.044,+0.194,+0.000,+0.000,+0.000*7D
$GPESD,063011.004,0.000,0.000,0.000,0.000,0.000,0.000,0.000,0.000,0.000*74
$GPRMC,063012.004,A,2218.1315159,N,11411.3237276,E,0.39,344.95,210521,0.0,E,A,V*7D
$GPGGA,063012.004,2218.1315159,N,11411.3237276,E,1,17,1.0,-0.327,M,-2.131,M,0.0,0000*40
$GPESA,063012.004,+0.006,+0.026,-0.199,+0.000,+0.000,+0.000*75
$GPESD,063012.004,0.000,0.000,0.000,0.000,0.000,0.000,0.000,0.000,0.000*77
$GPRMC,063013.004,A,2218.1315259,N,11411.3236683,E,0.29,344.96,210521,0.0,E,A,V*72
$GPGGA,063013.004,2218.1315259,N,11411.3236683,E,1,17,1.0,0.158,M,-2.131,M,0.0,0000*6A
$GPESA,063013.004,-0.082,+0.117,+0.045,+0.000,+0.000,+0.000*7B
$GPESD,063013.004,0.000,0.000,0.000,0.000,0.000,0.000,0.000,0.000,0.000*76
$GPRMC,063014.004,A,2218.1315090,N,11411.3235979,E,0.41,345.09,210521,0.0,E,A,V*72
$GPGGA,063014.004,2218.1315090,N,11411.3235979,E,1,17,1.0,0.178,M,-2.131,M,0.0,0000*61
$GPESA,063014.004,+0.001,-0.017,-0.212,+0.000,+0.000,+0.000*70
$GPESD,063014.004,0.000,0.000,0.000,0.000,0.000,0.000,0.000,0.000,0.000*71
$GPRMC,063015.004,A,2218.1315486,N,11411.3234613,E,0.31,89.80,210521,0.0,E,A,V*47
$GPGGA,063015.004,2218.1315486,N,11411.3234613,E,1,17,1.0,0.407,M,-2.131,M,0.0,0000*6C
$GPESA,063015.004,-0.010,+0.106,+0.119,+0.000,+0.000,+0.000*7E
$GPESD,063015.004,0.000,0.000,0.000,0.000,0.000,0.000,0.000,0.000,0.000*70
$GPRMC,063016.004,A,2218.1315762,N,11411.3234504,E,0.26,261.20,210521,0.0,E,A,V*70
$GPGGA,063016.004,2218.1315762,N,11411.3234504,E,1,17,1.0,0.624,M,-2.131,M,0.0,0000*60
$GPESA,063016.004,+0.022,-0.006,+0.130,+0.000,+0.000,+0.000*76
$GPESD,063016.004,0.000,0.000,0.000,0.000,0.000,0.000,0.000,0.000,0.000*73
$GPRMC,063017.004,A,2218.1315618,N,11411.3234292,E,0.46,252.76,210521,0.0,E,A,V*70
$GPGGA,063017.004,2218.1315618,N,11411.3234292,E,1,17,1.0,0.834,M,-2.131,M,0.0,0000*6A
$GPESA,063017.004,+0.045,-0.001,+0.234,+0.000,+0.000,+0.000*76
$GPESD,063017.004,0.000,0.000,0.000,0.000,0.000,0.000,0.000,0.000,0.000*72
$GPRMC,063018.004,A,2218.1315435,N,11411.3234998,E,0.53,86.46,210521,0.0,E,A,V*4F
$GPGGA,063018.004,2218.1315435,N,11411.3234998,E,1,17,1.0,0.647,M,-2.131,M,0.0,0000*63
$GPESA,063018.004,-0.061,-0.077,-0.257,+0.000,+0.000,+0.000*7B
$GPESD,063018.004,0.000,0.000,0.000,0.000,0.000,0.000,0.000,0.000,0.000*7D
$GPRMC,063019.004,A,2218.1315698,N,11411.3235131,E,0.13,86.59,210521,0.0,E,A,V*4B
$GPGGA,063019.004,2218.1315698,N,11411.3235131,E,1,17,1.0,0.877,M,-2.131,M,0.0,0000*60
$GPESA,063019.004,+0.054,+0.027,+0.033,+0.000,+0.000,+0.000*7F
$GPESD,063019.004,0.000,0.000,0.000,0.000,0.000,0.000,0.000,0.000,0.000*7C
$GPRMC,063020.004,A,2218.1316151,N,11411.3235784,E,0.33,86.52,210521,0.0,E,A,V*41
$GPGGA,063020.004,2218.1316151,N,11411.3235784,E,1,17,1.0,0.975,M,-2.131,M,0.0,0000*60
$GPESA,063020.004,+0.006,-0.016,+0.168,+0.000,+0.000,+0.000*79
$GPESD,063020.004,0.000,0.000,0.000,0.000,0.000,0.000,0.000,0.000,0.000*76
$GPRMC,063021.004,A,2218.1315839,N,11411.3236301,E,0.15,86.49,210521,0.0,E,A,V*40
$GPGGA,063021.004,2218.1315839,N,11411.3236301,E,1,17,1.0,0.881,M,-2.131,M,0.0,0000*65
$GPESA,063021.004,-0.028,+0.026,-0.065,+0.000,+0.000,+0.000*7D
$GPESD,063021.004,0.000,0.000,0.000,0.000,0.000,0.000,0.000,0.000,0.000*77
$GPRMC,063022.004,A,2218.1316216,N,11411.3235953,E,0.26,345.90,210521,0.0,E,A,V*71
$GPGGA,063022.004,2218.1316216,N,11411.3235953,E,1,17,1.0,0.812,M,-2.131,M,0.0,0000*66
$GPESA,063022.004,+0.015,+0.051,-0.123,+0.000,+0.000,+0.000*75
$GPESD,063022.004,0.000,0.000,0.000,0.000,0.000,0.000,0.000,0.000,0.000*74
$GPRMC,063023.004,A,2218.1316060,N,11411.3235223,E,0.20,346.14,210521,0.0,E,A,V*76
$GPGGA,063023.004,2218.1316060,N,11411.3235223,E,1,17,1.0,0.788,M,-2.131,M,0.0,0000*64
$GPESA,063023.004,+0.001,-0.022,+0.102,+0.000,+0.000,+0.000*76
$GPESD,063023.004,0.000,0.000,0.000,0.000,0.000,0.000,0.000,0.000,0.000*75
$GPRMC,063024.004,A,2218.1315471,N,11411.3234900,E,0.86,346.18,210521,0.0,E,A,V*7D
$GPGGA,063024.004,2218.1315471,N,11411.3234900,E,1,17,1.0,0.779,M,-2.131,M,0.0,0000*61
$GPESA,063024.004,-0.087,-0.206,+0.384,+0.000,+0.000,+0.000*71
$GPESD,063024.004,0.000,0.000,0.000,0.000,0.000,0.000,0.000,0.000,0.000*72
$GPRMC,063025.004,A,2218.1309003,N,11411.3233768,E,4.13,49.66,210521,0.0,E,A,V*4A
$GPGGA,063025.004,2218.1309003,N,11411.3233768,E,1,17,1.0,0.328,M,-2.131,M,0.0,0000*6B
$GPESA,063025.004,-0.393,-2.048,+0.399,+0.000,+0.000,+0.000*70
$GPESD,063025.004,0.000,0.000,0.000,0.000,0.000,0.000,0.000,0.000,0.000*73
$GPRMC,063026.004,A,2218.1295447,N,11411.3229077,E,7.16,64.85,210521,0.0,E,A,V*4F
$GPGGA,063026.004,2218.1295447,N,11411.3229077,E,1,17,1.0,0.540,M,-2.131,M,0.0,0000*62
$GPESA,063026.004,-1.062,-3.524,+0.084,+0.000,+0.000,+0.000*7E
$GPESD,063026.004,0.000,0.000,0.000,0.000,0.000,0.000,0.000,0.000,0.000*70
$GPRMC,063027.004,A,2218.1275426,N,11411.3219049,E,11.11,73.94,210521,0.0,E,A,V*7F
$GPGGA,063027.004,2218.1275426,N,11411.3219049,E,1,17,1.0,3.014,M,-2.131,M,0.0,0000*63
$GPESA,063027.004,-2.393,-5.185,-0.198,+0.000,+0.000,+0.000*72
$GPESD,063027.004,0.000,0.000,0.000,0.000,0.000,0.000,0.000,0.000,0.000*71
$GPRMC,063028.004,A,2218.1244867,N,11411.3203842,E,13.13,75.47,210521,0.0,E,A,V*7B
$GPGGA,063028.004,2218.1244867,N,11411.3203842,E,1,17,1.0,1.661,M,-2.131,M,0.0,0000*69
$GPESA,063028.004,-3.119,-5.987,-0.232,+0.000,+0.000,+0.000*75
$GPESD,063028.004,0.000,0.000,0.000,0.000,0.000,0.000,0.000,0.000,0.000*7E
$GPRMC,063029.004,A,2218.1212534,N,11411.3186016,E,16.25,81.54,210521,0.0,E,A,V*7C
$GPGGA,063029.004,2218.1212534,N,11411.3186016,E,1,17,1.0,2.145,M,-2.131,M,0.0,0000*65
$GPESA,063029.004,-3.980,-7.282,-0.992,+0.000,+0.000,+0.000*71
$GPESD,063029.004,0.000,0.000,0.000,0.000,0.000,0.000,0.000,0.000,0.000*7F
$GPRMC,063030.004,A,2218.1175305,N,11411.3158041,E,16.34,77.96,210521,0.0,E,A,V*74
$GPGGA,063030.004,2218.1175305,N,11411.3158041,E,1,16,1.0,3.119,M,-2.131,M,0.0,0000*63
$GPESA,063030.004,-4.649,-7.003,-0.200,+0.000,+0.000,+0.000*7F
$GPESD,063030.004,0.000,0.000,0.000,0.000,0.000,0.000,0.000,0.000,0.000*77
$GPRMC,063031.004,A,2218.1135951,N,11411.3130580,E,15.73,78.51,210521,0.0,E,A,V*78
$GPGGA,063031.004,2218.1135951,N,11411.3130580,E,1,16,1.0,0.835,M,-2.131,M,0.0,0000*6F
$GPESA,063031.004,-5.165,-6.227,+0.134,+0.000,+0.000,+0.000*71
$GPESD,063031.004,0.000,0.000,0.000,0.000,0.000,0.000,0.000,0.000,0.000*76
$GPRMC,063032.004,A,2218.1102712,N,11411.3098557,E,16.15,78.75,210521,0.0,E,A,V*7A
$GPGGA,063032.004,2218.1102712,N,11411.3098557,E,1,17,1.0,1.094,M,-2.131,M,0.0,0000*6B
$GPESA,063032.004,-5.763,-5.970,+0.391,+0.000,+0.000,+0.000*75
$GPESD,063032.004,0.000,0.000,0.000,0.000,0.000,0.000,0.000,0.000,0.000*75
$GPRMC,063033.004,A,2218.1069558,N,11411.3063627,E,16.55,82.95,210521,0.0,E,A,V*74
$GPGGA,063033.004,2218.1069558,N,11411.3063627,E,1,17,1.0,0.729,M,-2.131,M,0.0,0000*6A
$GPESA,063033.004,-6.300,-5.728,-0.003,+0.000,+0.000,+0.000*7B
$GPESD,063033.004,0.000,0.000,0.000,0.000,0.000,0.000,0.000,0.000,0.000*74
$GPRMC,063034.004,A,2218.1040454,N,11411.3026938,E,15.52,78.16,210521,0.0,E,A,V*7F
$GPGGA,063034.004,2218.1040454,N,11411.3026938,E,1,17,1.0,1.141,M,-2.131,M,0.0,0000*62
$GPESA,063034.004,-6.355,-4.716,+1.055,+0.000,+0.000,+0.000*74
$GPESD,063034.004,0.000,0.000,0.000,0.000,0.000,0.000,0.000,0.000,0.000*73
$GPRMC,063035.004,A,2218.1016786,N,11411.2990646,E,16.17,86.75,210521,0.0,E,A,V*74
$GPGGA,063035.004,2218.1016786,N,11411.2990646,E,1,18,1.0,2.250,M,-2.132,M,0.0,0000*63
$GPESA,063035.004,-6.651,-4.987,-0.250,+0.000,+0.000,+0.000*72
$GPESD,063035.004,0.000,0.000,0.000,0.000,0.000,0.000,0.000,0.000,0.000*72
$GPRMC,063036.004,A,2218.0990988,N,11411.2952270,E,16.58,86.37,210521,0.0,E,A,V*73
$GPGGA,063036.004,2218.0990988,N,11411.2952270,E,1,17,1.0,2.273,M,-2.132,M,0.0,0000*67
$GPESA,063036.004,-6.831,-5.101,-0.190,+0.000,+0.000,+0.000*71
$GPESD,063036.004,0.000,0.000,0.000,0.000,0.000,0.000,0.000,0.000,0.000*71
$GPRMC,063037.004,A,2218.0963736,N,11411.2910186,E,17.26,86.19,210521,0.0,E,A,V*7D
$GPGGA,063037.004,2218.0963736,N,11411.2910186,E,1,18,1.0,3.567,M,-2.132,M,0.0,0000*61
$GPESA,063037.004,-7.225,-5.157,-0.088,+0.000,+0.000,+0.000*75
$GPESD,063037.004,0.000,0.000,0.000,0.000,0.000,0.000,0.000,0.000,0.000*70
$GPRMC,063038.004,A,2218.0948595,N,11411.2875743,E,17.37,88.62,210521,0.0,E,A,V*7F
$GPGGA,063038.004,2218.0948595,N,11411.2875743,E,1,18,1.0,8.531,M,-2.132,M,0.0,0000*69
$GPESA,063038.004,-7.099,-5.395,-0.599,+0.000,+0.000,+0.000*76
$GPESD,063038.004,0.000,0.000,0.000,0.000,0.000,0.000,0.000,0.000,0.000*7F
$GPRMC,063039.004,A,2218.0910370,N,11411.2832129,E,16.04,89.16,210521,0.0,E,A,V*74
$GPGGA,063039.004,2218.0910370,N,11411.2832129,E,1,18,1.0,4.437,M,-2.132,M,0.0,0000*6A
$GPESA,063039.004,-7.018,-4.333,-0.313,+0.000,+0.000,+0.000*77
$GPESD,063039.004,0.000,0.000,0.000,0.000,0.000,0.000,0.000,0.000,0.000*7E
$GPRMC,063040.004,A,2218.0881025,N,11411.2794529,E,14.61,87.69,210521,0.0,E,A,V*70
$GPGGA,063040.004,2218.0881025,N,11411.2794529,E,1,17,1.0,3.722,M,-2.132,M,0.0,0000*66
$GPESA,063040.004,-6.777,-3.246,+0.251,+0.000,+0.000,+0.000*73
$GPESD,063040.004,0.000,0.000,0.000,0.000,0.000,0.000,0.000,0.000,0.000*70
$GPRMC,063041.004,A,2218.0880501,N,11411.2742779,E,13.14,88.53,210521,0.0,E,A,V*7C
$GPGGA,063041.004,2218.0880501,N,11411.2742779,E,1,19,1.0,3.814,M,-2.133,M,0.0,0000*6C
$GPESA,063041.004,-5.934,-3.241,-0.028,+0.000,+0.000,+0.000*75
$GPESD,063041.004,0.000,0.000,0.000,0.000,0.000,0.000,0.000,0.000,0.000*71
$GPRMC,063042.004,A,2218.0866285,N,11411.2709910,E,11.41,93.10,210521,0.0,E,A,V*7D
$GPGGA,063042.004,2218.0866285,N,11411.2709910,E,1,17,1.0,4.638,M,-2.133,M,0.0,0000*6B
$GPESA,063042.004,-5.344,-2.401,-0.343,+0.000,+0.000,+0.000*76
$GPESD,063042.004,0.000,0.000,0.000,0.000,0.000,0.000,0.000,0.000,0.000*72
$GPRMC,063043.004,A,2218.0837585,N,11411.2689667,E,8.71,93.09,210521,0.0,E,A,V*4A
$GPGGA,063043.004,2218.0837585,N,11411.2689667,E,1,16,1.0,4.157,M,-2.133,M,0.0,0000*60
$GPESA,063043.004,-4.094,-1.808,-0.250,+0.000,+0.000,+0.000*7D
$GPESD,063043.004,0.000,0.000,0.000,0.000,0.000,0.000,0.000,0.000,0.000*73
$GPRMC,063044.004,A,2218.0823258,N,11411.2657217,E,5.68,88.22,210521,0.0,E,A,V*49
$GPGGA,063044.004,2218.0823258,N,11411.2657217,E,1,16,1.0,-3.477,M,-2.133,M,0.0,0000*48
$GPESA,063044.004,-2.638,-1.257,+0.071,+0.000,+0.000,+0.000*7B
$GPESD,063044.004,0.000,0.000,0.000,0.000,0.000,0.000,0.000,0.000,0.000*74
$GPRMC,063045.004,A,2218.0838032,N,11411.2654404,E,3.19,100.00,210521,0.0,E,A,V*7A
$GPGGA,063045.004,2218.0838032,N,11411.2654404,E,1,16,1.0,5.651,M,-2.133,M,0.0,0000*67
$GPESA,063045.004,-1.448,-0.695,-0.323,+0.000,+0.000,+0.000*75
$GPESD,063045.004,0.000,0.000,0.000,0.000,0.000,0.000,0.000,0.000,0.000*75
$GPRMC,063046.004,A,2218.0835111,N,11411.2650733,E,2.25,89.38,210521,0.0,E,A,V*42
$GPGGA,063046.004,2218.0835111,N,11411.2650733,E,1,14,1.0,4.926,M,-2.133,M,0.0,0000*66
$GPESA,063046.004,-0.647,-0.932,-0.228,+0.000,+0.000,+0.000*72
$GPESD,063046.004,0.000,0.000,0.000,0.000,0.000,0.000,0.000,0.000,0.000*76
$GPRMC,063047.004,A,2218.0821507,N,11411.2637988,E,1.11,105.11,210521,0.0,E,A,V*70
$GPGGA,063047.004,2218.0821507,N,11411.2637988,E,1,13,1.0,-1.788,M,-2.133,M,0.0,0000*4B
$GPESA,063047.004,-0.235,-0.181,-0.489,+0.000,+0.000,+0.000*7F
$GPESD,063047.004,0.000,0.000,0.000,0.000,0.000,0.000,0.000,0.000,0.000*77
$GPRMC,063048.004,A,2218.0831620,N,11411.2639462,E,0.33,89.79,210521,0.0,E,A,V*45
$GPGGA,063048.004,2218.0831620,N,11411.2639462,E,1,14,1.0,0.551,M,-2.133,M,0.0,0000*69
$GPESA,063048.004,-0.104,-0.075,-0.113,+0.000,+0.000,+0.000*7D
$GPESD,063048.004,0.000,0.000,0.000,0.000,0.000,0.000,0.000,0.000,0.000*78
$GPRMC,063049.004,A,2218.0841596,N,11411.2636565,E,0.77,135.25,210521,0.0,E,A,V*7B
$GPGGA,063049.004,2218.0841596,N,11411.2636565,E,1,13,1.0,0.752,M,-2.133,M,0.0,0000*6E
$GPESA,063049.004,-0.390,-0.062,-0.046,+0.000,+0.000,+0.000*74
$GPESD,063049.004,0.000,0.000,0.000,0.000,0.000,0.000,0.000,0.000,0.000*79
$GPRMC,063050.004,A,2218.0827809,N,11411.2638200,E,0.82,218.77,210521,0.0,E,A,V*73
$GPGGA,063050.004,2218.0827809,N,11411.2638200,E,1,14,1.0,-2.319,M,-2.133,M,0.0,0000*44
$GPESA,063050.004,-0.240,-0.119,+0.327,+0.000,+0.000,+0.000*7F
$GPESD,063050.004,0.000,0.000,0.000,0.000,0.000,0.000,0.000,0.000,0.000*71
$GPRMC,063051.004,A,2218.0835536,N,11411.2645988,E,0.17,114.57,210521,0.0,E,A,V*70
$GPGGA,063051.004,2218.0835536,N,11411.2645988,E,1,18,1.0,1.757,M,-2.133,M,0.0,0000*6A
$GPESA,063051.004,+0.009,-0.089,+0.001,+0.000,+0.000,+0.000*78
$GPESD,063051.004,0.000,0.000,0.000,0.000,0.000,0.000,0.000,0.000,0.000*70
$GPRMC,063052.004,A,2218.0839089,N,11411.2647338,E,0.15,137.81,210521,0.0,E,A,V*75
$GPGGA,063052.004,2218.0839089,N,11411.2647338,E,1,18,1.0,2.909,M,-2.133,M,0.0,0000*61
$GPESA,063052.004,+0.070,+0.012,-0.022,+0.000,+0.000,+0.000*76
$GPESD,063052.004,0.000,0.000,0.000,0.000,0.000,0.000,0.000,0.000,0.000*73
$GPRMC,063053.004,A,2218.0834633,N,11411.2648143,E,0.26,65.76,210521,0.0,E,A,V*41
$GPGGA,063053.004,2218.0834633,N,11411.2648143,E,1,18,1.0,1.860,M,-2.133,M,0.0,0000*66
$GPESA,063053.004,-0.011,+0.034,-0.132,+0.000,+0.000,+0.000*72
$GPESD,063053.004,0.000,0.000,0.000,0.000,0.000,0.000,0.000,0.000,0.000*72
$GPRMC,063054.004,A,2218.0824322,N,11411.2650988,E,0.18,140.78,210521,0.0,E,A,V*71
$GPGGA,063054.004,2218.0824322,N,11411.2650988,E,1,18,1.0,-2.409,M,-2.133,M,0.0,0000*4E
$GPESA,063054.004,+0.038,-0.044,-0.074,+0.000,+0.000,+0.000*7A
$GPESD,063054.004,0.000,0.000,0.000,0.000,0.000,0.000,0.000,0.000,0.000*75
$GPRMC,063055.004,A,2218.0831817,N,11411.2643904,E,0.78,65.55,210521,0.0,E,A,V*40
$GPGGA,063055.004,2218.0831817,N,11411.2643904,E,1,18,1.0,0.085,M,-2.133,M,0.0,0000*6F
$GPESA,063055.004,-0.366,+0.137,-0.095,+0.000,+0.000,+0.000*79
$GPESD,063055.004,0.000,0.000,0.000,0.000,0.000,0.000,0.000,0.000,0.000*74
$GPRMC,063056.004,A,2218.0828854,N,11411.2640631,E,2.30,125.45,210521,0.0,E,A,V*7C
$GPGGA,063056.004,2218.0828854,N,11411.2640631,E,1,16,1.0,4.095,M,-2.133,M,0.0,0000*62
$GPESA,063056.004,-1.001,+0.626,-0.103,+0.000,+0.000,+0.000*70
$GPESD,063056.004,0.000,0.000,0.000,0.000,0.000,0.000,0.000,0.000,0.000*77
$GPRMC,063057.004,A,2218.0817855,N,11411.2641185,E,2.63,89.62,210521,0.0,E,A,V*4D
$GPGGA,063057.004,2218.0817855,N,11411.2641185,E,1,14,1.0,3.627,M,-2.133,M,0.0,0000*6D
$GPESA,063057.004,-1.286,+0.261,+0.322,+0.000,+0.000,+0.000*7C
$GPESD,063057.004,0.000,0.000,0.000,0.000,0.000,0.000,0.000,0.000,0.000*76
$GPRMC,063058.004,A,2218.0825170,N,11411.2631961,E,3.46,141.94,210521,0.0,E,A,V*72
$GPGGA,063058.004,2218.0825170,N,11411.2631961,E,1,14,1.0,5.321,M,-2.133,M,0.0,0000*6D
$GPESA,063058.004,-1.365,+1.006,-0.545,+0.000,+0.000,+0.000*7C
$GPESD,063058.004,0.000,0.000,0.000,0.000,0.000,0.000,0.000,0.000,0.000*79
$GPRMC,063059.004,A,2218.0821877,N,11411.2631882,E,4.33,175.32,210521,0.0,E,A,V*7B
$GPGGA,063059.004,2218.0821877,N,11411.2631882,E,1,14,1.0,1.526,M,-2.133,M,0.0,0000*6F
$GPESA,063059.004,-0.972,+1.872,-0.721,+0.000,+0.000,+0.000*7B
$GPESD,063059.004,0.000,0.000,0.000,0.000,0.000,0.000,0.000,0.000,0.000*78
$GPRMC,063100.004,A,2218.0838064,N,11411.2619051,E,4.11,225.65,210521,0.0,E,A,V*7C
$GPGGA,063100.004,2218.0838064,N,11411.2619051,E,1,14,1.0,-0.012,M,-2.133,M,0.0,0000*42
$GPESA,063100.004,+0.512,+1.929,-0.693,+0.000,+0.000,+0.000*7D
$GPESD,063100.004,0.000,0.000,0.000,0.000,0.000,0.000,0.000,0.000,0.000*75
$GPRMC,063101.004,A,2218.0847977,N,11411.2626155,E,5.35,264.68,210521,0.0,E,A,V*78
$GPGGA,063101.004,2218.0847977,N,11411.2626155,E,1,14,1.0,0.069,M,-2.133,M,0.0,0000*68
$GPESA,063101.004,+1.509,+2.270,+0.364,+0.000,+0.000,+0.000*78
$GPESD,063101.004,0.000,0.000,0.000,0.000,0.000,0.000,0.000,0.000,0.000*74
$GPRMC,063102.004,A,2218.0827099,N,11411.2649057,E,7.21,263.90,210521,0.0,E,A,V*79
$GPGGA,063102.004,2218.0827099,N,11411.2649057,E,1,14,1.0,1.191,M,-2.133,M,0.0,0000*69
$GPESA,063102.004,+3.558,-0.189,-1.035,+0.000,+0.000,+0.000*7C
$GPESD,063102.004,0.000,0.000,0.000,0.000,0.000,0.000,0.000,0.000,0.000*77
$GPRMC,063103.004,A,2218.0808885,N,11411.2676875,E,7.46,270.19,210521,0.0,E,A,V*76
$GPGGA,063103.004,2218.0808885,N,11411.2676875,E,1,14,1.0,1.131,M,-2.133,M,0.0,0000*6E
$GPESA,063103.004,+3.553,+1.455,-0.039,+0.000,+0.000,+0.000*78
$GPESD,063103.004,0.000,0.000,0.000,0.000,0.000,0.000,0.000,0.000,0.000*76
$GPRMC,063104.004,A,2218.0857230,N,11411.2682424,E,9.51,274.16,210521,0.0,E,A,V*7F
$GPGGA,063104.004,2218.0857230,N,11411.2682424,E,1,16,1.0,-1.450,M,-2.133,M,0.0,0000*49
$GPESA,063104.004,+4.528,+1.830,+0.307,+0.000,+0.000,+0.000*73
$GPESD,063104.004,0.000,0.000,0.000,0.000,0.000,0.000,0.000,0.000,0.000*71
$GPRMC,063105.004,A,2218.0895565,N,11411.2722126,E,10.81,272.03,210521,0.0,E,A,V*4C
$GPGGA,063105.004,2218.0895565,N,11411.2722126,E,1,16,1.0,5.969,M,-2.133,M,0.0,0000*63
$GPESA,063105.004,+5.237,+1.874,+0.033,+0.000,+0.000,+0.000*7E
$GPESD,063105.004,0.000,0.000,0.000,0.000,0.000,0.000,0.000,0.000,0.000*70
$GPRMC,063106.004,A,2218.0905285,N,11411.2747616,E,11.82,271.92,210521,0.0,E,A,V*40
$GPGGA,063106.004,2218.0905285,N,11411.2747616,E,1,16,1.0,4.948,M,-2.133,M,0.0,0000*64
$GPESA,063106.004,+5.548,+2.479,+0.215,+0.000,+0.000,+0.000*76
$GPESD,063106.004,0.000,0.000,0.000,0.000,0.000,0.000,0.000,0.000,0.000*73
$GPRMC,063107.004,A,2218.0921910,N,11411.2789048,E,13.00,266.03,210521,0.0,E,A,V*49
$GPGGA,063107.004,2218.0921910,N,11411.2789048,E,1,17,1.0,5.051,M,-2.132,M,0.0,0000*6B
$GPESA,063107.004,+6.023,+2.878,-0.436,+0.000,+0.000,+0.000*70
$GPESD,063107.004,0.000,0.000,0.000,0.000,0.000,0.000,0.000,0.000,0.000*72
$GPRMC,063108.004,A,2218.0941127,N,11411.2819362,E,12.86,270.21,210521,0.0,E,A,V*49
$GPGGA,063108.004,2218.0941127,N,11411.2819362,E,1,17,1.0,5.892,M,-2.132,M,0.0,0000*64
$GPESA,063108.004,+5.738,+3.279,+0.289,+0.000,+0.000,+0.000*7F
$GPESD,063108.004,0.000,0.000,0.000,0.000,0.000,0.000,0.000,0.000,0.000*7D
$GPRMC,063109.004,A,2218.0957212,N,11411.2855155,E,11.89,268.10,210521,0.0,E,A,V*43
$GPGGA,063109.004,2218.0957212,N,11411.2855155,E,1,16,1.0,5.246,M,-2.132,M,0.0,0000*6B
$GPESA,063109.004,+5.474,+2.728,-0.118,+0.000,+0.000,+0.000*78
$GPESD,063109.004,0.000,0.000,0.000,0.000,0.000,0.000,0.000,0.000,0.000*7C
$GPRMC,063110.004,A,2218.0981443,N,11411.2889215,E,11.83,266.84,210521,0.0,E,A,V*4D
$GPGGA,063110.004,2218.0981443,N,11411.2889215,E,1,16,1.0,6.241,M,-2.132,M,0.0,0000*68
$GPESA,063110.004,+5.178,+3.195,-0.035,+0.000,+0.000,+0.000*76
$GPESD,063110.004,0.000,0.000,0.000,0.000,0.000,0.000,0.000,0.000,0.000*74
$GPRMC,063111.004,A,2218.0972545,N,11411.2924306,E,11.10,264.94,210521,0.0,E,A,V*4B
$GPGGA,063111.004,2218.0972545,N,11411.2924306,E,1,13,1.0,4.430,M,-2.132,M,0.0,0000*60
$GPESA,063111.004,+4.469,+3.555,+0.049,+0.000,+0.000,+0.000*76
$GPESD,063111.004,0.000,0.000,0.000,0.000,0.000,0.000,0.000,0.000,0.000*75
$GPRMC,063112.004,A,2218.1003076,N,11411.2946884,E,10.14,262.58,210521,0.0,E,A,V*45
$GPGGA,063112.004,2218.1003076,N,11411.2946884,E,1,15,1.0,4.837,M,-2.132,M,0.0,0000*60
$GPESA,063112.004,+4.039,+3.297,-0.154,+0.000,+0.000,+0.000*76
$GPESD,063112.004,0.000,0.000,0.000,0.000,0.000,0.000,0.000,0.000,0.000*76
$GPRMC,063113.004,A,2218.1053583,N,11411.2967131,E,8.76,260.76,210521,0.0,E,A,V*79
$GPGGA,063113.004,2218.1053583,N,11411.2967131,E,1,16,1.0,13.583,M,-2.132,M,0.0,0000*58
$GPESA,063113.004,+3.312,+3.055,-0.164,+0.000,+0.000,+0.000*75
$GPESD,063113.004,0.000,0.000,0.000,0.000,0.000,0.000,0.000,0.000,0.000*77
$GPRMC,063114.004,A,2218.1079893,N,11411.2997126,E,6.88,256.18,210521,0.0,E,A,V*71
$GPGGA,063114.004,2218.1079893,N,11411.2997126,E,1,15,1.0,20.694,M,-2.132,M,0.0,0000*54
$GPESA,063114.004,+2.346,+2.641,-0.263,+0.000,+0.000,+0.000*74
$GPESD,063114.004,0.000,0.000,0.000,0.000,0.000,0.000,0.000,0.000,0.000*70
$GPRMC,063115.004,A,2218.1078838,N,11411.3000625,E,4.93,267.80,210521,0.0,E,A,V*79
$GPGGA,063115.004,2218.1078838,N,11411.3000625,E,1,15,1.0,14.462,M,-2.132,M,0.0,0000*5B
$GPESA,063115.004,+1.956,+1.607,+0.171,+0.000,+0.000,+0.000*7A
$GPESD,063115.004,0.000,0.000,0.000,0.000,0.000,0.000,0.000,0.000,0.000*71
$GPRMC,063116.004,A,2218.1075784,N,11411.3017547,E,2.45,257.72,210521,0.0,E,A,V*7D
$GPGGA,063116.004,2218.1075784,N,11411.3017547,E,1,16,1.0,12.456,M,-2.132,M,0.0,0000*5E
$GPESA,063116.004,+1.012,+0.724,-0.186,+0.000,+0.000,+0.000*7F
$GPESD,063116.004,0.000,0.000,0.000,0.000,0.000,0.000,0.000,0.000,0.000*72
$GPRMC,063117.004,A,2218.1081458,N,11411.2996472,E,0.84,254.03,210521,0.0,E,A,V*79
$GPGGA,063117.004,2218.1081458,N,11411.2996472,E,1,16,1.0,7.542,M,-2.132,M,0.0,0000*60
$GPESA,063117.004,+0.274,+0.333,+0.051,+0.000,+0.000,+0.000*72
$GPESD,063117.004,0.000,0.000,0.000,0.000,0.000,0.000,0.000,0.000,0.000*73
$GPRMC,063118.004,A,2218.1077122,N,11411.2978408,E,0.13,129.45,210521,0.0,E,A,V*7F
$GPGGA,063118.004,2218.1077122,N,11411.2978408,E,1,15,1.0,3.527,M,-2.132,M,0.0,0000*67
$GPESA,063118.004,-0.022,+0.007,-0.061,+0.000,+0.000,+0.000*7B
$GPESD,063118.004,0.000,0.000,0.000,0.000,0.000,0.000,0.000,0.000,0.000*7C
$GPRMC,063119.004,A,2218.1077839,N,11411.2972158,E,0.14,153.25,210521,0.0,E,A,V*7B
$GPGGA,063119.004,2218.1077839,N,11411.2972158,E,1,15,1.0,3.193,M,-2.132,M,0.0,0000*64
$GPESA,063119.004,+0.067,-0.010,+0.022,+0.000,+0.000,+0.000*7C
$GPESD,063119.004,0.000,0.000,0.000,0.000,0.000,0.000,0.000,0.000,0.000*7D
$GPRMC,063120.004,A,2218.1076415,N,11411.2971015,E,0.24,169.08,210521,0.0,E,A,V*7C
$GPGGA,063120.004,2218.1076415,N,11411.2971015,E,1,15,1.0,2.102,M,-2.132,M,0.0,0000*6F
$GPESA,063120.004,-0.070,-0.035,-0.097,+0.000,+0.000,+0.000*79
$GPESD,063120.004,0.000,0.000,0.000,0.000,0.000,0.000,0.000,0.000,0.000*77
$GPRMC,063121.004,A,2218.1079925,N,11411.2962476,E,0.26,131.34,210521,0.0,E,A,V*7F
$GPGGA,063121.004,2218.1079925,N,11411.2962476,E,1,15,1.0,1.386,M,-2.132,M,0.0,0000*61
$GPESA,063121.004,-0.059,+0.113,-0.036,+0.000,+0.000,+0.000*7B
$GPESD,063121.004,0.000,0.000,0.000,0.000,0.000,0.000,0.000,0.000,0.000*76
$GPRMC,063122.004,A,2218.1079043,N,11411.2969876,E,0.39,131.34,210521,0.0,E,A,V*7C
$GPGGA,063122.004,2218.1079043,N,11411.2969876,E,1,15,1.0,2.185,M,-2.132,M,0.0,0000*6E
$GPESA,063122.004,-0.006,-0.057,-0.194,+0.000,+0.000,+0.000*7C
$GPESD,063122.004,0.000,0.000,0.000,0.000,0.000,0.000,0.000,0.000,0.000*75
$GPRMC,063123.004,A,2218.1076355,N,11411.2978432,E,0.11,131.37,210521,0.0,E,A,V*73
$GPGGA,063123.004,2218.1076355,N,11411.2978432,E,1,15,1.0,3.736,M,-2.132,M,0.0,0000*67
$GPESA,063123.004,+0.012,-0.024,+0.052,+0.000,+0.000,+0.000*77
$GPESD,063123.004,0.000,0.000,0.000,0.000,0.000,0.000,0.000,0.000,0.000*74
$GPRMC,063124.004,A,2218.1076450,N,11411.2979691,E,0.24,131.25,210521,0.0,E,A,V*79
$GPGGA,063124.004,2218.1076450,N,11411.2979691,E,1,16,1.0,3.784,M,-2.132,M,0.0,0000*62
$GPESA,063124.004,+0.019,+0.011,+0.121,+0.000,+0.000,+0.000*7E
$GPESD,063124.004,0.000,0.000,0.000,0.000,0.000,0.000,0.000,0.000,0.000*73
$GPRMC,063125.004,A,2218.1077111,N,11411.2978325,E,0.14,340.62,210521,0.0,E,A,V*76
$GPGGA,063125.004,2218.1077111,N,11411.2978325,E,1,16,1.0,3.704,M,-2.132,M,0.0,0000*61
$GPESA,063125.004,+0.038,-0.021,+0.057,+0.000,+0.000,+0.000*79
$GPESD,063125.004,0.000,0.000,0.000,0.000,0.000,0.000,0.000,0.000,0.000*72
$GPRMC,063126.004,A,2218.1077660,N,11411.2976322,E,0.24,341.04,210521,0.0,E,A,V*7F
$GPGGA,063126.004,2218.1077660,N,11411.2976322,E,1,16,1.0,3.369,M,-2.132,M,0.0,0000*65
$GPESA,063126.004,+0.007,+0.016,-0.120,+0.000,+0.000,+0.000*73
$GPESD,063126.004,0.000,0.000,0.000,0.000,0.000,0.000,0.000,0.000,0.000*71
$GPRMC,063127.004,A,2218.1074581,N,11411.2989073,E,0.18,340.77,210521,0.0,E,A,V*7C
$GPGGA,063127.004,2218.1074581,N,11411.2989073,E,1,17,1.0,4.940,M,-2.132,M,0.0,0000*6B
$GPESA,063127.004,+0.004,-0.045,-0.081,+0.000,+0.000,+0.000*7B
$GPESD,063127.004,0.000,0.000,0.000,0.000,0.000,0.000,0.000,0.000,0.000*70
$GPRMC,063128.004,A,2218.1076816,N,11411.2984602,E,0.13,128.53,210521,0.0,E,A,V*7E
$GPGGA,063128.004,2218.1076816,N,11411.2984602,E,1,18,1.0,4.231,M,-2.132,M,0.0,0000*6A
$GPESA,063128.004,+0.018,-0.024,+0.061,+0.000,+0.000,+0.000*76
$GPESD,063128.004,0.000,0.000,0.000,0.000,0.000,0.000,0.000,0.000,0.000*7F
$GPRMC,063129.004,A,2218.1075553,N,11411.2988722,E,0.30,128.62,210521,0.0,E,A,V*7C
$GPGGA,063129.004,2218.1075553,N,11411.2988722,E,1,18,1.0,4.977,M,-2.132,M,0.0,0000*62
$GPESA,063129.004,+0.058,-0.032,+0.140,+0.000,+0.000,+0.000*76
$GPESD,063129.004,0.000,0.000,0.000,0.000,0.000,0.000,0.000,0.000,0.000*7E
$GPRMC,063130.004,A,2218.1072065,N,11411.3003573,E,0.20,128.64,210521,0.0,E,A,V*79
$GPGGA,063130.004,2218.1072065,N,11411.3003573,E,1,18,1.0,6.556,M,-2.132,M,0.0,0000*6D
$GPESA,063130.004,+0.060,+0.058,+0.058,+0.000,+0.000,+0.000*77
$GPESD,063130.004,0.000,0.000,0.000,0.000,0.000,0.000,0.000,0.000,0.000*76
$GPRMC,063131.004,A,2218.1075579,N,11411.2991892,E,0.26,128.64,210521,0.0,E,A,V*70
$GPGGA,063131.004,2218.1075579,N,11411.2991892,E,1,18,1.0,5.261,M,-2.132,M,0.0,0000*62
$GPESA,063131.004,-0.049,-0.036,-0.122,+0.000,+0.000,+0.000*7F
$GPESD,063131.004,0.000,0.000,0.000,0.000,0.000,0.000,0.000,0.000,0.000*77
$GPRMC,063132.004,A,2218.1076393,N,11411.2990262,E,0.45,128.66,210521,0.0,E,A,V*71
$GPGGA,063132.004,2218.1076393,N,11411.2990262,E,1,18,1.0,5.438,M,-2.132,M,0.0,0000*6E
$GPESA,063132.004,+0.009,+0.109,+0.202,+0.000,+0.000,+0.000*72
$GPESD,063132.004,0.000,0.000,0.000,0.000,0.000,0.000,0.000,0.000,0.000*74
$GPRMC,063133.004,A,2218.1077869,N,11411.2986433,E,0.11,128.61,210521,0.0,E,A,V*7C
$GPGGA,063133.004,2218.1077869,N,11411.2986433,E,1,18,1.0,5.041,M,-2.132,M,0.0,0000*6F
$GPESA,063133.004,-0.026,-0.045,-0.027,+0.000,+0.000,+0.000*74
$GPESD,063133.004,0.000,0.000,0.000,0.000,0.000,0.000,0.000,0.000,0.000*75
$GPRMC,063134.004,A,2218.1077250,N,11411.2987734,E,0.18,128.63,210521,0.0,E,A,V*75
$GPGGA,063134.004,2218.1077250,N,11411.2987734,E,1,18,1.0,4.984,M,-2.132,M,0.0,0000*6C
$GPESA,063134.004,+0.009,-0.006,-0.091,+0.000,+0.000,+0.000*72
$GPESD,063134.004,0.000,0.000,0.000,0.000,0.000,0.000,0.000,0.000,0.000*72
$GPRMC,063135.004,A,2218.1077969,N,11411.2986094,E,0.13,128.61,210521,0.0,E,A,V*70
$GPGGA,063135.004,2218.1077969,N,11411.2986094,E,1,18,1.0,4.812,M,-2.132,M,0.0,0000*6E
$GPESA,063135.004,-0.019,+0.046,-0.044,+0.000,+0.000,+0.000*7E
$GPESD,063135.004,0.000,0.000,0.000,0.000,0.000,0.000,0.000,0.000,0.000*73
$GPRMC,063136.004,A,2218.1076576,N,11411.2987657,E,0.07,128.61,210521,0.0,E,A,V*7D
$GPGGA,063136.004,2218.1076576,N,11411.2987657,E,1,18,1.0,4.860,M,-2.132,M,0.0,0000*63
$GPESA,063136.004,+0.028,-0.019,-0.008,+0.000,+0.000,+0.000*7D
$GPESD,063136.004,0.000,0.000,0.000,0.000,0.000,0.000,0.000,0.000,0.000*70
$GPRMC,063137.004,A,2218.1076558,N,11411.2987666,E,0.39,128.62,210521,0.0,E,A,V*7C
$GPGGA,063137.004,2218.1076558,N,11411.2987666,E,1,18,1.0,4.831,M,-2.132,M,0.0,0000*68
$GPESA,063137.004,+0.045,+0.061,-0.184,+0.000,+0.000,+0.000*7B
$GPESD,063137.004,0.000,0.000,0.000,0.000,0.000,0.000,0.000,0.000,0.000*71
$GPRMC,063138.004,A,2218.1072499,N,11411.2992010,E,0.35,128.61,210521,0.0,E,A,V*77
$GPGGA,063138.004,2218.1072499,N,11411.2992010,E,1,18,1.0,6.650,M,-2.132,M,0.0,0000*67
$GPESA,063138.004,+0.011,+0.031,+0.176,+0.000,+0.000,+0.000*7B
$GPESD,063138.004,0.000,0.000,0.000,0.000,0.000,0.000,0.000,0.000,0.000*7E
$GPRMC,063139.004,A,2218.1072107,N,11411.2993489,E,0.27,128.59,210521,0.0,E,A,V*79
$GPGGA,063139.004,2218.1072107,N,11411.2993489,E,1,18,1.0,6.554,M,-2.132,M,0.0,0000*66
$GPESA,063139.004,-0.132,+0.043,+0.022,+0.000,+0.000,+0.000*79
$GPESD,063139.004,0.000,0.000,0.000,0.000,0.000,0.000,0.000,0.000,0.000*7F
$GPRMC,063140.004,A,2218.1071442,N,11411.2994823,E,0.43,144.65,210521,0.0,E,A,V*7C
$GPGGA,063140.004,2218.1071442,N,11411.2994823,E,1,18,1.0,6.524,M,-2.132,M,0.0,0000*63
$GPESA,063140.004,-0.081,+0.106,-0.179,+0.000,+0.000,+0.000*77
$GPESD,063140.004,0.000,0.000,0.000,0.000,0.000,0.000,0.000,0.000,0.000*71
$GPRMC,063141.004,A,2218.1069792,N,11411.2996005,E,0.33,144.71,210521,0.0,E,A,V*76
$GPGGA,063141.004,2218.1069792,N,11411.2996005,E,1,18,1.0,6.584,M,-2.132,M,0.0,0000*61
$GPESA,063141.004,-0.073,+0.009,-0.156,+0.000,+0.000,+0.000*78
$GPESD,063141.004,0.000,0.000,0.000,0.000,0.000,0.000,0.000,0.000,0.000*70
$GPRMC,063142.004,A,2218.1068699,N,11411.2997170,E,0.08,169.49,210521,0.0,E,A,V*70
$GPGGA,063142.004,2218.1068699,N,11411.2997170,E,1,18,1.0,6.356,M,-2.132,M,0.0,0000*62
$GPESA,063142.004,+0.007,-0.026,+0.034,+0.000,+0.000,+0.000*76
$GPESD,063142.004,0.000,0.000,0.000,0.000,0.000,0.000,0.000,0.000,0.000*73
$GPRMC,063143.004,A,2218.1068154,N,11411.2998065,E,0.14,169.46,210521,0.0,E,A,V*7F
$GPGGA,063143.004,2218.1068154,N,11411.2998065,E,1,18,1.0,6.565,M,-2.132,M,0.0,0000*69
$GPESA,063143.004,-0.062,+0.032,+0.019,+0.000,+0.000,+0.000*7E
$GPESD,063143.004,0.000,0.000,0.000,0.000,0.000,0.000,0.000,0.000,0.000*72
$GPRMC,063144.004,A,2218.1072749,N,11411.2992516,E,0.35,169.43,210521,0.0,E,A,V*74
$GPGGA,063144.004,2218.1072749,N,11411.2992516,E,1,18,1.0,4.226,M,-2.132,M,0.0,0000*66
$GPESA,063144.004,-0.075,-0.088,-0.136,+0.000,+0.000,+0.000*72
$GPESD,063144.004,0.000,0.000,0.000,0.000,0.000,0.000,0.000,0.000,0.000*75
$GPRMC,063145.004,A,2218.1066161,N,11411.2999094,E,0.53,174.23,210521,0.0,E,A,V*72
$GPGGA,063145.004,2218.1066161,N,11411.2999094,E,1,18,1.0,6.463,M,-2.132,M,0.0,0000*6F
$GPESA,063145.004,+0.126,+0.125,-0.205,+0.000,+0.000,+0.000*71
$GPESD,063145.004,0.000,0.000,0.000,0.000,0.000,0.000,0.000,0.000,0.000*74
$GPRMC,063146.004,A,2218.1072736,N,11411.2994652,E,1.24,169.42,210521,0.0,E,A,V*7B
$GPGGA,063146.004,2218.1072736,N,11411.2994652,E,1,17,1.0,4.213,M,-2.132,M,0.0,0000*60
$GPESA,063146.004,+0.294,+0.358,+0.441,+0.000,+0.000,+0.000*70
$GPESD,063146.004,0.000,0.000,0.000,0.000,0.000,0.000,0.000,0.000,0.000*77
$GPRMC,063147.004,A,2218.1076295,N,11411.2999593,E,3.44,257.41,210521,0.0,E,A,V*78
$GPGGA,063147.004,2218.1076295,N,11411.2999593,E,1,17,1.0,4.016,M,-2.132,M,0.0,0000*6D
$GPESA,063147.004,+1.093,+1.394,-0.041,+0.000,+0.000,+0.000*76
$GPESD,063147.004,0.000,0.000,0.000,0.000,0.000,0.000,0.000,0.000,0.000*76
$GPRMC,063148.004,A,2218.1084967,N,11411.3010053,E,5.77,253.68,210521,0.0,E,A,V*75
$GPGGA,063148.004,2218.1084967,N,11411.3010053,E,1,17,1.0,3.946,M,-2.132,M,0.0,0000*62
$GPESA,063148.004,+1.929,+2.228,-0.336,+0.000,+0.000,+0.000*77
$GPESD,063148.004,0.000,0.000,0.000,0.000,0.000,0.000,0.000,0.000,0.000*79
$GPRMC,063149.004,A,2218.1095837,N,11411.3027894,E,7.81,267.22,210521,0.0,E,A,V*75
$GPGGA,063149.004,2218.1095837,N,11411.3027894,E,1,17,1.0,4.444,M,-2.132,M,0.0,0000*68
$GPESA,063149.004,+2.844,+2.817,+0.379,+0.000,+0.000,+0.000*74
$GPESD,063149.004,0.000,0.000,0.000,0.000,0.000,0.000,0.000,0.000,0.000*78
$GPRMC,063150.004,A,2218.1163052,N,11411.3099401,E,9.45,262.26,210521,0.0,E,A,V*7C
$GPGGA,063150.004,2218.1163052,N,11411.3099401,E,1,15,1.0,32.363,M,-2.131,M,0.0,0000*50
$GPESA,063150.004,+3.282,+3.584,+0.134,+0.000,+0.000,+0.000*70
$GPESD,063150.004,0.000,0.000,0.000,0.000,0.000,0.000,0.000,0.000,0.000*70
$GPRMC,063151.004,A,2218.1185279,N,11411.3092388,E,10.10,249.00,210521,0.0,E,A,V*46
$GPGGA,063151.004,2218.1185279,N,11411.3092388,E,1,18,1.0,25.702,M,-2.131,M,0.0,0000*57
$GPESA,063151.004,+3.206,+3.976,-0.941,+0.000,+0.000,+0.000*70
$GPESD,063151.004,0.000,0.000,0.000,0.000,0.000,0.000,0.000,0.000,0.000*71
$GPRMC,063152.004,A,2218.1166669,N,11411.3074709,E,11.94,256.82,210521,0.0,E,A,V*41
$GPGGA,063152.004,2218.1166669,N,11411.3074709,E,1,17,1.0,3.641,M,-2.131,M,0.0,0000*64
$GPESA,063152.004,+3.419,+5.105,+0.017,+0.000,+0.000,+0.000*7D
$GPESD,063152.004,0.000,0.000,0.000,0.000,0.000,0.000,0.000,0.000,0.000*72
$GPRMC,063153.004,A,2218.1197531,N,11411.3089223,E,12.69,252.70,210521,0.0,E,A,V*47
$GPGGA,063153.004,2218.1197531,N,11411.3089223,E,1,17,1.0,1.457,M,-2.131,M,0.0,0000*6D
$GPESA,063153.004,+3.183,+5.696,-0.167,+0.000,+0.000,+0.000*77
$GPESD,063153.004,0.000,0.000,0.000,0.000,0.000,0.000,0.000,0.000,0.000*73
$GPRMC,063154.004,A,2218.1231182,N,11411.3105894,E,13.10,249.86,210521,0.0,E,A,V*4C
$GPGGA,063154.004,2218.1231182,N,11411.3105894,E,1,17,1.0,1.773,M,-2.131,M,0.0,0000*6F
$GPESA,063154.004,+2.979,+6.036,-0.300,+0.000,+0.000,+0.000*70
$GPESD,063154.004,0.000,0.000,0.000,0.000,0.000,0.000,0.000,0.000,0.000*74
$GPRMC,063155.004,A,2218.1261109,N,11411.3123710,E,12.59,241.80,210521,0.0,E,A,V*4E
$GPGGA,063155.004,2218.1261109,N,11411.3123710,E,1,17,1.0,1.619,M,-2.131,M,0.0,0000*62
$GPESA,063155.004,+2.398,+5.957,-0.857,+0.000,+0.000,+0.000*70
$GPESD,063155.004,0.000,0.000,0.000,0.000,0.000,0.000,0.000,0.000,0.000*75
